<markers>
<marker lat="42.333" lon="-71.5" site="South Boston (Massachusetts, United States)"/>
<marker lat="42.366" lon="-71.33" site="Noddle's Island (Massachusetts, United States)"/>
<marker lat="38.0" lon="-98.0" site="United States (United States)"/>
<marker lat="42.25" lon="-71.833" site="Massachusetts (Massachusetts, United States)"/>
<marker lat="42.316" lon="-71.83" site="Roxbury, Mass. (Massachusetts, United States)"/>
<marker lat="34.4" lon="-80.633" site="Fort Hill (South Carolina, United States)"/>
<marker lat="43.433" lon="-70.983" site="Town House (New Hampshire, United States)"/>
<marker lat="42.366" lon="-71.5" site="Copp's Hill (Massachusetts, United States)"/>
<marker lat="42.283" lon="-71.66" site="Dorchester, Mass. (Massachusetts, United States)"/>
<marker lat="42.516" lon="-70.883" site="Salem (Massachusetts, United States)"/>
<marker lat="39.8" lon="-76.983" site="McAllister (Pennsylvania, United States)"/>
<marker lat="42.366" lon="-71.5" site="Charles (Massachusetts, United States)"/>
<marker lat="51.5" lon="-0.166" site="Cow lane (United Kingdom)"/>
<marker lat="42.45" lon="-71.35" site="Concord (Massachusetts, United States)"/>
<marker lat="42.466" lon="-70.95" site="Lynn (Massachusetts, United States)"/>
<marker lat="45.0" lon="-69.0" site="Maine (Maine, United States)"/>
<marker lat="40.616" lon="-76.383" site="Tremont, Schuylkill County, Pennsylvania (Pennsylvania, United States)"/>
<marker lat="40.333" lon="-75.466" site="Green lane (Pennsylvania, United States)"/>
<marker lat="33.85" lon="-94.33" site="Cornhill (Arkansas, United States)"/>
<marker lat="35.383" lon="-81.683" site="New House (North Carolina, United States)"/>
<marker lat="42.383" lon="-71.416" site="Sudbury, Mass. (Massachusetts, United States)"/>
<marker lat="42.333" lon="-70.966" site="Boston Harbor (Massachusetts, United States)"/>
<marker lat="44.983" lon="-66.983" site="Deer Island (Canada)"/>
<marker lat="42.1" lon="-70.8" site="Hanover (Massachusetts, United States)"/>
<marker lat="42.266" lon="-71.15" site="West Roxbury, Mass. (Massachusetts, United States)"/>
<marker lat="46.0" lon="2.0" site="France (France)"/>
<marker lat="32.366" lon="-90.866" site="Fort Hill (Mississippi, United States)"/>
<marker lat="42.266" lon="-70.866" site="Nantasket (Massachusetts, United States)"/>
<marker lat="32.85" lon="-108.116" site="Century Hill (New Mexico, United States)"/>
<marker lat="51.5" lon="-0.166" site="Love lane (United Kingdom)"/>
<marker lat="37.0" lon="-119.0" site="California (California, United States)"/>
<marker lat="42.316" lon="-70.916" site="Fort Warren (Massachusetts, United States)"/>
<marker lat="42.233" lon="-71.166" site="Dedham (Massachusetts, United States)"/>
<marker lat="44.2" lon="-92.633" site="Pine Island (Minnesota, United States)"/>
<marker lat="44.0" lon="-71.666" site="New Hampshire (New Hampshire, United States)"/>
<marker lat="42.316" lon="-71.116" site="Brookline (Massachusetts, United States)"/>
<marker lat="38.283" lon="-77.1" site="Chestnut Hill (Virginia, United States)"/>
<marker lat="42.416" lon="-70.916" site="Nahant (Massachusetts, United States)"/>
<marker lat="57.616" lon="-2.7" site="Cornhill (United Kingdom)"/>
<marker lat="38.6" lon="-78.783" site="Broadway (Virginia, United States)"/>
<marker lat="51.5" lon="-0.166" site="Frog lane (United Kingdom)"/>
<marker lat="51.5" lon="-0.166" site="Pudding lane (United Kingdom)"/>
<marker lat="60.0" lon="-96.0" site="Canada (Canada)"/>
<marker lat="41.816" lon="-71.4" site="Providence, R. I. (Rhode Island, United States)"/>
<marker lat="44.0" lon="-73.0" site="Vermont (Vermont, United States)"/>
<marker lat="51.5" lon="-0.166" site="Custom house (United Kingdom)"/>
<marker lat="39.166" lon="-91.866" site="Mexico, Mo. (Missouri, United States)"/>
<marker lat="40.733" lon="-73.933" site="Long Island City (New York, United States)"/>
<marker lat="42.383" lon="-71.33" site="Chelsea (Massachusetts, United States)"/>
<marker lat="43.183" lon="-70.866" site="Dover, N. H. (New Hampshire, United States)"/>
<marker lat="42.45" lon="-71.83" site="Spot Pond (Massachusetts, United States)"/>
<marker lat="42.35" lon="-71.15" site="Brighton, Mass. (Massachusetts, United States)"/>
<marker lat="42.416" lon="-71.1" site="Medford (Massachusetts, United States)"/>
<marker lat="37.5" lon="-76.516" site="Hornets Nest (Virginia, United States)"/>
<marker lat="37.83" lon="-84.6" site="Somerset, Ky. (Kentucky, United States)"/>
<marker lat="39.283" lon="-76.6" site="Baltimore, Md. (Maryland, United States)"/>
<marker lat="41.75" lon="-124.2" site="Crescent City (California, United States)"/>
<marker lat="35.633" lon="-80.633" site="Mill Bridge (North Carolina, United States)"/>
<marker lat="42.6" lon="-71.233" site="Tewksbury (Massachusetts, United States)"/>
<marker lat="33.383" lon="-86.3" site="Kings Chapel (Alabama, United States)"/>
<marker lat="43.83" lon="-79.5" site="Manchester (New York, United States)"/>
<marker lat="50.733" lon="-3.816" site="Devonshire (United Kingdom)"/>
<marker lat="30.83" lon="-93.733" site="Jefferson, Texas (Texas, United States)"/>
<marker lat="51.5" lon="-0.166" site="St. Paul's church (United Kingdom)"/>
<marker lat="38.816" lon="-77.516" site="Bull Run, Va. (Virginia, United States)"/>
<marker lat="38.5" lon="-82.416" site="Quaker (West Virginia, United States)"/>
<marker lat="47.55" lon="-52.666" site="Saint John's (Canada)"/>
<marker lat="60.0" lon="47.0" site="Russia (Russia)"/>
<marker lat="37.766" lon="-122.416" site="San Francisco (California, United States)"/>
<marker lat="36.83" lon="-78.3" site="Louisburg (North Carolina, United States)"/>
<marker lat="33.666" lon="-84.433" site="South River, Ga. (Georgia, United States)"/>
<marker lat="34.1" lon="-78.75" site="Snowhill (North Carolina, United States)"/>
<marker lat="51.5" lon="-0.166" site="Bell alley (United Kingdom)"/>
<marker lat="35.45" lon="-77.666" site="Snow Hill (North Carolina, United States)"/>
<marker lat="40.0" lon="-74.8" site="Wood lane (New Jersey, United States)"/>
<marker lat="41.6" lon="-72.633" site="Nooks Hill (Connecticut, United States)"/>
<marker lat="32.283" lon="-90.183" site="Jackson (Mississippi, United States)"/>
<marker lat="42.583" lon="-70.816" site="Essex (Massachusetts, United States)"/>
<marker lat="42.316" lon="-71.116" site="Jamaica Pond (Massachusetts, United States)"/>
<marker lat="34.766" lon="-84.966" site="Dalton, Ga. (Georgia, United States)"/>
<marker lat="42.7" lon="-71.2" site="Meeting House (Massachusetts, United States)"/>
<marker lat="36.266" lon="-112.333" site="Masonic Temple (Arizona, United States)"/>
<marker lat="42.583" lon="-71.8" site="Fitchburg (Massachusetts, United States)"/>
<marker lat="39.166" lon="-79.7" site="St. George, W. Va. (West Virginia, United States)"/>
<marker lat="37.766" lon="-91.0" site="Quaker (Missouri, United States)"/>
<marker lat="44.633" lon="-63.583" site="Halifax (Canada)"/>
<marker lat="32.866" lon="-85.183" site="West Point (Georgia, United States)"/>
<marker lat="51.5" lon="-0.166" site="Beer lane (United Kingdom)"/>
<marker lat="36.716" lon="-76.583" site="Suffolk, Va. (Virginia, United States)"/>
<marker lat="42.3" lon="-70.983" site="Moon Island (Massachusetts, United States)"/>
<marker lat="41.75" lon="-72.683" site="Hartford (Connecticut, United States)"/>
<marker lat="42.25" lon="-71.8" site="Worcester (Massachusetts, United States)"/>
<marker lat="43.2" lon="-71.533" site="Concord, N. H. (New Hampshire, United States)"/>
<marker lat="39.95" lon="-75.6" site="West Chester (Pennsylvania, United States)"/>
<marker lat="35.916" lon="-87.3" site="Mill Creek (Tennessee, United States)"/>
<marker lat="54.0" lon="-72.0" site="Quebec (Canada)"/>
<marker lat="40.783" lon="-77.85" site="Agricultural College (Pennsylvania, United States)"/>
<marker lat="38.8" lon="-80.616" site="Dutch (West Virginia, United States)"/>
<marker lat="42.366" lon="-71.133" site="Mount Auburn (Massachusetts, United States)"/>
<marker lat="34.683" lon="-91.3" site="Clarendon, Ark. (Arkansas, United States)"/>
<marker lat="42.333" lon="-71.0" site="Fort Independence (Massachusetts, United States)"/>
<marker lat="39.83" lon="-82.866" site="Cars Run (Ohio, United States)"/>
<marker lat="42.3" lon="-71.0" site="Thompson's Island (Massachusetts, United States)"/>
<marker lat="37.6" lon="-92.9" site="Long lane (Missouri, United States)"/>
<marker lat="41.816" lon="-86.25" site="Niles (Michigan, United States)"/>
<marker lat="41.183" lon="-79.35" site="Stone House (Pennsylvania, United States)"/>
<marker lat="35.3" lon="-86.95" site="Odd Fellows Hall (Tennessee, United States)"/>
<marker lat="38.216" lon="-76.416" site="Park Hall (Maryland, United States)"/>
<marker lat="40.25" lon="-75.633" site="Hanover Court (Pennsylvania, United States)"/>
<marker lat="37.833" lon="-87.583" site="Henderson, Ky. (Kentucky, United States)"/>
<marker lat="42.483" lon="-71.266" site="Bedford, Mass. (Massachusetts, United States)"/>
<marker lat="41.83" lon="-73.0" site="Long Island Sound (United States)"/>
<marker lat="42.333" lon="-71.83" site="Suffolk County (Massachusetts, United States)"/>
<marker lat="43.516" lon="-71.466" site="Laconia (New Hampshire, United States)"/>
<marker lat="40.783" lon="-89.35" site="Metamora (Illinois, United States)"/>
<marker lat="42.83" lon="-70.7" site="Marshfield (Massachusetts, United States)"/>
<marker lat="41.933" lon="-70.33" site="Billingsgate (Massachusetts, United States)"/>
<marker lat="51.5" lon="-0.166" site="Sun Court (United Kingdom)"/>
<marker lat="42.35" lon="-71.35" site="Wayland (Massachusetts, United States)"/>
<marker lat="51.583" lon="7.683" site="Derne (North Rhine-Westphalia, Germany)"/>
<marker lat="36.316" lon="-94.116" site="Rogers (Arkansas, United States)"/>
<marker lat="37.383" lon="-76.533" site="Short lane (Virginia, United States)"/>
<marker lat="34.783" lon="-90.983" site="Moreau (Arkansas, United States)"/>
<marker lat="41.7" lon="-71.15" site="Quiquechan River (Massachusetts, United States)"/>
<marker lat="42.266" lon="-71.583" site="Sudbury (Massachusetts, United States)"/>
<marker lat="42.16" lon="-71.533" site="Blackstone (Massachusetts, United States)"/>
<marker lat="34.95" lon="-78.5" site="Roseboro (North Carolina, United States)"/>
<marker lat="39.366" lon="-87.0" site="Bowling Green (Indiana, United States)"/>
<marker lat="42.366" lon="-70.983" site="Chelsea Point (Massachusetts, United States)"/>
<marker lat="34.233" lon="-84.933" site="Kingston, Ga. (Georgia, United States)"/>
<marker lat="42.35" lon="-70.983" site="Apple Island (Massachusetts, United States)"/>
<marker lat="41.7" lon="-71.15" site="Troy (Massachusetts, United States)"/>
<marker lat="32.45" lon="-80.883" site="Old House (South Carolina, United States)"/>
<marker lat="36.966" lon="-76.35" site="Hampton Roads (Virginia, United States)"/>
<marker lat="33.33" lon="-80.66" site="Grove Hall (South Carolina, United States)"/>
<marker lat="51.5" lon="-0.166" site="Bridge Lane (United Kingdom)"/>
<marker lat="36.583" lon="-90.983" site="Doherty (Missouri, United States)"/>
<marker lat="42.0" lon="-81.0" site="Lake Erie (United States)"/>
<marker lat="42.66" lon="-72.216" site="Wales (Massachusetts, United States)"/>
<marker lat="36.25" lon="-85.866" site="Stone Bridge (Tennessee, United States)"/>
<marker lat="41.616" lon="-71.2" site="Tiverton (Rhode Island, United States)"/>
<marker lat="42.316" lon="-70.916" site="George's Island (Massachusetts, United States)"/>
<marker lat="42.2" lon="-79.833" site="North East (Pennsylvania, United States)"/>
<marker lat="42.8" lon="-70.866" site="Newburyport (Massachusetts, United States)"/>
<marker lat="51.5" lon="-0.166" site="Horn Lane (United Kingdom)"/>
<marker lat="37.233" lon="-76.5" site="Yorktown (Virginia, United States)"/>
<marker lat="37.983" lon="-91.6" site="Saint James (Missouri, United States)"/>
<marker lat="43.66" lon="-71.833" site="Deering (New Hampshire, United States)"/>
<marker lat="37.733" lon="-97.55" site="Saint Marks (Kansas, United States)"/>
<marker lat="36.833" lon="-76.283" site="Portsmouth, Va. (Virginia, United States)"/>
<marker lat="43.66" lon="-70.75" site="Portsmouth (New Hampshire, United States)"/>
<marker lat="43.65" lon="-70.25" site="Portland (Maine, United States)"/>
<marker lat="52.983" lon="-0.16" site="Boston (United Kingdom)"/>
<marker lat="38.583" lon="-75.133" site="Orange lane (Delaware, United States)"/>
<marker lat="45.266" lon="-66.5" site="St. John (Canada)"/>
<marker lat="42.25" lon="-71.0" site="Quincy (Massachusetts, United States)"/>
<marker lat="42.983" lon="-71.45" site="Manchester (New Hampshire, United States)"/>
<marker lat="35.66" lon="-85.166" site="Austin Farm (Tennessee, United States)"/>
<marker lat="37.516" lon="-76.783" site="West Point (Virginia, United States)"/>
<marker lat="30.516" lon="-88.983" site="Camp Hill (Mississippi, United States)"/>
<marker lat="41.65" lon="-72.33" site="John Brook (Connecticut, United States)"/>
<marker lat="42.416" lon="-71.683" site="Clinton (Massachusetts, United States)"/>
<marker lat="36.3" lon="-88.316" site="Paris, Tenn. (Tennessee, United States)"/>
<marker lat="44.8" lon="-73.83" site="St. Albans, Vt. (Vermont, United States)"/>
<marker lat="22.5" lon="88.333" site="Calcutta (West Bengal, India)"/>
<marker lat="32.7" lon="-90.5" site="Liverpool (Mississippi, United States)"/>
<marker lat="52.516" lon="-3.5" site="Cambria (United Kingdom)"/>
<marker lat="33.983" lon="-108.65" site="Queens Head (New Mexico, United States)"/>
<marker lat="40.383" lon="-111.85" site="Lehi (Utah, United States)"/>
<marker lat="42.433" lon="-71.7" site="George Hill (Massachusetts, United States)"/>
<marker lat="47.25" lon="7.35" site="Court (Switzerland)"/>
<marker lat="43.7" lon="-79.416" site="York (Canada)"/>
<marker lat="40.5" lon="-75.533" site="Mill lane (Pennsylvania, United States)"/>
<marker lat="36.516" lon="-87.0" site="Washington Hall (Tennessee, United States)"/>
<marker lat="42.4" lon="-71.0" site="North Chelsea (Massachusetts, United States)"/>
<marker lat="38.666" lon="-98.0" site="Kansas (Kansas, United States)"/>
<marker lat="38.616" lon="-90.183" site="St. Louis (Missouri, United States)"/>
<marker lat="51.5" lon="-0.166" site="Mansion house (United Kingdom)"/>
<marker lat="32.83" lon="-81.1" site="Savannah (Georgia, United States)"/>
<marker lat="30.566" lon="-81.683" site="Nassau River (Florida, United States)"/>
<marker lat="38.116" lon="-76.783" site="Westmoreland (Virginia, United States)"/>
<marker lat="39.0" lon="35.0" site="Turquie (Turkey)"/>
<marker lat="41.666" lon="-71.5" site="Rhode Island (Rhode Island, United States)"/>
<marker lat="42.266" lon="-71.416" site="Framingham (Massachusetts, United States)"/>
<marker lat="40.433" lon="-79.983" site="Pittsburgh (Pennsylvania, United States)"/>
<marker lat="40.3" lon="-73.983" site="Long Branch, N. J. (New Jersey, United States)"/>
<marker lat="37.55" lon="-77.45" site="Richmond (Virginia, United States)"/>
<marker lat="38.883" lon="-77.33" site="Washington (United States)"/>
<marker lat="39.55" lon="-88.1" site="Barney Ford (Illinois, United States)"/>
<marker lat="40.0" lon="-75.283" site="Hamilton Court (Pennsylvania, United States)"/>
<marker lat="44.933" lon="-93.83" site="St. Paul (Minnesota, United States)"/>
<marker lat="42.683" lon="-71.316" site="Winter Hill (Massachusetts, United States)"/>
<marker lat="51.5" lon="-0.166" site="Orange court (United Kingdom)"/>
<marker lat="31.166" lon="-96.8" site="Beacon (Texas, United States)"/>
<marker lat="42.333" lon="-71.33" site="Dorchester Heights (Massachusetts, United States)"/>
<marker lat="45.16" lon="-69.283" site="Dexter (Maine, United States)"/>
<marker lat="42.366" lon="-71.183" site="Watertown (Massachusetts, United States)"/>
<marker lat="34.0" lon="9.0" site="Tunisia (Tunisia)"/>
<marker lat="42.316" lon="-83.166" site="Dearborn (Michigan, United States)"/>
<marker lat="42.3" lon="-71.366" site="Lake Cochituate (Massachusetts, United States)"/>
</markers>