<markers>
<marker lat="39.95" lon="-76.716" site="York, Pa. (Pennsylvania, United States)"/>
<marker lat="37.0" lon="-80.0" site="Virginia (Virginia, United States)"/>
<marker lat="38.0" lon="-98.0" site="United States (United States)"/>
<marker lat="41.75" lon="-72.683" site="Hartford (Connecticut, United States)"/>
<marker lat="42.25" lon="-71.8" site="Worcester (Massachusetts, United States)"/>
<marker lat="37.55" lon="-77.45" site="Richmond (Virginia, United States)"/>
<marker lat="37.55" lon="-77.366" site="Henrico (Virginia, United States)"/>
<marker lat="39.766" lon="-86.15" site="Indianapolis (Indiana, United States)"/>
<marker lat="32.85" lon="-90.4" site="Yazoo City (Mississippi, United States)"/>
<marker lat="35.716" lon="-87.266" site="Duck River (Tennessee, United States)"/>
<marker lat="53.5" lon="-2.216" site="Manchester (United Kingdom)"/>
<marker lat="33.0" lon="-87.0" site="Alabama (Alabama, United States)"/>
<marker lat="38.666" lon="-98.0" site="Kansas (Kansas, United States)"/>
<marker lat="39.0" lon="-75.666" site="Delaware (Delaware, United States)"/>
<marker lat="39.316" lon="-77.733" site="Harper's Ferry (West Virginia, United States)"/>
<marker lat="43.33" lon="-76.133" site="Syracuse (New York, United States)"/>
<marker lat="35.5" lon="-85.0" site="Tennessee (Tennessee, United States)"/>
<marker lat="35.35" lon="-86.2" site="Tullahoma (Tennessee, United States)"/>
<marker lat="37.733" lon="-77.916" site="Goochland (Virginia, United States)"/>
<marker lat="37.983" lon="-77.966" site="Louisa (Virginia, United States)"/>
<marker lat="36.16" lon="-86.766" site="Brentwood, Tenn. (Tennessee, United States)"/>
<marker lat="37.383" lon="-86.66" site="Mill Spring, Ky. (Kentucky, United States)"/>
<marker lat="33.733" lon="-84.383" site="Atlanta (Georgia, United States)"/>
<marker lat="39.5" lon="-78.966" site="Moorefield (West Virginia, United States)"/>
<marker lat="35.6" lon="-87.33" site="Columbia, Tenn. (Tennessee, United States)"/>
<marker lat="34.3" lon="-89.933" site="Batesville (Mississippi, United States)"/>
<marker lat="35.916" lon="-86.166" site="Milton, Tenn. (Tennessee, United States)"/>
<marker lat="41.7" lon="-71.15" site="Quiquechan River (Massachusetts, United States)"/>
<marker lat="39.0" lon="-76.833" site="Maryland (Maryland, United States)"/>
<marker lat="44.0" lon="-71.666" site="New Hampshire (New Hampshire, United States)"/>
<marker lat="43.0" lon="-75.0" site="New York State (New York, United States)"/>
<marker lat="33.5" lon="-90.166" site="Greenwood (Mississippi, United States)"/>
<marker lat="38.983" lon="-76.15" site="Queenstown, Md. (Maryland, United States)"/>
<marker lat="38.133" lon="-83.75" site="Owingsville (Kentucky, United States)"/>
<marker lat="39.133" lon="-77.7" site="Purcellville (Virginia, United States)"/>
<marker lat="33.533" lon="-90.166" site="Yazoo River (United States)"/>
<marker lat="45.5" lon="-83.283" site="Crooked Island (Michigan, United States)"/>
<marker lat="37.566" lon="-83.7" site="Kentucky River (Kentucky, United States)"/>
<marker lat="42.183" lon="-72.8" site="Westfield Reservoir (Massachusetts, United States)"/>
<marker lat="35.683" lon="-85.766" site="McMinnville (Tennessee, United States)"/>
<marker lat="42.783" lon="-73.666" site="Waterford, N. Y. (New York, United States)"/>
<marker lat="35.483" lon="-86.45" site="Shelbyville, Tenn. (Tennessee, United States)"/>
<marker lat="40.85" lon="-90.616" site="Warren (Illinois, United States)"/>
<marker lat="37.516" lon="-77.383" site="Rocketts (Virginia, United States)"/>
<marker lat="37.283" lon="-80.5" site="Roanoke County (Virginia, United States)"/>
<marker lat="37.3" lon="-76.766" site="James City (Virginia, United States)"/>
<marker lat="38.516" lon="-77.6" site="Aquia Creek (Virginia, United States)"/>
<marker lat="38.8" lon="-77.33" site="Alexandria (Virginia, United States)"/>
<marker lat="31.0" lon="-92.0" site="Louisiana (Louisiana, United States)"/>
<marker lat="40.0" lon="-86.0" site="Indiana (Indiana, United States)"/>
<marker lat="35.1" lon="-87.8" site="Rutherford's Creek (Tennessee, United States)"/>
<marker lat="29.283" lon="-96.216" site="Wharton (Texas, United States)"/>
<marker lat="36.0" lon="138.0" site="Japan (Japan)"/>
<marker lat="39.0" lon="35.0" site="Turquie (Turkey)"/>
<marker lat="35.5" lon="-80.0" site="North Carolina (North Carolina, United States)"/>
<marker lat="39.95" lon="-75.15" site="Philadelphia (Pennsylvania, United States)"/>
<marker lat="34.0" lon="-80.0" site="South Carolina (South Carolina, United States)"/>
<marker lat="37.75" lon="-77.483" site="Hanover County (Virginia, United States)"/>
<marker lat="35.75" lon="-86.916" site="Spring Hill (Tennessee, United States)"/>
<marker lat="41.833" lon="-72.833" site="Connecticut (Connecticut, United States)"/>
<marker lat="51.9" lon="-8.466" site="Cork (Irish Republic)"/>
<marker lat="38.733" lon="-77.816" site="Fauquier (Virginia, United States)"/>
<marker lat="37.1" lon="-80.683" site="Dublin (Virginia, United States)"/>
<marker lat="51.266" lon="-2.183" site="Westbury (United Kingdom)"/>
<marker lat="51.5" lon="-0.166" site="Custom house (United Kingdom)"/>
<marker lat="38.5" lon="-83.933" site="Mount Sterling, Ky. (Kentucky, United States)"/>
<marker lat="40.5" lon="-80.716" site="Wheeling, W. Va. (West Virginia, United States)"/>
<marker lat="37.366" lon="-77.66" site="Charles City (Virginia, United States)"/>
<marker lat="37.383" lon="-77.6" site="Chesterfield (Virginia, United States)"/>
<marker lat="38.33" lon="-77.35" site="Caroline (Virginia, United States)"/>
<marker lat="40.733" lon="-73.933" site="Long Island City (New York, United States)"/>
<marker lat="32.366" lon="-80.683" site="Port Royal (South Carolina, United States)"/>
<marker lat="37.433" lon="-84.633" site="Green (Kentucky, United States)"/>
<marker lat="36.8" lon="-79.3" site="Shockoe Creek (Virginia, United States)"/>
<marker lat="37.783" lon="-78.783" site="Nelson (Virginia, United States)"/>
<marker lat="39.16" lon="-78.816" site="Hardy County (West Virginia, United States)"/>
<marker lat="37.1" lon="-82.716" site="Cumberland River (Kentucky, United States)"/>
</markers>