<markers>
<marker lat="38.0" lon="-98.0" site="United States (United States)"/>
<marker lat="41.483" lon="-82.733" site="Johnson's Island (Ohio, United States)"/>
<marker lat="46.0" lon="2.0" site="France (France)"/>
<marker lat="42.0" lon="-81.0" site="Lake Erie (United States)"/>
<marker lat="51.916" lon="-55.333" site="Belle Isle (Canada)"/>
<marker lat="60.0" lon="47.0" site="Russia (Russia)"/>
<marker lat="60.0" lon="-96.0" site="Canada (Canada)"/>
<marker lat="35.95" lon="-87.366" site="Missionary Ridge, Tenn. (Tennessee, United States)"/>
<marker lat="38.433" lon="-77.9" site="Stevensburg (Virginia, United States)"/>
<marker lat="44.683" lon="-75.483" site="Ogdensburg (New York, United States)"/>
<marker lat="32.0" lon="-84.0" site="Georgia (Georgia, United States)"/>
<marker lat="35.5" lon="-80.0" site="North Carolina (North Carolina, United States)"/>
<marker lat="37.55" lon="-77.45" site="Richmond (Virginia, United States)"/>
<marker lat="41.466" lon="-82.833" site="Sandusky Bay (Ohio, United States)"/>
<marker lat="35.5" lon="-85.0" site="Tennessee (Tennessee, United States)"/>
<marker lat="34.983" lon="-85.333" site="Lookout Mountain, Tenn. (Tennessee, United States)"/>
<marker lat="47.333" lon="13.333" site="Austria (Austria)"/>
<marker lat="39.0" lon="-76.833" site="Maryland (Maryland, United States)"/>
<marker lat="44.0" lon="-85.0" site="Michigan (Michigan, United States)"/>
<marker lat="42.883" lon="-78.866" site="Buffalo, N. Y. (New York, United States)"/>
<marker lat="40.66" lon="-74.85" site="Burlington (New Jersey, United States)"/>
<marker lat="41.433" lon="-82.7" site="Sandusky, Ohio (Ohio, United States)"/>
<marker lat="43.483" lon="-1.55" site="Biarritz (France)"/>
<marker lat="35.133" lon="-90.33" site="Memphis (Tennessee, United States)"/>
<marker lat="37.516" lon="-77.383" site="Rocketts (Virginia, United States)"/>
<marker lat="54.583" lon="-5.916" site="Belfast (United Kingdom)"/>
<marker lat="43.7" lon="-79.416" site="York (Canada)"/>
<marker lat="40.0" lon="-86.0" site="Indiana (Indiana, United States)"/>
<marker lat="38.483" lon="-78.416" site="Rapidan (Virginia, United States)"/>
<marker lat="35.33" lon="-85.5" site="Raccoon Mountains (Tennessee, United States)"/>
<marker lat="37.716" lon="-75.65" site="Accomac (Virginia, United States)"/>
<marker lat="36.7" lon="-81.966" site="Abingdon, Va. (Virginia, United States)"/>
<marker lat="30.566" lon="-81.683" site="Nassau River (Florida, United States)"/>
<marker lat="35.0" lon="105.0" site="China (China)"/>
<marker lat="38.733" lon="-78.633" site="Mount Jackson (Virginia, United States)"/>
<marker lat="44.0" lon="-120.0" site="Oregon (Oregon, United States)"/>
<marker lat="40.833" lon="-76.0" site="Pennsylvania (Pennsylvania, United States)"/>
<marker lat="35.0" lon="-93.0" site="Arkansas (Arkansas, United States)"/>
<marker lat="38.883" lon="-77.33" site="Washington (United States)"/>
<marker lat="39.15" lon="-77.2" site="Montgomery County (Maryland, United States)"/>
<marker lat="37.55" lon="-77.366" site="Henrico (Virginia, United States)"/>
<marker lat="37.0" lon="-119.0" site="California (California, United States)"/>
<marker lat="43.5" lon="-78.0" site="Lake Ontario"/>
<marker lat="23.0" lon="-102.0" site="Mexico (Mexico)"/>
<marker lat="48.383" lon="-4.5" site="Brest (France)"/>
<marker lat="39.333" lon="-78.75" site="Romney (West Virginia, United States)"/>
<marker lat="45.5" lon="-73.6" site="Montreal (Canada)"/>
<marker lat="44.833" lon="-0.566" site="Bordeaux (France)"/>
<marker lat="45.65" lon="13.783" site="Trieste (Italy)"/>
<marker lat="37.1" lon="-80.683" site="Dublin (Virginia, United States)"/>
<marker lat="36.166" lon="-86.75" site="Edgefield (Tennessee, United States)"/>
<marker lat="37.0" lon="-80.0" site="Virginia (Virginia, United States)"/>
<marker lat="36.583" lon="-83.666" site="Cumberland Gap (Tennessee, United States)"/>
<marker lat="32.766" lon="-79.916" site="Charleston (South Carolina, United States)"/>
<marker lat="52.0" lon="20.0" site="Poland (Poland)"/>
<marker lat="39.333" lon="-78.6" site="Hampshire County (West Virginia, United States)"/>
</markers>