<markers>
<marker lat="38.0" lon="-98.0" site="United States (United States)"/>
<marker lat="38.0" lon="-98.0" site="Missouri (Missouri, United States)"/>
<marker lat="44.35" lon="-100.366" site="Fort Pierre (South Dakota, United States)"/>
<marker lat="60.0" lon="47.0" site="Russia (Russia)"/>
<marker lat="19.416" lon="-99.166" site="Mexico (Mexico, Mexico)"/>
<marker lat="53.0" lon="-2.0" site="England (United Kingdom)"/>
<marker lat="34.25" lon="-85.15" site="Rome, Ga. (Georgia, United States)"/>
<marker lat="36.883" lon="-76.35" site="Craney Island (Virginia, United States)"/>
<marker lat="39.45" lon="-77.95" site="Martinsburg (West Virginia, United States)"/>
<marker lat="46.0" lon="2.0" site="France (France)"/>
<marker lat="40.0" lon="-4.0" site="Spain (Spain)"/>
<marker lat="53.5" lon="-2.216" site="Manchester (United Kingdom)"/>
<marker lat="38.816" lon="-77.516" site="Bull Run, Va. (Virginia, United States)"/>
<marker lat="60.0" lon="-96.0" site="Canada (Canada)"/>
<marker lat="35.5" lon="-80.0" site="North Carolina (North Carolina, United States)"/>
<marker lat="39.0" lon="-80.0" site="West Virginia (West Virginia, United States)"/>
<marker lat="37.55" lon="-77.366" site="Henrico (Virginia, United States)"/>
<marker lat="19.333" lon="-96.666" site="Vera Cruz (Veracruz, Mexico)"/>
<marker lat="39.166" lon="-91.866" site="Mexico, Mo. (Missouri, United States)"/>
<marker lat="37.433" lon="-84.633" site="Green (Kentucky, United States)"/>
<marker lat="41.366" lon="-83.65" site="Bowling Green, Wood County, Ohio (Ohio, United States)"/>
<marker lat="25.0" lon="-90.0" site="Gulf of Mexico"/>
<marker lat="32.816" lon="-79.716" site="Dewees Inlet (South Carolina, United States)"/>
<marker lat="42.316" lon="-72.333" site="Enfield (Massachusetts, United States)"/>
<marker lat="22.3" lon="-97.866" site="Tampico (Tamaulipas, Mexico)"/>
<marker lat="34.0" lon="-80.0" site="South Carolina (South Carolina, United States)"/>
<marker lat="37.0" lon="-119.0" site="California (California, United States)"/>
<marker lat="35.5" lon="-85.0" site="Tennessee (Tennessee, United States)"/>
<marker lat="41.383" lon="-84.116" site="Napoleon (Ohio, United States)"/>
<marker lat="55.0" lon="-125.0" site="British Columbia (Canada)"/>
<marker lat="39.183" lon="-93.866" site="Lexington, Lafayette County (Missouri, United States)"/>
<marker lat="32.75" lon="-79.883" site="Charleston Harbor (South Carolina, United States)"/>
<marker lat="41.2" lon="-73.566" site="Pound Ridge (New York, United States)"/>
<marker lat="31.766" lon="-93.133" site="Natchitoches (Louisiana, United States)"/>
<marker lat="32.8" lon="-91.8" site="Morehouse (Louisiana, United States)"/>
<marker lat="42.85" lon="-71.366" site="Londonderry, N. H. (New Hampshire, United States)"/>
<marker lat="38.816" lon="-90.183" site="Missouri (United States)"/>
<marker lat="36.85" lon="-87.483" site="Hopkinsville, Ky. (Kentucky, United States)"/>
<marker lat="33.0" lon="-87.0" site="Alabama (Alabama, United States)"/>
<marker lat="38.85" lon="-77.35" site="Fairfax (Virginia, United States)"/>
<marker lat="37.366" lon="-77.5" site="Chesterfield (Virginia, United States)"/>
<marker lat="36.966" lon="-76.35" site="Hampton Roads (Virginia, United States)"/>
<marker lat="30.316" lon="-87.283" site="Fort Pickens (Florida, United States)"/>
<marker lat="37.833" lon="-78.2" site="Wilmington, Fluvanna county, Va. (Virginia, United States)"/>
<marker lat="32.66" lon="-99.83" site="Red River (Texas, United States)"/>
<marker lat="43.366" lon="-72.333" site="Claremont, N. H. (New Hampshire, United States)"/>
<marker lat="32.166" lon="-80.833" site="Bull Island, S. C. (South Carolina, United States)"/>
<marker lat="38.883" lon="-121.66" site="Auburn, Placer County, California (California, United States)"/>
<marker lat="18.233" lon="-66.55" site="Porto Rico"/>
<marker lat="34.366" lon="-84.33" site="Lumpkin, Ga. (Georgia, United States)"/>
<marker lat="33.433" lon="-84.133" site="McDonough (Georgia, United States)"/>
<marker lat="55.0" lon="-7.316" site="Londonderry (United Kingdom)"/>
<marker lat="39.466" lon="-78.65" site="Valley Mountain (West Virginia, United States)"/>
<marker lat="38.7" lon="-93.216" site="Sedalia, Mo. (Missouri, United States)"/>
<marker lat="38.666" lon="-98.0" site="Kansas (Kansas, United States)"/>
<marker lat="31.0" lon="-92.0" site="Louisiana (Louisiana, United States)"/>
<marker lat="37.766" lon="-122.416" site="San Francisco (California, United States)"/>
<marker lat="39.766" lon="-94.833" site="St. Joseph, Mo. (Missouri, United States)"/>
<marker lat="32.83" lon="-81.1" site="Savannah (Georgia, United States)"/>
<marker lat="38.15" lon="-81.183" site="Kanawha (West Virginia, United States)"/>
<marker lat="36.183" lon="-86.45" site="Silver Springs (Tennessee, United States)"/>
<marker lat="38.33" lon="-84.5" site="Lexington (Kentucky, United States)"/>
<marker lat="38.133" lon="-76.5" site="Swan Point (Maryland, United States)"/>
<marker lat="40.833" lon="-76.0" site="Pennsylvania (Pennsylvania, United States)"/>
<marker lat="35.0" lon="-93.0" site="Arkansas (Arkansas, United States)"/>
<marker lat="32.75" lon="-79.833" site="Sullivan's Island (South Carolina, United States)"/>
<marker lat="38.9" lon="-77.25" site="Vienna (Virginia, United States)"/>
<marker lat="34.1" lon="-96.533" site="Fort Washita (Oklahoma, United States)"/>
<marker lat="23.0" lon="-102.0" site="Mexico (Mexico)"/>
<marker lat="54.0" lon="-60.0" site="Labrador (Canada)"/>
<marker lat="42.333" lon="-76.833" site="Havana, N. Y. (New York, United States)"/>
<marker lat="57.5" lon="-135.316" site="Sitka (Alaska, United States)"/>
<marker lat="43.733" lon="-74.33" site="North River (New York, United States)"/>
<marker lat="36.166" lon="-86.75" site="Edgefield (Tennessee, United States)"/>
<marker lat="32.45" lon="-84.983" site="Columbus (Georgia, United States)"/>
<marker lat="42.55" lon="-71.16" site="Upton's Hill (Massachusetts, United States)"/>
<marker lat="41.116" lon="-73.8" site="Westchester (New York, United States)"/>
<marker lat="36.833" lon="-76.283" site="Elizabeth (Virginia, United States)"/>
<marker lat="40.583" lon="-74.15" site="Staten Island (New York, United States)"/>
<marker lat="43.0" lon="-74.366" site="Johnstown (New York, United States)"/>
<marker lat="32.866" lon="-79.666" site="Capers Island (South Carolina, United States)"/>
<marker lat="41.416" lon="-84.383" site="Evansport (Ohio, United States)"/>
<marker lat="36.9" lon="-92.483" site="Vera Cruz, Mo. (Missouri, United States)"/>
<marker lat="40.733" lon="-73.933" site="Long Island City (New York, United States)"/>
<marker lat="38.8" lon="-80.616" site="Dutch (West Virginia, United States)"/>
<marker lat="38.16" lon="-78.466" site="Charlottesville (Virginia, United States)"/>
<marker lat="32.766" lon="-79.916" site="Charleston (South Carolina, United States)"/>
<marker lat="40.75" lon="-73.816" site="Flushing, L. I. (New York, United States)"/>
<marker lat="39.266" lon="-80.333" site="Clarksburg (West Virginia, United States)"/>
<marker lat="34.583" lon="-77.216" site="Onslow Bay (North Carolina, United States)"/>
<marker lat="47.333" lon="13.333" site="Austria (Austria)"/>
<marker lat="30.383" lon="-87.266" site="Warrington, Fla. (Florida, United States)"/>
<marker lat="34.233" lon="-80.6" site="Camden, S. C. (South Carolina, United States)"/>
<marker lat="39.833" lon="-88.95" site="Decatur (Illinois, United States)"/>
<marker lat="30.85" lon="-91.366" site="West Feliciana (Louisiana, United States)"/>
<marker lat="43.33" lon="-75.366" site="Clinton, N. Y. (New York, United States)"/>
<marker lat="38.533" lon="-79.816" site="Greenbrier (West Virginia, United States)"/>
<marker lat="38.866" lon="-77.166" site="Fall's Church (Virginia, United States)"/>
<marker lat="37.5" lon="-78.25" site="Cumberland County (Virginia, United States)"/>
<marker lat="41.95" lon="-71.85" site="Thompson (Connecticut, United States)"/>
<marker lat="37.55" lon="-78.566" site="Buckingham county (Virginia, United States)"/>
</markers>