<markers>
<marker lat="32.35" lon="-90.866" site="Vicksburg (Mississippi, United States)"/>
<marker lat="35.33" lon="-85.3" site="Chattanooga (Tennessee, United States)"/>
<marker lat="38.883" lon="-77.33" site="Washington (United States)"/>
<marker lat="34.933" lon="-88.516" site="Corinth (Mississippi, United States)"/>
<marker lat="36.166" lon="-86.75" site="Edgefield (Tennessee, United States)"/>
<marker lat="35.133" lon="-90.33" site="Memphis (Tennessee, United States)"/>
<marker lat="38.0" lon="-98.0" site="United States (United States)"/>
<marker lat="37.55" lon="-77.45" site="Richmond (Virginia, United States)"/>
<marker lat="19.416" lon="-99.166" site="Mexico (Mexico, Mexico)"/>
<marker lat="35.5" lon="-85.0" site="Tennessee (Tennessee, United States)"/>
<marker lat="37.316" lon="-77.266" site="City Point (Virginia, United States)"/>
<marker lat="33.733" lon="-84.383" site="Atlanta (Georgia, United States)"/>
<marker lat="37.66" lon="-88.55" site="Tennessee River (United States)"/>
<marker lat="36.75" lon="-89.1" site="Columbus, Ky. (Kentucky, United States)"/>
<marker lat="37.33" lon="-89.183" site="Cairo, Ill. (Illinois, United States)"/>
<marker lat="47.233" lon="-95.2" site="Mississippi (United States)"/>
<marker lat="38.616" lon="-90.183" site="St. Louis (Missouri, United States)"/>
<marker lat="32.16" lon="-91.5" site="Grand Gulf (Mississippi, United States)"/>
<marker lat="35.95" lon="-83.916" site="Knoxville (Tennessee, United States)"/>
<marker lat="30.683" lon="-88.33" site="Mobile, Ala. (Alabama, United States)"/>
<marker lat="35.15" lon="-88.316" site="Pittsburg Landing (Tennessee, United States)"/>
<marker lat="32.866" lon="-85.183" site="West Point (Georgia, United States)"/>
<marker lat="35.95" lon="-87.366" site="Missionary Ridge, Tenn. (Tennessee, United States)"/>
<marker lat="32.283" lon="-90.183" site="Jackson (Mississippi, United States)"/>
<marker lat="36.5" lon="-88.0" site="Fort Henry (Tennessee, United States)"/>
<marker lat="32.83" lon="-81.1" site="Savannah (Georgia, United States)"/>
<marker lat="36.483" lon="-87.85" site="Fort Donelson (Tennessee, United States)"/>
<marker lat="38.0" lon="-98.0" site="Missouri (Missouri, United States)"/>
<marker lat="37.0" lon="-85.0" site="Kentucky (Kentucky, United States)"/>
<marker lat="33.0" lon="-90.0" site="Mississippi (Mississippi, United States)"/>
<marker lat="37.4" lon="-79.133" site="Lynchburg (Virginia, United States)"/>
<marker lat="38.2" lon="-77.583" site="Spottsylvania (Virginia, United States)"/>
<marker lat="30.0" lon="-100.0" site="Texas (Texas, United States)"/>
<marker lat="27.8" lon="-97.383" site="Corpus Christi (Texas, United States)"/>
<marker lat="37.0" lon="-80.0" site="Virginia (Virginia, United States)"/>
<marker lat="35.1" lon="-88.35" site="Shiloh, Tenn. (Tennessee, United States)"/>
<marker lat="32.0" lon="-84.0" site="Georgia (Georgia, United States)"/>
<marker lat="19.333" lon="-96.666" site="Vera Cruz (Veracruz, Mexico)"/>
<marker lat="35.5" lon="-80.0" site="North Carolina (North Carolina, United States)"/>
<marker lat="35.95" lon="-83.116" site="Bridgeport, Tennessee (Tennessee, United States)"/>
<marker lat="34.983" lon="-85.333" site="Lookout Mountain, Tenn. (Tennessee, United States)"/>
<marker lat="41.35" lon="-86.433" site="Donelson (Indiana, United States)"/>
<marker lat="37.1" lon="-82.716" site="Cumberland River (Kentucky, United States)"/>
<marker lat="29.416" lon="-98.483" site="San Antonio (Texas, United States)"/>
<marker lat="37.583" lon="-77.1" site="Tunstall (Virginia, United States)"/>
<marker lat="34.766" lon="-89.433" site="Holly Springs (Mississippi, United States)"/>
<marker lat="37.4" lon="-78.816" site="Appomattox (Virginia, United States)"/>
<marker lat="32.766" lon="-79.916" site="Charleston (South Carolina, United States)"/>
<marker lat="32.266" lon="-115.816" site="Chapultepec (Baja Caifornia Norte, Mexico)"/>
<marker lat="23.0" lon="-102.0" site="Mexico (Mexico)"/>
<marker lat="38.25" lon="-85.75" site="Louisville (Kentucky, United States)"/>
<marker lat="34.216" lon="-77.933" site="Wilmington, N. C. (North Carolina, United States)"/>
<marker lat="37.83" lon="-88.6" site="Paducah (Kentucky, United States)"/>
<marker lat="30.666" lon="-91.266" site="Port Hudson (Louisiana, United States)"/>
<marker lat="34.766" lon="-84.966" site="Dalton, Ga. (Georgia, United States)"/>
<marker lat="40.0" lon="-80.833" site="Ohio (Ohio, United States)"/>
<marker lat="34.0" lon="-80.0" site="South Carolina (South Carolina, United States)"/>
<marker lat="32.25" lon="-90.416" site="Raymond (Mississippi, United States)"/>
<marker lat="32.45" lon="-91.1" site="Milliken's Bend (Louisiana, United States)"/>
<marker lat="35.25" lon="-88.983" site="Bolivar, Tenn. (Tennessee, United States)"/>
<marker lat="19.5" lon="-98.166" site="Puebla (Puebla, Mexico)"/>
<marker lat="37.3" lon="-78.383" site="Farmville (Virginia, United States)"/>
<marker lat="37.133" lon="-77.616" site="Five Forks (Virginia, United States)"/>
<marker lat="42.416" lon="-90.416" site="Galena (Illinois, United States)"/>
<marker lat="33.533" lon="-90.166" site="Yazoo River (United States)"/>
<marker lat="31.95" lon="-90.983" site="Port Gibson (Mississippi, United States)"/>
<marker lat="34.8" lon="-88.183" site="Iuka (Mississippi, United States)"/>
<marker lat="35.6" lon="-88.8" site="Jackson (Tennessee, United States)"/>
<marker lat="31.0" lon="-92.0" site="Louisiana (Louisiana, United States)"/>
<marker lat="40.0" lon="-89.0" site="Illinois (Illinois, United States)"/>
<marker lat="36.983" lon="-89.133" site="Ohio (United States)"/>
<marker lat="34.0" lon="-81.33" site="Columbia (South Carolina, United States)"/>
<marker lat="35.33" lon="-89.233" site="La Grange (Tennessee, United States)"/>
<marker lat="33.466" lon="-82.16" site="Augusta (Georgia, United States)"/>
<marker lat="-27.333" lon="-58.5" site="San Cosme (Argentina)"/>
<marker lat="34.883" lon="-88.1" site="Eastport (Mississippi, United States)"/>
<marker lat="25.2" lon="-99.833" site="Monterrey (Nuevo Leon, Mexico)"/>
<marker lat="37.0" lon="-119.0" site="California (California, United States)"/>
<marker lat="35.216" lon="-88.233" site="Savannah, Tenn. (Tennessee, United States)"/>
<marker lat="35.33" lon="-89.183" site="Grand Junction (Tennessee, United States)"/>
<marker lat="37.333" lon="-77.266" site="Bermuda Hundred (Virginia, United States)"/>
<marker lat="31.933" lon="-91.15" site="Bruinsburg (Mississippi, United States)"/>
<marker lat="35.383" lon="-77.983" site="Goldsboro (North Carolina, United States)"/>
<marker lat="36.483" lon="-87.833" site="Dover, Tennessee (Tennessee, United States)"/>
<marker lat="38.5" lon="-90.266" site="Jefferson Barracks (Missouri, United States)"/>
<marker lat="38.233" lon="-77.666" site="Todd's Tavern (Virginia, United States)"/>
<marker lat="44.466" lon="-91.533" site="Lookout Valley (Wisconsin, United States)"/>
<marker lat="34.75" lon="-85.4" site="Chattanooga Valley (United States)"/>
<marker lat="34.816" lon="-85.4" site="Chattanooga Creek (United States)"/>
<marker lat="37.883" lon="-85.7" site="Belmont, Ky. (Kentucky, United States)"/>
<marker lat="38.3" lon="-77.45" site="Fredericksburg, Va. (Virginia, United States)"/>
<marker lat="40.55" lon="-85.25" site="Matamoras (Indiana, United States)"/>
<marker lat="32.66" lon="-99.83" site="Red River (Texas, United States)"/>
<marker lat="38.16" lon="-78.466" site="Charlottesville (Virginia, United States)"/>
<marker lat="28.666" lon="-97.383" site="Goliad (Texas, United States)"/>
<marker lat="32.35" lon="-90.533" site="Champion's Hill (Mississippi, United States)"/>
<marker lat="35.216" lon="-88.316" site="Crump (Tennessee, United States)"/>
<marker lat="37.766" lon="-122.416" site="San Francisco (California, United States)"/>
<marker lat="17.75" lon="-92.8" site="Jalapa (Tabasco, Mexico)"/>
<marker lat="40.733" lon="-74.166" site="Milford (New Jersey, United States)"/>
<marker lat="39.15" lon="-84.45" site="Cincinnati (Ohio, United States)"/>
<marker lat="36.783" lon="-85.366" site="Burkesville (Kentucky, United States)"/>
<marker lat="8.95" lon="-79.5" site="Panama City (Panama)"/>
<marker lat="34.483" lon="-90.6" site="Helena, Ark. (Arkansas, United States)"/>
<marker lat="37.583" lon="-90.616" site="Ironton (Missouri, United States)"/>
<marker lat="38.633" lon="-83.733" site="Maysville, Ky. (Kentucky, United States)"/>
<marker lat="34.75" lon="-88.416" site="Jacinto (Mississippi, United States)"/>
<marker lat="37.3" lon="-89.516" site="Cape Girardeau (Missouri, United States)"/>
<marker lat="38.133" lon="-79.66" site="Staunton, Va. (Virginia, United States)"/>
<marker lat="31.75" lon="-93.83" site="Natchitoches (Louisiana, United States)"/>
<marker lat="39.316" lon="-77.733" site="Harper's Ferry (West Virginia, United States)"/>
<marker lat="37.333" lon="-77.966" site="Amelia Court House (Virginia, United States)"/>
<marker lat="32.333" lon="-90.316" site="Clinton (Mississippi, United States)"/>
<marker lat="33.66" lon="-83.216" site="Milledgeville (Georgia, United States)"/>
<marker lat="35.5" lon="-84.783" site="Decatur (Tennessee, United States)"/>
<marker lat="32.833" lon="-83.616" site="Macon (Georgia, United States)"/>
<marker lat="35.916" lon="-86.866" site="Franklin (Tennessee, United States)"/>
<marker lat="36.583" lon="-79.383" site="Danville (Virginia, United States)"/>
<marker lat="39.8" lon="-89.633" site="Springfield (Illinois, United States)"/>
<marker lat="39.183" lon="-78.15" site="Winchester, Va. (Virginia, United States)"/>
<marker lat="37.216" lon="-77.4" site="Petersburg, Va. (Virginia, United States)"/>
<marker lat="38.566" lon="-92.166" site="Jefferson City (Missouri, United States)"/>
<marker lat="35.0" lon="-93.0" site="Arkansas (Arkansas, United States)"/>
<marker lat="36.983" lon="-86.433" site="Bowling Green (Kentucky, United States)"/>
<marker lat="32.333" lon="-90.45" site="Bolton's Depot (Mississippi, United States)"/>
<marker lat="34.833" lon="-88.3" site="Burnsville (Mississippi, United States)"/>
<marker lat="32.816" lon="-91.2" site="Lake Providence (Louisiana, United States)"/>
<marker lat="25.5" lon="-101.0" site="Saltillo (Coahuila, Mexico)"/>
<marker lat="35.15" lon="-84.866" site="Cleveland, Tenn. (Tennessee, United States)"/>
<marker lat="46.0" lon="2.0" site="France (France)"/>
<marker lat="36.5" lon="-88.5" site="Fort Heiman (Kentucky, United States)"/>
<marker lat="34.35" lon="-89.516" site="Oxford (Mississippi, United States)"/>
<marker lat="44.95" lon="-73.916" site="Churubusco (New York, United States)"/>
<marker lat="39.816" lon="-77.216" site="Gettysburg (Pennsylvania, United States)"/>
<marker lat="34.966" lon="-85.283" site="Rossville (Georgia, United States)"/>
<marker lat="39.0" lon="-80.0" site="West Virginia (West Virginia, United States)"/>
<marker lat="37.283" lon="-78.83" site="Jetersville (Virginia, United States)"/>
<marker lat="34.366" lon="-106.8" site="Contreras (New Mexico, United States)"/>
<marker lat="35.3" lon="-88.166" site="Cerro Gordo, Tenn. (Tennessee, United States)"/>
<marker lat="34.9" lon="-85.1" site="Ringgold, Ga. (Georgia, United States)"/>
<marker lat="39.283" lon="-76.6" site="Baltimore, Md. (Maryland, United States)"/>
<marker lat="34.866" lon="-85.833" site="Stevenson (Alabama, United States)"/>
<marker lat="31.933" lon="-85.7" site="Perote, Alabama (Alabama, United States)"/>
<marker lat="28.0" lon="-82.0" site="Florida (Florida, United States)"/>
<marker lat="34.966" lon="-85.133" site="Graysville (Georgia, United States)"/>
<marker lat="32.283" lon="-90.283" site="Bakers Creek (Mississippi, United States)"/>
<marker lat="34.716" lon="-76.65" site="Beaufort, N. C. (North Carolina, United States)"/>
<marker lat="37.2" lon="-93.283" site="Springfield, Mo. (Missouri, United States)"/>
<marker lat="35.316" lon="-88.483" site="Snake Creek (Tennessee, United States)"/>
<marker lat="33.683" lon="-89.116" site="Big Black (Mississippi, United States)"/>
<marker lat="34.66" lon="-88.633" site="Camargo (Mississippi, United States)"/>
<marker lat="53.0" lon="-2.0" site="England (United Kingdom)"/>
<marker lat="35.633" lon="-89.833" site="Fort Pillow (Tennessee, United States)"/>
<marker lat="35.33" lon="-85.183" site="Chickamauga Station (Tennessee, United States)"/>
<marker lat="32.4" lon="-87.16" site="Selma (Alabama, United States)"/>
<marker lat="37.866" lon="-80.133" site="Alleghany Mountains (United States)"/>
<marker lat="39.0" lon="-76.833" site="Maryland (Maryland, United States)"/>
<marker lat="34.716" lon="-85.15" site="East Chickamauga Creek (Georgia, United States)"/>
<marker lat="18.95" lon="-99.25" site="Cuernavaca (Morelos, Mexico)"/>
<marker lat="32.8" lon="-81.933" site="Millen (Georgia, United States)"/>
<marker lat="35.583" lon="-79.5" site="Cape Fear (North Carolina, United States)"/>
<marker lat="35.33" lon="-85.266" site="Orchard Knob (Tennessee, United States)"/>
<marker lat="38.466" lon="-77.983" site="Culpeper, Va. (Virginia, United States)"/>
<marker lat="39.166" lon="-91.866" site="Mexico, Mo. (Missouri, United States)"/>
<marker lat="37.583" lon="-77.266" site="Old Cold Harbor (Virginia, United States)"/>
<marker lat="37.516" lon="-76.783" site="West Point (Virginia, United States)"/>
<marker lat="33.5" lon="-90.166" site="Greenwood (Mississippi, United States)"/>
<marker lat="44.4" lon="-70.783" site="Bethel, Me. (Maine, United States)"/>
<marker lat="33.766" lon="-89.8" site="Grenada (Mississippi, United States)"/>
<marker lat="34.15" lon="-90.75" site="Black Bayou (Mississippi, United States)"/>
<marker lat="37.433" lon="-122.133" site="Palo Alto (California, United States)"/>
<marker lat="38.3" lon="-77.633" site="Chancellorsville (Virginia, United States)"/>
<marker lat="31.6" lon="-93.4" site="Fort Jessup (Louisiana, United States)"/>
<marker lat="38.283" lon="-78.8" site="Port Republic (Virginia, United States)"/>
<marker lat="40.833" lon="-76.0" site="Pennsylvania (Pennsylvania, United States)"/>
<marker lat="33.0" lon="-87.0" site="Alabama (Alabama, United States)"/>
<marker lat="39.83" lon="-84.6" site="Hatcher's Run (Ohio, United States)"/>
<marker lat="35.5" lon="-78.866" site="Fayetteville (North Carolina, United States)"/>
<marker lat="35.6" lon="-87.33" site="Columbia, Tenn. (Tennessee, United States)"/>
<marker lat="37.233" lon="-78.233" site="Sailor's Creek (Virginia, United States)"/>
<marker lat="51.416" lon="-118.5" site="Columbia River (United States)"/>
<marker lat="37.633" lon="-75.6" site="Little (Virginia, United States)"/>
<marker lat="32.35" lon="-88.7" site="Meridian (Mississippi, United States)"/>
<marker lat="34.1" lon="-84.7" site="Allatoona (Georgia, United States)"/>
<marker lat="32.433" lon="-90.433" site="Brownsville (Mississippi, United States)"/>
<marker lat="38.7" lon="-77.783" site="Warrenton (Virginia, United States)"/>
<marker lat="27.95" lon="-97.766" site="San Patricio (Texas, United States)"/>
<marker lat="36.916" lon="-84.766" site="Mill Springs (Kentucky, United States)"/>
<marker lat="44.0" lon="-85.0" site="Michigan (Michigan, United States)"/>
<marker lat="34.683" lon="-79.883" site="Cheraw (South Carolina, United States)"/>
<marker lat="40.266" lon="-79.283" site="Long Bridge (Pennsylvania, United States)"/>
<marker lat="39.933" lon="-91.4" site="Quincy, Ill. (Illinois, United States)"/>
<marker lat="27.516" lon="-82.566" site="Palmetto (Florida, United States)"/>
<marker lat="40.416" lon="-85.816" site="Point Isabel (Indiana, United States)"/>
<marker lat="38.816" lon="-77.516" site="Bull Run, Va. (Virginia, United States)"/>
<marker lat="34.866" lon="-85.283" site="Chickamauga (Georgia, United States)"/>
<marker lat="39.933" lon="-77.65" site="Chambersburg, Pa. (Pennsylvania, United States)"/>
<marker lat="43.1" lon="-75.216" site="Utica (New York, United States)"/>
<marker lat="34.433" lon="-90.483" site="Yazoo Pass (Mississippi, United States)"/>
<marker lat="32.533" lon="-116.733" site="Buena Vista (Baja Caifornia Norte, Mexico)"/>
</markers>