<markers>
<marker lat="38.0" lon="-98.0" site="United States (United States)"/>
<marker lat="35.33" lon="-85.3" site="Chattanooga (Tennessee, United States)"/>
<marker lat="30.433" lon="-88.0" site="Mobile Bay (Alabama, United States)"/>
<marker lat="35.95" lon="-83.916" site="Knoxville (Tennessee, United States)"/>
<marker lat="35.5" lon="-85.0" site="Tennessee (Tennessee, United States)"/>
<marker lat="32.35" lon="-90.866" site="Vicksburg (Mississippi, United States)"/>
<marker lat="38.883" lon="-77.33" site="Washington (United States)"/>
<marker lat="30.216" lon="-88.16" site="Fort Morgan (Alabama, United States)"/>
<marker lat="31.3" lon="-92.433" site="Alexandria (Louisiana, United States)"/>
<marker lat="30.316" lon="-81.65" site="Jacksonville (Florida, United States)"/>
<marker lat="31.85" lon="-93.5" site="Pleasant Hill (Louisiana, United States)"/>
<marker lat="34.766" lon="-84.966" site="Dalton, Ga. (Georgia, United States)"/>
<marker lat="31.8" lon="-93.83" site="Grand Ecore (Louisiana, United States)"/>
<marker lat="31.75" lon="-93.83" site="Natchitoches (Louisiana, United States)"/>
<marker lat="29.95" lon="-90.66" site="New Orleans (Louisiana, United States)"/>
<marker lat="37.83" lon="-88.6" site="Paducah (Kentucky, United States)"/>
<marker lat="35.133" lon="-90.33" site="Memphis (Tennessee, United States)"/>
<marker lat="34.9" lon="-85.1" site="Ringgold, Ga. (Georgia, United States)"/>
<marker lat="32.35" lon="-88.7" site="Meridian (Mississippi, United States)"/>
<marker lat="34.833" lon="-85.33" site="Tunnel Hill (Georgia, United States)"/>
<marker lat="28.0" lon="-82.0" site="Florida (Florida, United States)"/>
<marker lat="35.95" lon="-87.366" site="Missionary Ridge, Tenn. (Tennessee, United States)"/>
<marker lat="33.0" lon="-90.0" site="Mississippi (Mississippi, United States)"/>
<marker lat="34.983" lon="-85.333" site="Lookout Mountain, Tenn. (Tennessee, United States)"/>
<marker lat="32.516" lon="-93.75" site="Shreveport (Louisiana, United States)"/>
<marker lat="30.683" lon="-88.33" site="Mobile, Ala. (Alabama, United States)"/>
<marker lat="32.0" lon="-84.0" site="Georgia (Georgia, United States)"/>
<marker lat="35.633" lon="-89.833" site="Fort Pillow (Tennessee, United States)"/>
<marker lat="37.0" lon="-85.0" site="Kentucky (Kentucky, United States)"/>
<marker lat="30.183" lon="-82.633" site="Lake City (Florida, United States)"/>
<marker lat="31.0" lon="-92.0" site="Louisiana (Louisiana, United States)"/>
<marker lat="37.66" lon="-88.55" site="Tennessee River (United States)"/>
<marker lat="35.0" lon="-93.0" site="Arkansas (Arkansas, United States)"/>
<marker lat="38.933" lon="-82.33" site="Mission Ridge (West Virginia, United States)"/>
<marker lat="34.966" lon="-85.283" site="Rossville (Georgia, United States)"/>
<marker lat="35.6" lon="-88.8" site="Jackson (Tennessee, United States)"/>
<marker lat="37.33" lon="-89.183" site="Cairo, Ill. (Illinois, United States)"/>
<marker lat="35.1" lon="-77.33" site="New Bern (North Carolina, United States)"/>
<marker lat="35.5" lon="-80.0" site="North Carolina (North Carolina, United States)"/>
<marker lat="44.466" lon="-91.533" site="Lookout Valley (Wisconsin, United States)"/>
<marker lat="32.283" lon="-90.183" site="Jackson (Mississippi, United States)"/>
<marker lat="53.0" lon="-2.0" site="England (United Kingdom)"/>
<marker lat="33.0" lon="-87.0" site="Alabama (Alabama, United States)"/>
<marker lat="35.15" lon="-84.866" site="Cleveland, Tenn. (Tennessee, United States)"/>
<marker lat="37.55" lon="-77.45" site="Richmond (Virginia, United States)"/>
<marker lat="36.833" lon="-76.283" site="Norfolk (Virginia, United States)"/>
<marker lat="36.75" lon="-89.1" site="Columbus, Ky. (Kentucky, United States)"/>
<marker lat="29.35" lon="-89.45" site="Fort Jackson (Louisiana, United States)"/>
<marker lat="30.3" lon="-81.966" site="Baldwin, Fla. (Florida, United States)"/>
<marker lat="29.35" lon="-89.516" site="Buras (Louisiana, United States)"/>
<marker lat="30.25" lon="-82.266" site="Sanderson (Florida, United States)"/>
<marker lat="35.5" lon="-78.333" site="Smithfield, N. C. (North Carolina, United States)"/>
<marker lat="34.733" lon="-92.283" site="Little Rock (Arkansas, United States)"/>
<marker lat="35.95" lon="-83.116" site="Bridgeport, Tennessee (Tennessee, United States)"/>
<marker lat="38.25" lon="-85.75" site="Louisville (Kentucky, United States)"/>
<marker lat="36.733" lon="-88.633" site="Mayfield (Kentucky, United States)"/>
<marker lat="47.233" lon="-95.2" site="Mississippi (United States)"/>
<marker lat="35.716" lon="-84.333" site="Loudon, Tenn. (Tennessee, United States)"/>
<marker lat="30.233" lon="-88.66" site="Fort Gaines (Alabama, United States)"/>
<marker lat="30.0" lon="-100.0" site="Texas (Texas, United States)"/>
<marker lat="30.666" lon="-91.266" site="Port Hudson (Louisiana, United States)"/>
<marker lat="36.416" lon="-89.5" site="Union City (Tennessee, United States)"/>
<marker lat="34.216" lon="-77.933" site="Wilmington, N. C. (North Carolina, United States)"/>
<marker lat="33.466" lon="-82.16" site="Augusta (Georgia, United States)"/>
<marker lat="41.5" lon="-73.616" site="Fredericksburgh (New York, United States)"/>
<marker lat="38.0" lon="-98.0" site="Missouri (Missouri, United States)"/>
<marker lat="40.75" lon="-78.883" site="Gettysburgh (Pennsylvania, United States)"/>
<marker lat="34.0" lon="-88.75" site="Okolona (Mississippi, United States)"/>
<marker lat="34.0" lon="-80.0" site="South Carolina (South Carolina, United States)"/>
<marker lat="37.583" lon="-77.1" site="Tunstall (Virginia, United States)"/>
<marker lat="35.33" lon="-89.65" site="Collierville (Tennessee, United States)"/>
<marker lat="37.83" lon="-89.15" site="Mound City (Illinois, United States)"/>
<marker lat="32.85" lon="-90.4" site="Yazoo City (Mississippi, United States)"/>
<marker lat="41.816" lon="-71.4" site="Providence, R. I. (Rhode Island, United States)"/>
<marker lat="36.166" lon="-86.75" site="Edgefield (Tennessee, United States)"/>
<marker lat="37.266" lon="-76.7" site="Williamsburg (Virginia, United States)"/>
<marker lat="34.75" lon="-85.4" site="Chattanooga Valley (United States)"/>
<marker lat="34.816" lon="-85.4" site="Chattanooga Creek (United States)"/>
<marker lat="35.283" lon="-84.75" site="Charleston, Tenn. (Tennessee, United States)"/>
<marker lat="39.65" lon="-81.166" site="Greysville (Ohio, United States)"/>
<marker lat="34.716" lon="-85.15" site="East Chickamauga Creek (Georgia, United States)"/>
<marker lat="36.9" lon="-76.633" site="Chuckatuck Creek (Virginia, United States)"/>
<marker lat="40.833" lon="-76.0" site="Pennsylvania (Pennsylvania, United States)"/>
<marker lat="31.166" lon="-92.5" site="Fort De Russy (Louisiana, United States)"/>
<marker lat="35.55" lon="-89.633" site="Covington, Tenn. (Tennessee, United States)"/>
<marker lat="35.866" lon="-84.5" site="Kingston (Tennessee, United States)"/>
<marker lat="38.16" lon="-78.466" site="Charlottesville (Virginia, United States)"/>
<marker lat="46.0" lon="2.0" site="France (France)"/>
<marker lat="36.3" lon="-76.216" site="Elizabeth City (North Carolina, United States)"/>
<marker lat="40.0" lon="-80.833" site="Ohio (Ohio, United States)"/>
<marker lat="39.316" lon="-77.733" site="Harper's Ferry (West Virginia, United States)"/>
<marker lat="35.433" lon="-86.783" site="Lewisburg (Tennessee, United States)"/>
<marker lat="32.216" lon="-80.666" site="Hilton Head (South Carolina, United States)"/>
<marker lat="36.4" lon="-83.0" site="Rodgersville (Tennessee, United States)"/>
<marker lat="30.533" lon="-92.66" site="Opelousas (Louisiana, United States)"/>
<marker lat="32.7" lon="-79.883" site="Morris Island (South Carolina, United States)"/>
<marker lat="36.316" lon="-83.366" site="Bean's Station (Tennessee, United States)"/>
<marker lat="39.833" lon="-80.766" site="Taylor's Ridge (West Virginia, United States)"/>
<marker lat="30.2" lon="-82.416" site="Olustee (Florida, United States)"/>
<marker lat="32.33" lon="-93.7" site="Mansfield (Louisiana, United States)"/>
<marker lat="39.483" lon="-88.166" site="Charleston, Ill. (Illinois, United States)"/>
<marker lat="39.15" lon="-84.45" site="Cincinnati (Ohio, United States)"/>
<marker lat="42.516" lon="-70.883" site="Salem (Massachusetts, United States)"/>
<marker lat="39.0" lon="-80.0" site="West Virginia (West Virginia, United States)"/>
<marker lat="34.983" lon="-85.266" site="Missionary Ridge (United States)"/>
<marker lat="32.4" lon="-87.16" site="Selma (Alabama, United States)"/>
<marker lat="38.483" lon="-87.266" site="Petersburgh (Indiana, United States)"/>
<marker lat="42.25" lon="-71.833" site="Massachusetts (Massachusetts, United States)"/>
<marker lat="34.716" lon="-86.583" site="Huntsville (Alabama, United States)"/>
<marker lat="30.666" lon="-81.45" site="Fernandina, Fla. (Florida, United States)"/>
<marker lat="36.583" lon="-83.666" site="Cumberland Gap (Tennessee, United States)"/>
<marker lat="34.866" lon="-85.833" site="Stevenson (Alabama, United States)"/>
<marker lat="38.7" lon="-77.783" site="Warrenton (Virginia, United States)"/>
<marker lat="39.183" lon="-78.15" site="Winchester, Va. (Virginia, United States)"/>
<marker lat="37.733" lon="-77.916" site="Goochland (Virginia, United States)"/>
<marker lat="32.433" lon="-89.1" site="Decatur (Mississippi, United States)"/>
<marker lat="34.933" lon="-88.516" site="Corinth (Mississippi, United States)"/>
<marker lat="33.583" lon="-92.833" site="Camden, Ark. (Arkansas, United States)"/>
<marker lat="32.333" lon="-90.316" site="Clinton (Mississippi, United States)"/>
<marker lat="34.716" lon="-76.65" site="Beaufort, N. C. (North Carolina, United States)"/>
<marker lat="39.65" lon="-78.75" site="Cumberland (Maryland, United States)"/>
<marker lat="27.95" lon="-80.783" site="San Juan River (Florida, United States)"/>
<marker lat="38.233" lon="-78.1" site="Orange Court House (Virginia, United States)"/>
<marker lat="37.516" lon="-76.783" site="West Point (Virginia, United States)"/>
<marker lat="37.516" lon="-77.45" site="Belle Isle, Va. (Virginia, United States)"/>
<marker lat="32.45" lon="-89.5" site="Hillsboro (Mississippi, United States)"/>
<marker lat="38.3" lon="-77.633" site="Chancellorsville (Virginia, United States)"/>
<marker lat="34.716" lon="-87.7" site="Tuscumbia (Alabama, United States)"/>
<marker lat="40.7" lon="-74.0" site="New York (New York, United States)"/>
<marker lat="25.9" lon="-97.483" site="Fort Taylor (Texas, United States)"/>
<marker lat="36.533" lon="-82.6" site="Holston (Tennessee, United States)"/>
<marker lat="32.266" lon="-89.983" site="Brandon (Mississippi, United States)"/>
<marker lat="32.66" lon="-99.83" site="Red River (Texas, United States)"/>
<marker lat="36.45" lon="-83.566" site="Tazewell, Tenn. (Tennessee, United States)"/>
<marker lat="35.883" lon="-84.166" site="Station West (Tennessee, United States)"/>
<marker lat="35.33" lon="-89.533" site="Rossville (Tennessee, United States)"/>
<marker lat="37.0" lon="-80.0" site="Virginia (Virginia, United States)"/>
<marker lat="28.216" lon="-96.633" site="Matagorda Island (Texas, United States)"/>
<marker lat="39.233" lon="-79.116" site="New Creek (West Virginia, United States)"/>
<marker lat="32.766" lon="-79.916" site="Charleston (South Carolina, United States)"/>
<marker lat="36.83" lon="-78.8" site="Neuse (North Carolina, United States)"/>
<marker lat="32.516" lon="-87.833" site="Demopolis (Alabama, United States)"/>
<marker lat="34.8" lon="-85.16" site="Rocky Face (Georgia, United States)"/>
<marker lat="39.883" lon="-83.433" site="London, Madison County, Ohio (Ohio, United States)"/>
<marker lat="33.733" lon="-84.383" site="Atlanta (Georgia, United States)"/>
<marker lat="38.966" lon="-76.483" site="Annapolis (Maryland, United States)"/>
<marker lat="39.0" lon="-76.833" site="Maryland (Maryland, United States)"/>
<marker lat="39.333" lon="-78.75" site="Romney (West Virginia, United States)"/>
<marker lat="35.833" lon="-86.383" site="Murfreesboro (Tennessee, United States)"/>
<marker lat="39.6" lon="-77.816" site="Williamsport (Maryland, United States)"/>
<marker lat="37.75" lon="-77.466" site="Ashland (Virginia, United States)"/>
<marker lat="37.233" lon="-76.5" site="Yorktown (Virginia, United States)"/>
<marker lat="32.783" lon="-96.866" site="Trinity (Texas, United States)"/>
<marker lat="29.483" lon="-91.5" site="Carrion Crow Bayou (Louisiana, United States)"/>
<marker lat="34.883" lon="-88.1" site="Eastport (Mississippi, United States)"/>
<marker lat="35.433" lon="-84.583" site="Athens, Tenn. (Tennessee, United States)"/>
<marker lat="35.33" lon="-89.233" site="La Grange (Tennessee, United States)"/>
<marker lat="35.83" lon="-89.8" site="Germantown (Tennessee, United States)"/>
<marker lat="42.483" lon="-74.966" site="Colliersville (New York, United States)"/>
<marker lat="40.433" lon="-79.983" site="Pittsburgh (Pennsylvania, United States)"/>
<marker lat="38.65" lon="-78.45" site="Luray (Virginia, United States)"/>
<marker lat="36.2" lon="-83.283" site="Morristown, Tenn. (Tennessee, United States)"/>
<marker lat="34.7" lon="-85.266" site="La Fayette (Georgia, United States)"/>
<marker lat="36.733" lon="-76.583" site="Nansemond River (Virginia, United States)"/>
<marker lat="31.55" lon="-91.416" site="Vidalia (Louisiana, United States)"/>
<marker lat="42.333" lon="-76.833" site="Havana, N. Y. (New York, United States)"/>
<marker lat="36.15" lon="-83.7" site="Blain (Tennessee, United States)"/>
<marker lat="30.833" lon="-82.333" site="Suwanee River (United States)"/>
<marker lat="39.383" lon="-84.55" site="Fort Hamilton (Ohio, United States)"/>
<marker lat="41.75" lon="-72.683" site="Hartford (Connecticut, United States)"/>
<marker lat="37.5" lon="-76.666" site="Pagan Creek (Virginia, United States)"/>
<marker lat="39.45" lon="-77.95" site="Martinsburg (West Virginia, United States)"/>
<marker lat="38.283" lon="-85.816" site="New Albany (Indiana, United States)"/>
<marker lat="35.966" lon="-88.933" site="Trenton, Tenn. (Tennessee, United States)"/>
<marker lat="35.35" lon="-86.2" site="Tullahoma (Tennessee, United States)"/>
<marker lat="36.5" lon="-88.0" site="Fort Henry (Tennessee, United States)"/>
<marker lat="40.0" lon="-86.0" site="Indiana (Indiana, United States)"/>
<marker lat="35.666" lon="-92.733" site="Arkansas (United States)"/>
<marker lat="35.733" lon="-109.66" site="Fort Defiance (Arizona, United States)"/>
<marker lat="34.8" lon="-88.183" site="Iuka (Mississippi, United States)"/>
<marker lat="43.66" lon="-89.4" site="Madison (Wisconsin, United States)"/>
<marker lat="39.5" lon="-78.966" site="Moorefield (West Virginia, United States)"/>
<marker lat="36.25" lon="-83.83" site="Bull's Gap (Tennessee, United States)"/>
<marker lat="34.433" lon="-89.766" site="Moccasin Point (Mississippi, United States)"/>
<marker lat="35.416" lon="-84.983" site="Hiwassee Island (Tennessee, United States)"/>
<marker lat="36.2" lon="-86.283" site="Lebanon (Tennessee, United States)"/>
<marker lat="39.283" lon="-76.6" site="Baltimore, Md. (Maryland, United States)"/>
<marker lat="36.15" lon="-82.816" site="Greenville, Tenn. (Tennessee, United States)"/>
<marker lat="36.866" lon="-94.366" site="Neosho, Mo. (Missouri, United States)"/>
<marker lat="30.45" lon="-91.15" site="Baton Rouge (Louisiana, United States)"/>
<marker lat="36.716" lon="-76.583" site="Suffolk, Va. (Virginia, United States)"/>
<marker lat="33.533" lon="-90.166" site="Yazoo River (United States)"/>
<marker lat="30.533" lon="-91.1" site="Pleasant Hills (Louisiana, United States)"/>
<marker lat="38.35" lon="-77.933" site="Raccoon Ford (Virginia, United States)"/>
<marker lat="36.833" lon="-76.283" site="Portsmouth, Va. (Virginia, United States)"/>
<marker lat="42.366" lon="-71.5" site="Charlestown, Mass. (Massachusetts, United States)"/>
<marker lat="41.85" lon="-87.65" site="Chicago (Illinois, United States)"/>
<marker lat="37.16" lon="-93.2" site="Ozark, Mo. (Missouri, United States)"/>
<marker lat="36.333" lon="-76.66" site="Indiantown, N. C. (North Carolina, United States)"/>
<marker lat="38.466" lon="-77.766" site="Kelly's Ford (Virginia, United States)"/>
</markers>