<markers>
<marker lat="35.0" lon="105.0" site="China (China)"/>
<marker lat="31.0" lon="-92.0" site="Louisiana (Louisiana, United States)"/>
<marker lat="38.0" lon="-98.0" site="United States (United States)"/>
<marker lat="37.766" lon="-122.416" site="San Francisco (California, United States)"/>
<marker lat="37.0" lon="-119.0" site="California (California, United States)"/>
<marker lat="32.0" lon="-84.0" site="Georgia (Georgia, United States)"/>
<marker lat="37.133" lon="-89.116" site="America (Illinois, United States)"/>
<marker lat="34.0" lon="-80.0" site="South Carolina (South Carolina, United States)"/>
<marker lat="51.45" lon="5.983" site="America (Netherlands)"/>
<marker lat="51.5" lon="10.5" site="Germany (Germany)"/>
<marker lat="41.85" lon="-87.65" site="Chicago (Illinois, United States)"/>
<marker lat="44.416" lon="-72.0" site="St. Johnsbury (Vermont, United States)"/>
<marker lat="46.0" lon="2.0" site="France (France)"/>
<marker lat="34.25" lon="-85.15" site="Rome, Ga. (Georgia, United States)"/>
<marker lat="40.833" lon="-76.0" site="Pennsylvania (Pennsylvania, United States)"/>
<marker lat="42.25" lon="-71.833" site="Massachusetts (Massachusetts, United States)"/>
<marker lat="33.733" lon="-84.383" site="Atlanta (Georgia, United States)"/>
<marker lat="40.0" lon="-115.0" site="Nevada (Nevada, United States)"/>
<marker lat="39.0" lon="-76.833" site="Maryland (Maryland, United States)"/>
<marker lat="60.0" lon="47.0" site="Russia (Russia)"/>
<marker lat="44.0" lon="-120.0" site="Oregon (Oregon, United States)"/>
<marker lat="44.0" lon="-73.0" site="Vermont (Vermont, United States)"/>
<marker lat="44.0" lon="-85.0" site="Michigan (Michigan, United States)"/>
<marker lat="38.0" lon="-98.0" site="Missouri (Missouri, United States)"/>
<marker lat="33.0" lon="-87.0" site="Alabama (Alabama, United States)"/>
<marker lat="25.0" lon="-90.0" site="Gulf of Mexico"/>
<marker lat="38.666" lon="-98.0" site="Kansas (Kansas, United States)"/>
<marker lat="37.333" lon="-121.883" site="San Jose (California, United States)"/>
<marker lat="40.0" lon="-89.0" site="Illinois (Illinois, United States)"/>
<marker lat="35.0" lon="-93.0" site="Arkansas (Arkansas, United States)"/>
<marker lat="42.833" lon="12.833" site="Italy (Italy)"/>
<marker lat="41.1" lon="-111.366" site="China Town (Utah, United States)"/>
<marker lat="53.416" lon="-3.0" site="Liverpool (United Kingdom)"/>
<marker lat="53.0" lon="-2.0" site="England (United Kingdom)"/>
<marker lat="32.283" lon="-90.183" site="Jackson (Mississippi, United States)"/>
<marker lat="41.833" lon="-72.833" site="Connecticut (Connecticut, United States)"/>
<marker lat="40.0" lon="-110.0" site="Utah (Utah, United States)"/>
<marker lat="38.566" lon="-121.483" site="Sacramento (California, United States)"/>
<marker lat="33.783" lon="-81.966" site="Edgefield (South Carolina, United States)"/>
<marker lat="44.0" lon="-105.833" site="Wyoming (Wyoming, United States)"/>
<marker lat="48.866" lon="2.333" site="Department de Ville de Paris (France)"/>
<marker lat="47.0" lon="-110.0" site="Montana (Montana, United States)"/>
<marker lat="60.0" lon="-96.0" site="Canada (Canada)"/>
<marker lat="40.833" lon="14.25" site="Naples (Italy)"/>
<marker lat="34.0" lon="-112.0" site="Arizona (Arizona, United States)"/>
<marker lat="19.416" lon="-99.166" site="Mexico (Mexico, Mexico)"/>
<marker lat="40.0" lon="-4.0" site="Spain (Spain)"/>
<marker lat="45.0" lon="-69.0" site="Maine (Maine, United States)"/>
<marker lat="41.5" lon="-100.0" site="Nebraska (Nebraska, United States)"/>
<marker lat="40.0" lon="-75.0" site="New Jersey (New Jersey, United States)"/>
<marker lat="40.0" lon="-86.0" site="Indiana (Indiana, United States)"/>
<marker lat="42.0" lon="-93.0" site="Iowa (Iowa, United States)"/>
<marker lat="45.0" lon="-115.0" site="Idaho (Idaho, United States)"/>
<marker lat="39.0" lon="-75.666" site="Delaware (Delaware, United States)"/>
<marker lat="38.25" lon="-85.75" site="Louisville (Kentucky, United States)"/>
<marker lat="39.166" lon="-112.683" site="Salt Lake (Utah, United States)"/>
<marker lat="35.5" lon="-85.0" site="Tennessee (Tennessee, United States)"/>
<marker lat="47.333" lon="13.333" site="Austria (Austria)"/>
<marker lat="34.766" lon="-89.433" site="Holly Springs (Mississippi, United States)"/>
<marker lat="29.3" lon="-94.783" site="Galveston (Texas, United States)"/>
<marker lat="46.0" lon="-94.0" site="Minnesota (Minnesota, United States)"/>
<marker lat="37.4" lon="-5.983" site="Seville (Spain)"/>
<marker lat="44.0" lon="-71.666" site="New Hampshire (New Hampshire, United States)"/>
<marker lat="39.916" lon="116.433" site="Peking (China)"/>
<marker lat="32.533" lon="-82.9" site="Dublin, Ga. (Georgia, United States)"/>
<marker lat="45.0" lon="-100.0" site="South Dakota (South Dakota, United States)"/>
<marker lat="39.0" lon="-105.0" site="Colorado (Colorado, United States)"/>
<marker lat="38.9" lon="-77.25" site="Vienna (Virginia, United States)"/>
<marker lat="47.0" lon="8.0" site="Switzerland (Switzerland)"/>
<marker lat="23.0" lon="-102.0" site="Mexico (Mexico)"/>
<marker lat="43.0" lon="13.0" site="Apennines (Italy)"/>
<marker lat="43.0" lon="-84.55" site="St. Johns (Michigan, United States)"/>
<marker lat="32.766" lon="-79.966" site="Charleston County (South Carolina, United States)"/>
<marker lat="40.416" lon="-3.716" site="Madrid (Spain)"/>
<marker lat="42.35" lon="-71.15" site="Brighton, Mass. (Massachusetts, United States)"/>
<marker lat="53.5" lon="-2.216" site="Manchester (United Kingdom)"/>
<marker lat="35.5" lon="-89.4" site="Moscow, Tenn. (Tennessee, United States)"/>
<marker lat="40.766" lon="-73.95" site="Central Park (New York, United States)"/>
<marker lat="36.983" lon="-89.133" site="Ohio (United States)"/>
<marker lat="38.783" lon="-90.466" site="St. Charles, Mo. (Missouri, United States)"/>
<marker lat="37.5" lon="14.0" site="Sicily (Italy)"/>
<marker lat="38.4" lon="-79.566" site="Monterey (Virginia, United States)"/>
<marker lat="41.33" lon="28.95" site="Constantinople (Turkey)"/>
<marker lat="43.55" lon="-72.66" site="George Hill (New Hampshire, United States)"/>
<marker lat="38.8" lon="-77.33" site="Alexandria (Virginia, United States)"/>
<marker lat="-25.0" lon="135.0" site="Australia (Australia)"/>
<marker lat="39.0" lon="35.0" site="Turquie (Turkey)"/>
<marker lat="35.0" lon="38.0" site="Syria (Syria)"/>
<marker lat="35.5" lon="-80.0" site="North Carolina (North Carolina, United States)"/>
<marker lat="41.666" lon="-71.5" site="Rhode Island (Rhode Island, United States)"/>
<marker lat="40.433" lon="-79.983" site="Pittsburgh (Pennsylvania, United States)"/>
<marker lat="34.183" lon="-79.75" site="Florence, S. C. (South Carolina, United States)"/>
<marker lat="44.0" lon="-87.0" site="Lake Michigan (United States)"/>
<marker lat="41.15" lon="-81.35" site="Franklin Mills, Portage County, Ohio (Ohio, United States)"/>
<marker lat="51.2" lon="-0.5" site="Surrey (United Kingdom)"/>
<marker lat="40.25" lon="-75.783" site="Schuylkill (Pennsylvania, United States)"/>
<marker lat="-0.5" lon="-91.0" site="Pacific Ocean"/>
<marker lat="37.33" lon="-89.183" site="Cairo, Ill. (Illinois, United States)"/>
<marker lat="44.55" lon="-71.983" site="Passumpsic River (Vermont, United States)"/>
<marker lat="39.566" lon="-76.983" site="Westminster (Maryland, United States)"/>
<marker lat="41.266" lon="-72.333" site="Connecticut River (United States)"/>
<marker lat="33.45" lon="-79.35" site="Georgetown County (South Carolina, United States)"/>
<marker lat="42.25" lon="-71.116" site="Hyde Park, Mass. (Massachusetts, United States)"/>
<marker lat="39.83" lon="-84.5" site="Covington (Kentucky, United States)"/>
<marker lat="39.0" lon="22.0" site="Greece (Greece)"/>
<marker lat="50.833" lon="4.0" site="Belgium (Belgium)"/>
<marker lat="-10.0" lon="-55.0" site="Brazil (Brazil)"/>
<marker lat="24.616" lon="-82.866" site="Fort Jefferson (Florida, United States)"/>
<marker lat="62.0" lon="15.0" site="Sweden (Sweden)"/>
<marker lat="52.0" lon="20.0" site="Poland (Poland)"/>
<marker lat="45.0" lon="65.0" site="Jaxartes (Kazakhstan)"/>
<marker lat="46.15" lon="-94.35" site="Fort Ripley (Minnesota, United States)"/>
<marker lat="37.916" lon="-115.583" site="Freyberg (Nevada, United States)"/>
<marker lat="51.683" lon="-0.116" site="Botany Bay (United Kingdom)"/>
<marker lat="32.633" lon="-93.9" site="Caddo (Louisiana, United States)"/>
<marker lat="40.633" lon="-77.0" site="Oriental (Pennsylvania, United States)"/>
<marker lat="37.516" lon="-76.783" site="York (Virginia, United States)"/>
<marker lat="31.166" lon="-92.483" site="Rapides Parish (Louisiana, United States)"/>
<marker lat="32.35" lon="-90.866" site="Vicksburg (Mississippi, United States)"/>
<marker lat="30.33" lon="-90.85" site="Free Town (Louisiana, United States)"/>
<marker lat="38.966" lon="-76.483" site="Annapolis (Maryland, United States)"/>
<marker lat="28.633" lon="-106.83" site="Chihuahua (Chihuahua, Mexico)"/>
<marker lat="36.6" lon="-121.883" site="Monterey (California, United States)"/>
<marker lat="37.366" lon="-79.8" site="Blue Ridge (Virginia, United States)"/>
<marker lat="41.15" lon="-79.65" site="Saint Petersburg (Pennsylvania, United States)"/>
<marker lat="37.83" lon="-84.6" site="Somerset, Ky. (Kentucky, United States)"/>
<marker lat="32.416" lon="-80.666" site="Beaufort, S. C. (South Carolina, United States)"/>
<marker lat="39.283" lon="-76.6" site="Baltimore, Md. (Maryland, United States)"/>
<marker lat="39.333" lon="-91.366" site="Indian Creek (Missouri, United States)"/>
<marker lat="43.0" lon="-75.0" site="New York State (New York, United States)"/>
<marker lat="37.6" lon="-0.983" site="Cartagena (Spain)"/>
<marker lat="45.433" lon="12.333" site="Venice (Italy)"/>
<marker lat="38.2" lon="-78.883" site="Piedmont, Va. (Virginia, United States)"/>
<marker lat="42.33" lon="-87.683" site="Evanston (Illinois, United States)"/>
<marker lat="39.15" lon="-82.483" site="Puritan (Ohio, United States)"/>
<marker lat="31.75" lon="-93.83" site="Natchitoches (Louisiana, United States)"/>
<marker lat="41.116" lon="-114.416" site="Toano (Nevada, United States)"/>
<marker lat="38.6" lon="-78.783" site="Broadway (Virginia, United States)"/>
<marker lat="37.983" lon="-120.366" site="Sonora (California, United States)"/>
<marker lat="35.83" lon="-88.3" site="Hamburg, Tenn. (Tennessee, United States)"/>
<marker lat="39.55" lon="-94.766" site="Platte County (Missouri, United States)"/>
<marker lat="1.0" lon="-40.0" site="Atlantic Ocean"/>
<marker lat="37.983" lon="-91.6" site="Saint James (Missouri, United States)"/>
<marker lat="53.4" lon="-3.33" site="Birkenhead (United Kingdom)"/>
<marker lat="51.583" lon="0.55" site="Essex (United Kingdom)"/>
<marker lat="41.25" lon="-95.933" site="Omaha (Nebraska, United States)"/>
<marker lat="49.916" lon="1.83" site="Dieppe (France)"/>
<marker lat="37.983" lon="-86.166" site="Brandenburg (Kentucky, United States)"/>
<marker lat="46.166" lon="-60.166" site="Sydney (Canada)"/>
<marker lat="45.0" lon="8.0" site="Piedmont (Italy)"/>
<marker lat="40.716" lon="-89.266" site="Eureka, Woodford County, Illinois (Illinois, United States)"/>
<marker lat="42.866" lon="-76.966" site="Geneva, N. Y. (New York, United States)"/>
<marker lat="30.983" lon="-81.416" site="St. Andrew's Sound (Georgia, United States)"/>
<marker lat="57.0" lon="-4.0" site="Scotland (United Kingdom)"/>
<marker lat="37.933" lon="-122.483" site="San Quentin (California, United States)"/>
<marker lat="32.7" lon="-117.15" site="San Diego (California, United States)"/>
<marker lat="52.383" lon="-0.983" site="Naseby (United Kingdom)"/>
<marker lat="33.66" lon="-83.216" site="Milledgeville (Georgia, United States)"/>
<marker lat="45.6" lon="-68.516" site="Penobscot (Maine, United States)"/>
<marker lat="34.183" lon="-88.716" site="Verona (Mississippi, United States)"/>
<marker lat="46.533" lon="6.65" site="Lausanne (Switzerland)"/>
<marker lat="51.333" lon="12.416" site="Leipzig (Saxony, Germany)"/>
<marker lat="30.366" lon="-87.2" site="Pensacola Bay (Florida, United States)"/>
<marker lat="33.666" lon="-84.433" site="South River, Ga. (Georgia, United States)"/>
<marker lat="32.83" lon="-81.1" site="Savannah (Georgia, United States)"/>
<marker lat="39.933" lon="-77.65" site="Chambersburg, Pa. (Pennsylvania, United States)"/>
<marker lat="36.0" lon="138.0" site="Japan (Japan)"/>
<marker lat="45.66" lon="7.666" site="Turin (Italy)"/>
<marker lat="40.466" lon="-82.366" site="Amity (Ohio, United States)"/>
<marker lat="39.483" lon="-80.133" site="Palatine (West Virginia, United States)"/>
<marker lat="46.233" lon="-122.783" site="Headquarters (Washington, United States)"/>
<marker lat="31.333" lon="-84.933" site="Early County (Georgia, United States)"/>
<marker lat="32.366" lon="-81.333" site="Effingham (Georgia, United States)"/>
<marker lat="31.833" lon="-81.5" site="Liberty county, Ga. (Georgia, United States)"/>
<marker lat="51.5" lon="-0.166" site="Ludgate hill (United Kingdom)"/>
<marker lat="40.75" lon="-111.883" site="Salt Lake City (Utah, United States)"/>
<marker lat="38.883" lon="-77.33" site="Washington (United States)"/>
<marker lat="33.33" lon="-85.33" site="Troup (Georgia, United States)"/>
<marker lat="32.5" lon="-84.183" site="Sumter (Georgia, United States)"/>
<marker lat="34.5" lon="-118.233" site="Los Angeles (California, United States)"/>
<marker lat="38.3" lon="-77.45" site="Fredericksburg, Va. (Virginia, United States)"/>
<marker lat="51.966" lon="-8.583" site="County Cork (Irish Republic)"/>
<marker lat="36.2" lon="-86.283" site="Lebanon (Tennessee, United States)"/>
<marker lat="43.33" lon="-76.133" site="Syracuse (New York, United States)"/>
<marker lat="33.66" lon="-83.15" site="Baldwin (Georgia, United States)"/>
<marker lat="41.783" lon="-69.983" site="Orleans, Ma. (Massachusetts, United States)"/>
<marker lat="36.266" lon="-112.333" site="Masonic Temple (Arizona, United States)"/>
<marker lat="42.5" lon="-96.4" site="Sioux City (Iowa, United States)"/>
<marker lat="32.516" lon="-93.75" site="Shreveport (Louisiana, United States)"/>
<marker lat="39.166" lon="-79.7" site="St. George, W. Va. (West Virginia, United States)"/>
<marker lat="30.0" lon="-100.0" site="Texas (Texas, United States)"/>
<marker lat="29.883" lon="-81.416" site="St Johns (Florida, United States)"/>
<marker lat="41.883" lon="-88.3" site="Geneva (Illinois, United States)"/>
<marker lat="31.3" lon="-84.45" site="Baker County (Georgia, United States)"/>
<marker lat="44.833" lon="20.5" site="Belgrade (Yugoslavia)"/>
<marker lat="27.0" lon="30.0" site="Egypt (Egypt)"/>
<marker lat="51.266" lon="-1.85" site="Wiltshire (United Kingdom)"/>
<marker lat="33.55" lon="-82.25" site="Columbia County (Georgia, United States)"/>
<marker lat="32.866" lon="-85.183" site="West Point (Georgia, United States)"/>
<marker lat="43.5" lon="-1.466" site="Bayonne (France)"/>
</markers>