<markers>
<marker lat="38.0" lon="-98.0" site="United States (United States)"/>
<marker lat="37.316" lon="-77.266" site="City Point (Virginia, United States)"/>
<marker lat="42.316" lon="-70.916" site="Fort Warren (Massachusetts, United States)"/>
<marker lat="53.0" lon="-2.0" site="England (United Kingdom)"/>
<marker lat="42.333" lon="-70.966" site="Boston Harbor (Massachusetts, United States)"/>
<marker lat="37.233" lon="-75.783" site="New Inlet (Virginia, United States)"/>
<marker lat="35.583" lon="-79.5" site="Cape Fear (North Carolina, United States)"/>
<marker lat="32.0" lon="-84.0" site="Georgia (Georgia, United States)"/>
<marker lat="37.55" lon="-77.45" site="Richmond (Virginia, United States)"/>
<marker lat="42.633" lon="-71.333" site="Middlesex Village (Massachusetts, United States)"/>
<marker lat="30.266" lon="-97.733" site="Austin (Texas, United States)"/>
<marker lat="35.666" lon="-80.466" site="Salisbury, N. C. (North Carolina, United States)"/>
<marker lat="37.183" lon="-78.2" site="Burkeville (Virginia, United States)"/>
<marker lat="39.15" lon="-82.483" site="Puritan (Ohio, United States)"/>
<marker lat="38.133" lon="-78.183" site="Gordonsville (Virginia, United States)"/>
<marker lat="19.0" lon="-70.666" site="Dominican Republic (Dominican Republic)"/>
<marker lat="37.516" lon="-77.383" site="Rocketts (Virginia, United States)"/>
<marker lat="60.0" lon="47.0" site="Russia (Russia)"/>
<marker lat="38.833" lon="-79.866" site="Beverly (West Virginia, United States)"/>
<marker lat="31.0" lon="-92.0" site="Louisiana (Louisiana, United States)"/>
<marker lat="40.0" lon="-89.0" site="Illinois (Illinois, United States)"/>
<marker lat="33.516" lon="-82.9" site="Ogeechee (Georgia, United States)"/>
<marker lat="37.55" lon="-77.366" site="Henrico (Virginia, United States)"/>
<marker lat="35.766" lon="-78.633" site="Raleigh (North Carolina, United States)"/>
<marker lat="35.5" lon="-85.0" site="Tennessee (Tennessee, United States)"/>
<marker lat="36.416" lon="-77.583" site="Weldon, N. C. (North Carolina, United States)"/>
<marker lat="27.0" lon="30.0" site="Egypt (Egypt)"/>
<marker lat="40.766" lon="-111.883" site="Capitol (Utah, United States)"/>
<marker lat="37.16" lon="-78.883" site="Patrick Henry (Virginia, United States)"/>
<marker lat="33.883" lon="-78.16" site="Fort Caswell (North Carolina, United States)"/>
<marker lat="32.366" lon="-80.683" site="Port Royal (South Carolina, United States)"/>
<marker lat="36.583" lon="-79.383" site="Danville (Virginia, United States)"/>
</markers>