<markers>
<marker lat="39.0" lon="-76.833" site="Maryland (Maryland, United States)"/>
<marker lat="38.0" lon="-98.0" site="United States (United States)"/>
<marker lat="36.983" lon="-89.133" site="Ohio (United States)"/>
<marker lat="32.0" lon="-84.0" site="Georgia (Georgia, United States)"/>
<marker lat="40.833" lon="-76.0" site="Pennsylvania (Pennsylvania, United States)"/>
<marker lat="39.316" lon="-77.733" site="Harper's Ferry (West Virginia, United States)"/>
<marker lat="39.0" lon="-80.0" site="West Virginia (West Virginia, United States)"/>
<marker lat="37.55" lon="-77.366" site="Henrico (Virginia, United States)"/>
<marker lat="35.683" lon="-75.716" site="Old Point (North Carolina, United States)"/>
<marker lat="39.633" lon="-77.716" site="Hagerstown (Maryland, United States)"/>
<marker lat="37.0" lon="-80.0" site="Virginia (Virginia, United States)"/>
<marker lat="38.833" lon="-82.133" site="Point Pleasant (West Virginia, United States)"/>
<marker lat="38.833" lon="-82.2" site="Hanersville (Ohio, United States)"/>
<marker lat="40.0" lon="-86.0" site="Indiana (Indiana, United States)"/>
<marker lat="34.0" lon="-80.0" site="South Carolina (South Carolina, United States)"/>
<marker lat="37.75" lon="-77.483" site="Hanover County (Virginia, United States)"/>
<marker lat="36.85" lon="-81.516" site="Smyth (Virginia, United States)"/>
<marker lat="37.85" lon="-78.25" site="Palmyra (Virginia, United States)"/>
<marker lat="39.7" lon="-76.65" site="Maryland Line (Maryland, United States)"/>
<marker lat="38.766" lon="-79.966" site="Rich Mountain (West Virginia, United States)"/>
<marker lat="38.0" lon="-98.0" site="Missouri (Missouri, United States)"/>
<marker lat="38.933" lon="-77.433" site="Cub Run, Va. (Virginia, United States)"/>
<marker lat="39.133" lon="-77.416" site="Poolesville (Maryland, United States)"/>
<marker lat="33.0" lon="-87.0" site="Alabama (Alabama, United States)"/>
<marker lat="31.75" lon="-93.83" site="Natchitoches (Louisiana, United States)"/>
<marker lat="37.366" lon="-77.5" site="Chesterfield (Virginia, United States)"/>
<marker lat="36.983" lon="-86.433" site="Bowling Green (Kentucky, United States)"/>
<marker lat="36.616" lon="-80.0" site="Spencer (Virginia, United States)"/>
<marker lat="37.75" lon="-77.466" site="Ashland (Virginia, United States)"/>
<marker lat="42.716" lon="-87.766" site="Racine (Wisconsin, United States)"/>
<marker lat="40.85" lon="-90.616" site="Warren (Illinois, United States)"/>
<marker lat="37.733" lon="-84.283" site="Richmond, Ky. (Kentucky, United States)"/>
<marker lat="31.0" lon="-92.0" site="Louisiana (Louisiana, United States)"/>
<marker lat="40.0" lon="-89.0" site="Illinois (Illinois, United States)"/>
<marker lat="40.0" lon="-80.833" site="Ohio (Ohio, United States)"/>
<marker lat="35.5" lon="-80.0" site="North Carolina (North Carolina, United States)"/>
<marker lat="39.95" lon="-75.15" site="Philadelphia (Pennsylvania, United States)"/>
<marker lat="39.16" lon="-82.33" site="Pomeroy (Ohio, United States)"/>
<marker lat="38.966" lon="-81.9" site="Graham Station (Ohio, United States)"/>
<marker lat="37.333" lon="-77.966" site="Amelia Court House (Virginia, United States)"/>
<marker lat="43.33" lon="-76.133" site="Syracuse (New York, United States)"/>
<marker lat="42.366" lon="-71.233" site="Waltham (Massachusetts, United States)"/>
<marker lat="35.5" lon="-85.0" site="Tennessee (Tennessee, United States)"/>
<marker lat="30.0" lon="-100.0" site="Texas (Texas, United States)"/>
<marker lat="37.66" lon="-77.633" site="Dinwiddie (Virginia, United States)"/>
<marker lat="38.733" lon="-77.816" site="Fauquier (Virginia, United States)"/>
<marker lat="41.383" lon="-84.116" site="Napoleon (Ohio, United States)"/>
<marker lat="39.45" lon="-77.95" site="Martinsburg (West Virginia, United States)"/>
<marker lat="37.75" lon="-77.366" site="Hanover Court House (Virginia, United States)"/>
<marker lat="34.2" lon="-85.616" site="Buffington's Island (Alabama, United States)"/>
<marker lat="38.316" lon="-77.466" site="Falmouth, Va. (Virginia, United States)"/>
<marker lat="38.666" lon="-87.516" site="Vincennes (Indiana, United States)"/>
<marker lat="37.133" lon="-78.66" site="Nottoway (Virginia, United States)"/>
<marker lat="38.8" lon="-82.0" site="Mason County (West Virginia, United States)"/>
<marker lat="38.816" lon="-82.333" site="Gallia County (Ohio, United States)"/>
<marker lat="36.916" lon="-81.5" site="Wythe (Virginia, United States)"/>
<marker lat="36.483" lon="-87.833" site="Dover, Tennessee (Tennessee, United States)"/>
<marker lat="39.45" lon="-78.33" site="Berkeley County (West Virginia, United States)"/>
</markers>