<markers>
<marker lat="38.0" lon="-98.0" site="United States (United States)"/>
<marker lat="35.5" lon="-85.0" site="Tennessee (Tennessee, United States)"/>
<marker lat="37.16" lon="-76.333" site="Hampton (Virginia, United States)"/>
<marker lat="46.0" lon="2.0" site="France (France)"/>
<marker lat="38.816" lon="-77.516" site="Bull Run, Va. (Virginia, United States)"/>
<marker lat="32.83" lon="-81.1" site="Savannah (Georgia, United States)"/>
<marker lat="39.316" lon="-77.733" site="Harper's Ferry (West Virginia, United States)"/>
<marker lat="35.683" lon="-75.716" site="Old Point (North Carolina, United States)"/>
<marker lat="38.0" lon="-98.0" site="Missouri (Missouri, United States)"/>
<marker lat="32.25" lon="-106.0" site="Fort Bliss (Texas, United States)"/>
<marker lat="39.0" lon="-80.0" site="West Virginia (West Virginia, United States)"/>
<marker lat="32.3" lon="-106.766" site="Las Cruces (New Mexico, United States)"/>
<marker lat="35.5" lon="-80.0" site="North Carolina (North Carolina, United States)"/>
<marker lat="34.25" lon="-85.15" site="Rome, Ga. (Georgia, United States)"/>
<marker lat="60.0" lon="-96.0" site="Canada (Canada)"/>
<marker lat="37.2" lon="-93.283" site="Springfield, Mo. (Missouri, United States)"/>
<marker lat="34.0" lon="-112.0" site="Arizona (Arizona, United States)"/>
<marker lat="35.1" lon="-77.33" site="New Bern (North Carolina, United States)"/>
<marker lat="38.683" lon="-77.483" site="Occoquan River (Virginia, United States)"/>
<marker lat="49.5" lon="0.1" site="Havre (France)"/>
<marker lat="34.0" lon="-80.0" site="South Carolina (South Carolina, United States)"/>
<marker lat="38.55" lon="-75.4" site="Pocomoke river (United States)"/>
<marker lat="37.133" lon="-77.733" site="Ford, Va. (Virginia, United States)"/>
<marker lat="47.85" lon="8.85" site="Aach (Baden-Wurttemberg, Germany)"/>
<marker lat="45.0" lon="-69.0" site="Maine (Maine, United States)"/>
<marker lat="44.0" lon="-85.0" site="Michigan (Michigan, United States)"/>
<marker lat="44.0" lon="-71.666" site="New Hampshire (New Hampshire, United States)"/>
<marker lat="33.55" lon="-107.5" site="Paraje (New Mexico, United States)"/>
<marker lat="19.0" lon="-70.666" site="Dominican Republic (Dominican Republic)"/>
<marker lat="42.6" lon="-73.233" site="New Ashford (Massachusetts, United States)"/>
<marker lat="44.0" lon="-120.0" site="Oregon (Oregon, United States)"/>
<marker lat="40.833" lon="-76.0" site="Pennsylvania (Pennsylvania, United States)"/>
<marker lat="38.983" lon="-77.583" site="Broad Run (Virginia, United States)"/>
<marker lat="38.9" lon="-77.25" site="Vienna (Virginia, United States)"/>
<marker lat="15.0" lon="-86.5" site="Honduras (Honduras)"/>
<marker lat="38.566" lon="-77.316" site="Dumfries, Va. (Virginia, United States)"/>
<marker lat="37.0" lon="-80.0" site="Virginia (Virginia, United States)"/>
<marker lat="37.8" lon="-80.433" site="Lewisburg (West Virginia, United States)"/>
<marker lat="38.16" lon="-78.466" site="Charlottesville (Virginia, United States)"/>
<marker lat="39.266" lon="-80.333" site="Clarksburg (West Virginia, United States)"/>
<marker lat="38.866" lon="-77.166" site="Fall's Church (Virginia, United States)"/>
<marker lat="40.0" lon="-4.0" site="Spain (Spain)"/>
<marker lat="31.8" lon="-106.2" site="El Paso (Texas, United States)"/>
<marker lat="35.83" lon="-89.8" site="Germantown (Tennessee, United States)"/>
<marker lat="36.8" lon="-76.316" site="Gosport (Virginia, United States)"/>
<marker lat="42.3" lon="-74.433" site="Prattsville (New York, United States)"/>
<marker lat="36.916" lon="-79.45" site="Cherrystone Creek (Virginia, United States)"/>
<marker lat="41.666" lon="-70.75" site="Alms House (Massachusetts, United States)"/>
<marker lat="39.5" lon="-78.966" site="Moorefield (West Virginia, United States)"/>
<marker lat="44.8" lon="-68.766" site="Bangor (Maine, United States)"/>
<marker lat="38.766" lon="-79.966" site="Rich Mountain (West Virginia, United States)"/>
<marker lat="42.25" lon="-71.833" site="Massachusetts (Massachusetts, United States)"/>
<marker lat="39.0" lon="-76.833" site="Maryland (Maryland, United States)"/>
<marker lat="35.216" lon="-75.516" site="Cape Hatteras (North Carolina, United States)"/>
<marker lat="38.5" lon="-80.366" site="Oscar (West Virginia, United States)"/>
<marker lat="34.716" lon="-76.65" site="Beaufort, N. C. (North Carolina, United States)"/>
<marker lat="37.433" lon="-76.416" site="Hampton Creek (Virginia, United States)"/>
<marker lat="41.333" lon="-73.65" site="Croton River (New York, United States)"/>
<marker lat="33.33" lon="111.333" site="Dan (China)"/>
<marker lat="42.316" lon="-72.633" site="Northampton (Massachusetts, United States)"/>
<marker lat="39.333" lon="-80.16" site="Grafton, W. Va. (West Virginia, United States)"/>
<marker lat="33.95" lon="-77.933" site="Federal Point (North Carolina, United States)"/>
<marker lat="38.233" lon="-78.1" site="Orange Court House (Virginia, United States)"/>
<marker lat="34.683" lon="-94.316" site="Ouachita (United States)"/>
<marker lat="40.66" lon="-80.55" site="Hall Run (West Virginia, United States)"/>
<marker lat="28.6" lon="-96.616" site="Port Lavaca (Texas, United States)"/>
<marker lat="44.183" lon="-69.66" site="Rockport (Maine, United States)"/>
<marker lat="36.883" lon="-76.35" site="Craney Island (Virginia, United States)"/>
<marker lat="42.25" lon="-90.416" site="Bellevue (Iowa, United States)"/>
<marker lat="35.133" lon="-90.33" site="Memphis (Tennessee, United States)"/>
<marker lat="38.4" lon="-79.566" site="Monterey (Virginia, United States)"/>
<marker lat="32.55" lon="-90.5" site="Madison County, Mississippi (Mississippi, United States)"/>
<marker lat="36.16" lon="-76.45" site="Bluff Point (North Carolina, United States)"/>
<marker lat="34.366" lon="-84.33" site="Lumpkin, Ga. (Georgia, United States)"/>
<marker lat="60.0" lon="47.0" site="Russia (Russia)"/>
<marker lat="36.883" lon="-89.916" site="Bloomfield, Mo. (Missouri, United States)"/>
<marker lat="53.0" lon="-2.0" site="England (United Kingdom)"/>
<marker lat="43.8" lon="-75.483" site="Lewis County (New York, United States)"/>
<marker lat="39.366" lon="-91.816" site="Santa Fe (Missouri, United States)"/>
<marker lat="40.383" lon="-91.383" site="Keokuk, Iowa (Iowa, United States)"/>
<marker lat="38.666" lon="-98.0" site="Kansas (Kansas, United States)"/>
<marker lat="37.766" lon="-122.416" site="San Francisco (California, United States)"/>
<marker lat="40.0" lon="-89.0" site="Illinois (Illinois, United States)"/>
<marker lat="42.516" lon="-70.883" site="Salem (Massachusetts, United States)"/>
<marker lat="38.616" lon="-90.183" site="St. Louis (Missouri, United States)"/>
<marker lat="36.7" lon="-81.966" site="Abingdon, Va. (Virginia, United States)"/>
<marker lat="33.633" lon="-96.6" site="Sherman, Grayson County, Texas (Texas, United States)"/>
<marker lat="41.666" lon="-71.5" site="Rhode Island (Rhode Island, United States)"/>
<marker lat="35.0" lon="-93.0" site="Arkansas (Arkansas, United States)"/>
<marker lat="38.883" lon="-77.33" site="Washington (United States)"/>
<marker lat="35.683" lon="-105.933" site="Pala (New Mexico, United States)"/>
<marker lat="38.3" lon="-77.45" site="Fredericksburg, Va. (Virginia, United States)"/>
<marker lat="35.833" lon="-77.15" site="Martin County (North Carolina, United States)"/>
<marker lat="41.833" lon="-72.833" site="Connecticut (Connecticut, United States)"/>
<marker lat="37.0" lon="-119.0" site="California (California, United States)"/>
<marker lat="39.0" lon="-105.0" site="Colorado (Colorado, United States)"/>
<marker lat="39.333" lon="-78.75" site="Romney (West Virginia, United States)"/>
<marker lat="43.25" lon="-70.85" site="Somersworth (New Hampshire, United States)"/>
<marker lat="50.833" lon="4.333" site="Brussels (Belgium)"/>
<marker lat="37.16" lon="-93.483" site="Dug Spring (Missouri, United States)"/>
<marker lat="23.33" lon="-81.2" site="Cardenas (Cuba)"/>
<marker lat="22.166" lon="-80.45" site="Cienfuegos (Cuba)"/>
<marker lat="45.65" lon="13.783" site="Trieste (Italy)"/>
<marker lat="38.3" lon="-76.616" site="St. Marys county (Maryland, United States)"/>
<marker lat="36.633" lon="-80.25" site="Stuart (Virginia, United States)"/>
<marker lat="36.45" lon="-83.566" site="Tazewell, Tenn. (Tennessee, United States)"/>
<marker lat="50.0" lon="8.3" site="Moenus (Germany)"/>
<marker lat="39.633" lon="-77.716" site="Hagerstown (Maryland, United States)"/>
<marker lat="37.983" lon="-77.316" site="Dejarnette (Virginia, United States)"/>
<marker lat="36.166" lon="-86.75" site="Edgefield (Tennessee, United States)"/>
<marker lat="44.533" lon="-68.416" site="Ellsworth (Maine, United States)"/>
<marker lat="27.8" lon="-97.383" site="Corpus Christi (Texas, United States)"/>
<marker lat="31.75" lon="-106.483" site="El Paso (Texas, United States)"/>
<marker lat="38.7" lon="-77.83" site="Mount Vernon (Virginia, United States)"/>
<marker lat="45.366" lon="10.566" site="Solferino (Italy)"/>
<marker lat="40.866" lon="-75.716" site="Mauch Chunk (Pennsylvania, United States)"/>
<marker lat="39.45" lon="-77.95" site="Martinsburg (West Virginia, United States)"/>
<marker lat="54.0" lon="-72.0" site="Quebec (Canada)"/>
<marker lat="33.466" lon="-82.16" site="Augusta (Georgia, United States)"/>
<marker lat="39.83" lon="-84.483" site="Newport, Ky. (Kentucky, United States)"/>
<marker lat="37.866" lon="-80.133" site="Alleghany Mountains (United States)"/>
<marker lat="36.583" lon="-83.666" site="Cumberland Gap (Tennessee, United States)"/>
<marker lat="23.116" lon="-82.35" site="Havana (Cuba)"/>
<marker lat="40.416" lon="-3.716" site="Madrid (Spain)"/>
<marker lat="47.333" lon="13.333" site="Austria (Austria)"/>
<marker lat="29.633" lon="-97.133" site="Lavaca (Texas, United States)"/>
<marker lat="32.25" lon="-90.416" site="Raymond (Mississippi, United States)"/>
<marker lat="45.633" lon="10.3" site="Brescia (Italy)"/>
<marker lat="40.283" lon="-84.15" site="Sydney (Ohio, United States)"/>
<marker lat="42.833" lon="12.833" site="Italy (Italy)"/>
<marker lat="40.616" lon="-84.6" site="Yankee Run (Ohio, United States)"/>
<marker lat="39.216" lon="-78.25" site="Frederick (Virginia, United States)"/>
<marker lat="36.7" lon="-78.35" site="Mecklenburg (Virginia, United States)"/>
<marker lat="37.783" lon="-78.783" site="Nelson (Virginia, United States)"/>
<marker lat="37.8" lon="-79.433" site="Rockbridge (Virginia, United States)"/>
<marker lat="38.933" lon="-78.183" site="Warren (Virginia, United States)"/>
<marker lat="39.283" lon="-80.383" site="Harrison County (West Virginia, United States)"/>
<marker lat="37.3" lon="-79.566" site="Bedford County (Virginia, United States)"/>
</markers>