<markers>
<marker lat="42.25" lon="-71.833" site="Massachusetts (Massachusetts, United States)"/>
<marker lat="53.0" lon="-2.0" site="England (United Kingdom)"/>
<marker lat="46.0" lon="2.0" site="France (France)"/>
<marker lat="39.333" lon="-80.16" site="Grafton, W. Va. (West Virginia, United States)"/>
<marker lat="40.0" lon="-4.0" site="Spain (Spain)"/>
<marker lat="34.0" lon="-80.0" site="South Carolina (South Carolina, United States)"/>
<marker lat="41.833" lon="-72.833" site="Connecticut (Connecticut, United States)"/>
<marker lat="41.666" lon="-69.95" site="Chatham (Massachusetts, United States)"/>
<marker lat="35.5" lon="-80.0" site="North Carolina (North Carolina, United States)"/>
<marker lat="51.383" lon="0.533" site="Chatham (United Kingdom)"/>
<marker lat="42.4" lon="-82.183" site="Chatham (Canada)"/>
<marker lat="40.833" lon="-76.0" site="Pennsylvania (Pennsylvania, United States)"/>
<marker lat="31.0" lon="-92.0" site="Louisiana (Louisiana, United States)"/>
<marker lat="41.666" lon="-71.5" site="Rhode Island (Rhode Island, United States)"/>
<marker lat="34.933" lon="-79.766" site="Rockingham, N. C. (North Carolina, United States)"/>
<marker lat="40.0" lon="-75.0" site="New Jersey (New Jersey, United States)"/>
<marker lat="40.0" lon="-89.0" site="Illinois (Illinois, United States)"/>
<marker lat="42.2" lon="-71.683" site="Grafton (Massachusetts, United States)"/>
<marker lat="32.0" lon="-84.0" site="Georgia (Georgia, United States)"/>
<marker lat="40.433" lon="-79.983" site="Pittsburgh (Pennsylvania, United States)"/>
<marker lat="36.66" lon="-79.116" site="Orange county (North Carolina, United States)"/>
<marker lat="43.66" lon="-72.416" site="Walpole (New Hampshire, United States)"/>
<marker lat="35.5" lon="-85.0" site="Tennessee (Tennessee, United States)"/>
<marker lat="42.366" lon="-70.75" site="Massachusetts Bay (Massachusetts, United States)"/>
<marker lat="39.0" lon="-76.833" site="Maryland (Maryland, United States)"/>
<marker lat="60.0" lon="-96.0" site="Canada (Canada)"/>
<marker lat="36.433" lon="-76.316" site="South Mills (North Carolina, United States)"/>
<marker lat="40.16" lon="-78.5" site="Fort Bedford (Pennsylvania, United States)"/>
<marker lat="60.0" lon="47.0" site="Russia (Russia)"/>
<marker lat="41.95" lon="-70.666" site="Accomack (Massachusetts, United States)"/>
<marker lat="48.866" lon="2.333" site="Department de Ville de Paris (France)"/>
<marker lat="41.916" lon="-88.75" site="Buena Vista (Illinois, United States)"/>
<marker lat="41.816" lon="-71.4" site="Providence, R. I. (Rhode Island, United States)"/>
<marker lat="42.933" lon="-71.5" site="Bedford (New Hampshire, United States)"/>
<marker lat="54.0" lon="-72.0" site="Quebec (Canada)"/>
<marker lat="42.316" lon="-71.83" site="Roxbury, Mass. (Massachusetts, United States)"/>
<marker lat="35.1" lon="-77.33" site="New Bern (North Carolina, United States)"/>
<marker lat="34.716" lon="-76.733" site="Carolina City (North Carolina, United States)"/>
<marker lat="42.766" lon="-71.66" site="Haverhill (Massachusetts, United States)"/>
<marker lat="37.16" lon="-78.883" site="Patrick Henry (Virginia, United States)"/>
<marker lat="40.416" lon="-3.716" site="Madrid (Spain)"/>
<marker lat="42.483" lon="-71.266" site="Bedford, Mass. (Massachusetts, United States)"/>
<marker lat="44.0" lon="-71.666" site="New Hampshire (New Hampshire, United States)"/>
<marker lat="51.5" lon="-0.166" site="Lansdowne house (United Kingdom)"/>
<marker lat="34.25" lon="-85.15" site="Rome, Ga. (Georgia, United States)"/>
<marker lat="37.866" lon="-80.133" site="Alleghany Mountains (United States)"/>
<marker lat="36.216" lon="-81.666" site="Boone, N. C. (North Carolina, United States)"/>
<marker lat="51.45" lon="-2.583" site="Bristol (United Kingdom)"/>
<marker lat="41.483" lon="-71.3" site="Newport (Rhode Island, United States)"/>
<marker lat="42.5" lon="-70.85" site="Marblehead (Massachusetts, United States)"/>
<marker lat="57.0" lon="-4.0" site="Scotland (United Kingdom)"/>
<marker lat="41.983" lon="-70.85" site="Halifax (Massachusetts, United States)"/>
<marker lat="43.366" lon="-72.6" site="Cavendish (Vermont, United States)"/>
<marker lat="52.0" lon="20.0" site="Poland (Poland)"/>
<marker lat="42.333" lon="-70.966" site="Boston Harbor (Massachusetts, United States)"/>
<marker lat="42.133" lon="-71.25" site="Walpole (Massachusetts, United States)"/>
<marker lat="36.316" lon="-77.583" site="Halifax, N. C. (North Carolina, United States)"/>
<marker lat="44.633" lon="-63.583" site="Halifax (Canada)"/>
<marker lat="42.533" lon="-71.9" site="Westminster (Massachusetts, United States)"/>
<marker lat="34.233" lon="-80.6" site="Camden, S. C. (South Carolina, United States)"/>
<marker lat="42.6" lon="-70.65" site="Glocester (Massachusetts, United States)"/>
<marker lat="38.55" lon="-86.466" site="Paoli (Indiana, United States)"/>
<marker lat="45.433" lon="12.333" site="Venice (Italy)"/>
<marker lat="42.383" lon="-72.833" site="Chesterfield (Massachusetts, United States)"/>
<marker lat="35.866" lon="-76.733" site="Plymouth, N. C. (North Carolina, United States)"/>
<marker lat="43.2" lon="-75.45" site="Fort Stanwix (New York, United States)"/>
<marker lat="38.0" lon="-98.0" site="United States (United States)"/>
<marker lat="40.0" lon="-86.0" site="Indiana (Indiana, United States)"/>
<marker lat="42.516" lon="-70.883" site="Salem (Massachusetts, United States)"/>
<marker lat="34.983" lon="-80.1" site="Anson (North Carolina, United States)"/>
<marker lat="42.583" lon="-72.3" site="Orange, Ma. (Massachusetts, United States)"/>
<marker lat="38.733" lon="-77.816" site="Fauquier (Virginia, United States)"/>
<marker lat="34.0" lon="-86.0" site="Gadsden (Alabama, United States)"/>
<marker lat="42.66" lon="-70.8" site="Pembroke (Massachusetts, United States)"/>
<marker lat="44.416" lon="8.95" site="Genoa (Italy)"/>
<marker lat="38.7" lon="-77.83" site="Mount Vernon (Virginia, United States)"/>
<marker lat="38.433" lon="-85.166" site="New Castle, Ky. (Kentucky, United States)"/>
<marker lat="29.733" lon="-93.883" site="Sabine Pass (Texas, United States)"/>
<marker lat="19.416" lon="-99.166" site="Mexico (Mexico, Mexico)"/>
<marker lat="47.333" lon="13.333" site="Austria (Austria)"/>
<marker lat="42.283" lon="-71.66" site="Dorchester, Mass. (Massachusetts, United States)"/>
<marker lat="38.666" lon="-87.516" site="Vincennes (Indiana, United States)"/>
<marker lat="39.5" lon="-8.0" site="Portugal (Portugal)"/>
<marker lat="42.233" lon="-71.9" site="Leicester, Mass. (Massachusetts, United States)"/>
<marker lat="35.266" lon="-80.85" site="Mecklenburg (North Carolina, United States)"/>
<marker lat="57.5" lon="-134.933" site="Chatham (Alaska, United States)"/>
<marker lat="42.333" lon="-71.55" site="Marlboro, Mass. (Massachusetts, United States)"/>
<marker lat="42.233" lon="-71.83" site="Milton, Mass. (Massachusetts, United States)"/>
<marker lat="36.533" lon="-6.3" site="Gades (Spain)"/>
<marker lat="41.2" lon="-73.633" site="Bedford, N. Y. (New York, United States)"/>
<marker lat="44.0" lon="-85.0" site="Michigan (Michigan, United States)"/>
<marker lat="42.316" lon="-71.116" site="Brookline (Massachusetts, United States)"/>
<marker lat="36.133" lon="-81.616" site="Yadkin (North Carolina, United States)"/>
<marker lat="42.0" lon="-81.0" site="Lake Erie (United States)"/>
<marker lat="42.316" lon="-72.633" site="Northampton (Massachusetts, United States)"/>
<marker lat="37.566" lon="-83.7" site="Kentucky River (Kentucky, United States)"/>
<marker lat="51.83" lon="-3.0" site="Somerset (United Kingdom)"/>
<marker lat="36.833" lon="-76.283" site="Portsmouth, Va. (Virginia, United States)"/>
<marker lat="34.5" lon="-82.216" site="Reedy River (South Carolina, United States)"/>
<marker lat="42.25" lon="-71.0" site="Quincy (Massachusetts, United States)"/>
<marker lat="38.15" lon="-81.183" site="Kanawha (West Virginia, United States)"/>
<marker lat="47.9" lon="1.9" site="Orleans (France)"/>
<marker lat="42.333" lon="-71.833" site="Worcester County (Massachusetts, United States)"/>
<marker lat="38.5" lon="-84.716" site="Versailles (Kentucky, United States)"/>
<marker lat="35.65" lon="-80.516" site="Rowan (North Carolina, United States)"/>
<marker lat="41.183" lon="-73.133" site="Stratford, Conn. (Connecticut, United States)"/>
<marker lat="42.7" lon="-71.2" site="Meeting House (Massachusetts, United States)"/>
<marker lat="40.833" lon="14.25" site="Naples (Italy)"/>
<marker lat="44.0" lon="-73.0" site="Vermont (Vermont, United States)"/>
<marker lat="42.333" lon="-76.833" site="Havana, N. Y. (New York, United States)"/>
<marker lat="35.216" lon="-77.833" site="Whitehall (North Carolina, United States)"/>
<marker lat="36.716" lon="-76.583" site="Suffolk, Va. (Virginia, United States)"/>
<marker lat="36.166" lon="-86.75" site="Edgefield (Tennessee, United States)"/>
<marker lat="51.5" lon="10.5" site="Germany (Germany)"/>
<marker lat="44.0" lon="-105.833" site="Wyoming (Wyoming, United States)"/>
<marker lat="37.266" lon="-76.7" site="Williamsburg (Virginia, United States)"/>
<marker lat="42.666" lon="-70.833" site="Ipswich, Mass. (Massachusetts, United States)"/>
<marker lat="36.83" lon="-79.35" site="Haw River (North Carolina, United States)"/>
<marker lat="42.933" lon="-74.183" site="Amsterdam (New York, United States)"/>
<marker lat="35.216" lon="-80.833" site="Charlotte (North Carolina, United States)"/>
<marker lat="40.766" lon="-74.216" site="Orange, N. J. (New Jersey, United States)"/>
<marker lat="34.4" lon="-80.633" site="Fort Hill (South Carolina, United States)"/>
<marker lat="38.316" lon="-77.466" site="Falmouth, Va. (Virginia, United States)"/>
<marker lat="46.533" lon="-86.5" site="Fox River (Michigan, United States)"/>
<marker lat="42.183" lon="-71.3" site="Medfield (Massachusetts, United States)"/>
<marker lat="44.283" lon="-69.783" site="Hallowell (Maine, United States)"/>
<marker lat="40.4" lon="-93.566" site="Princeton, Mo. (Missouri, United States)"/>
<marker lat="44.516" lon="-88.16" site="Green Bay (Wisconsin, United States)"/>
<marker lat="42.583" lon="-71.716" site="Lunenburg, Ma. (Massachusetts, United States)"/>
<marker lat="42.466" lon="-70.95" site="Lynn (Massachusetts, United States)"/>
<marker lat="43.666" lon="-70.433" site="Gorham (Maine, United States)"/>
<marker lat="41.933" lon="-75.266" site="South river (United States)"/>
<marker lat="41.65" lon="-71.333" site="Providence Point (Rhode Island, United States)"/>
<marker lat="38.0" lon="-98.0" site="Missouri (Missouri, United States)"/>
<marker lat="40.7" lon="-74.0" site="New York (New York, United States)"/>
<marker lat="51.166" lon="9.333" site="Kassel (Hesse, Germany)"/>
<marker lat="39.366" lon="-87.0" site="Bowling Green (Indiana, United States)"/>
<marker lat="42.5" lon="-70.866" site="Town Hall (Massachusetts, United States)"/>
<marker lat="42.35" lon="-71.5" site="Boston (Massachusetts, United States)"/>
<marker lat="42.0" lon="9.0" site="Corsica (France)"/>
<marker lat="42.466" lon="-71.1" site="Stoneham (Massachusetts, United States)"/>
<marker lat="57.616" lon="-2.7" site="Cornhill (United Kingdom)"/>
<marker lat="38.6" lon="-78.783" site="Broadway (Virginia, United States)"/>
<marker lat="39.816" lon="-79.683" site="Red Stone Creek (Pennsylvania, United States)"/>
<marker lat="40.66" lon="-79.8" site="Red Stone (Pennsylvania, United States)"/>
<marker lat="38.95" lon="-89.83" site="Vandalia (Illinois, United States)"/>
<marker lat="34.133" lon="-77.95" site="Charles Town (North Carolina, United States)"/>
<marker lat="42.683" lon="-114.516" site="Hydra (Idaho, United States)"/>
<marker lat="35.15" lon="-88.316" site="Pittsburg Landing (Tennessee, United States)"/>
<marker lat="42.216" lon="-71.0" site="Braintree (Massachusetts, United States)"/>
<marker lat="52.83" lon="4.266" site="The Hague (Netherlands)"/>
<marker lat="29.95" lon="-90.66" site="New Orleans (Louisiana, United States)"/>
<marker lat="41.35" lon="-72.1" site="New London (Connecticut, United States)"/>
<marker lat="42.8" lon="-70.866" site="Newburyport (Massachusetts, United States)"/>
<marker lat="40.55" lon="14.216" site="Capri (Italy)"/>
<marker lat="37.983" lon="-91.6" site="Saint James (Missouri, United States)"/>
<marker lat="51.75" lon="-0.8" site="Buckingham (United Kingdom)"/>
<marker lat="51.516" lon="-1.333" site="Berkshire (United Kingdom)"/>
<marker lat="50.483" lon="-4.666" site="Cornwall (United Kingdom)"/>
<marker lat="51.483" lon="0.66" site="Woolwich (United Kingdom)"/>
<marker lat="39.933" lon="-91.4" site="Quincy, Ill. (Illinois, United States)"/>
<marker lat="41.633" lon="-72.2" site="Lebanon, Conn. (Connecticut, United States)"/>
<marker lat="41.35" lon="-72.55" site="Killingworth (Connecticut, United States)"/>
<marker lat="44.0" lon="-78.16" site="Grafton (Canada)"/>
<marker lat="41.616" lon="-70.983" site="Dartmouth, Mass. (Massachusetts, United States)"/>
<marker lat="42.966" lon="-71.1" site="Rockingham (New Hampshire, United States)"/>
<marker lat="47.16" lon="-65.6" site="Newcastle (Canada)"/>
<marker lat="42.566" lon="-70.916" site="Danvers (Massachusetts, United States)"/>
<marker lat="43.833" lon="-73.416" site="Ticonderoga (New York, United States)"/>
<marker lat="52.35" lon="4.9" site="Amsterdam (Netherlands)"/>
<marker lat="42.866" lon="-76.966" site="Geneva, N. Y. (New York, United States)"/>
<marker lat="34.6" lon="-91.333" site="Aberdeen (Arkansas, United States)"/>
<marker lat="41.883" lon="-70.9" site="Middleborough (Massachusetts, United States)"/>
<marker lat="34.75" lon="-81.916" site="Tyger River (South Carolina, United States)"/>
<marker lat="38.2" lon="-84.25" site="Paris, Ky. (Kentucky, United States)"/>
<marker lat="42.416" lon="-124.4" site="Wedderburn (Oregon, United States)"/>
<marker lat="55.75" lon="37.7" site="Moscow (Russia)"/>
<marker lat="37.983" lon="-87.7" site="St. Phillip (Indiana, United States)"/>
<marker lat="43.183" lon="-72.483" site="Rockingham, Vt. (Vermont, United States)"/>
<marker lat="39.916" lon="-95.833" site="Grasshopper creek (Kansas, United States)"/>
<marker lat="42.35" lon="-73.283" site="Lenox (Massachusetts, United States)"/>
<marker lat="37.0" lon="-85.0" site="Kentucky (Kentucky, United States)"/>
<marker lat="36.55" lon="-82.66" site="Holston Valley (Tennessee, United States)"/>
<marker lat="45.0" lon="-115.0" site="Idaho (Idaho, United States)"/>
<marker lat="28.0" lon="-82.0" site="Florida (Florida, United States)"/>
<marker lat="35.116" lon="-90.7" site="Newcastle (Arkansas, United States)"/>
<marker lat="38.616" lon="-90.183" site="St. Louis (Missouri, United States)"/>
<marker lat="39.0" lon="-75.666" site="Delaware (Delaware, United States)"/>
<marker lat="39.833" lon="-75.35" site="Chester, Pa. (Pennsylvania, United States)"/>
<marker lat="36.7" lon="-81.966" site="Abingdon, Va. (Virginia, United States)"/>
<marker lat="37.916" lon="-87.883" site="Mount Vernon, Ind. (Indiana, United States)"/>
<marker lat="31.5" lon="-95.4" site="Refuge (Texas, United States)"/>
<marker lat="40.616" lon="-79.616" site="Westmoreland (Pennsylvania, United States)"/>
<marker lat="31.5" lon="34.75" site="Israel (Israel)"/>
<marker lat="41.833" lon="-70.833" site="Plymouth County (Massachusetts, United States)"/>
<marker lat="44.0" lon="-120.0" site="Oregon (Oregon, United States)"/>
<marker lat="43.55" lon="10.3" site="Leghorn (Italy)"/>
<marker lat="-2.883" lon="21.116" site="Ila (Congo)"/>
<marker lat="41.816" lon="-69.966" site="Eastham (Massachusetts, United States)"/>
<marker lat="38.883" lon="-77.33" site="Washington (United States)"/>
</markers>