<markers>
<marker lat="39.0" lon="-76.833" site="Maryland (Maryland, United States)"/>
<marker lat="31.0" lon="-92.0" site="Louisiana (Louisiana, United States)"/>
<marker lat="52.0" lon="20.0" site="Poland (Poland)"/>
<marker lat="38.0" lon="-98.0" site="United States (United States)"/>
<marker lat="35.5" lon="-85.0" site="Tennessee (Tennessee, United States)"/>
<marker lat="40.0" lon="-115.0" site="Nevada (Nevada, United States)"/>
<marker lat="37.316" lon="-77.266" site="City Point (Virginia, United States)"/>
<marker lat="60.0" lon="47.0" site="Russia (Russia)"/>
<marker lat="39.0" lon="-105.0" site="Colorado (Colorado, United States)"/>
<marker lat="29.3" lon="-94.783" site="Galveston (Texas, United States)"/>
<marker lat="32.416" lon="-80.666" site="Beaufort, S. C. (South Carolina, United States)"/>
<marker lat="45.0" lon="-69.0" site="Maine (Maine, United States)"/>
<marker lat="38.0" lon="-98.0" site="Missouri (Missouri, United States)"/>
<marker lat="33.816" lon="-88.533" site="Aberdeen (Mississippi, United States)"/>
<marker lat="40.0" lon="-75.0" site="New Jersey (New Jersey, United States)"/>
<marker lat="31.883" lon="-81.183" site="Fort McAllister (Georgia, United States)"/>
<marker lat="37.25" lon="-76.483" site="Gloucester Point (Virginia, United States)"/>
<marker lat="40.3" lon="-90.5" site="Havana (Illinois, United States)"/>
<marker lat="38.1" lon="-82.6" site="Louisa, Ky. (Kentucky, United States)"/>
<marker lat="34.983" lon="-81.233" site="Yorkville (South Carolina, United States)"/>
<marker lat="53.0" lon="-2.0" site="England (United Kingdom)"/>
<marker lat="37.766" lon="-122.416" site="San Francisco (California, United States)"/>
<marker lat="40.0" lon="-86.0" site="Indiana (Indiana, United States)"/>
<marker lat="39.0" lon="-75.666" site="Delaware (Delaware, United States)"/>
<marker lat="40.216" lon="-74.733" site="Chambersburg (New Jersey, United States)"/>
<marker lat="37.55" lon="-77.366" site="Henrico (Virginia, United States)"/>
<marker lat="41.783" lon="-69.983" site="Orleans, Ma. (Massachusetts, United States)"/>
<marker lat="34.783" lon="-87.666" site="Florence, Ala. (Alabama, United States)"/>
<marker lat="37.75" lon="-77.366" site="Hanover Court House (Virginia, United States)"/>
<marker lat="37.783" lon="-78.783" site="Nelson (Virginia, United States)"/>
<marker lat="38.166" lon="-79.116" site="Augusta county (Virginia, United States)"/>
<marker lat="41.333" lon="-86.3" site="Plymouth, Marshall County, Indiana (Indiana, United States)"/>
<marker lat="39.366" lon="-79.16" site="New Creek (West Virginia, United States)"/>
<marker lat="42.85" lon="-71.366" site="Londonderry, N. H. (New Hampshire, United States)"/>
<marker lat="36.533" lon="-76.9" site="Chowan River (United States)"/>
<marker lat="32.816" lon="-91.2" site="Lake Providence (Louisiana, United States)"/>
<marker lat="46.0" lon="-94.0" site="Minnesota (Minnesota, United States)"/>
<marker lat="41.5" lon="-100.0" site="Nebraska (Nebraska, United States)"/>
<marker lat="34.466" lon="-87.283" site="Moulton (Alabama, United States)"/>
<marker lat="37.83" lon="-89.15" site="Mound City (Illinois, United States)"/>
<marker lat="34.85" lon="-82.383" site="Greenville (South Carolina, United States)"/>
<marker lat="33.0" lon="-87.0" site="Alabama (Alabama, United States)"/>
<marker lat="30.666" lon="-91.266" site="Port Hudson (Louisiana, United States)"/>
<marker lat="37.35" lon="-75.933" site="Northampton County (Virginia, United States)"/>
<marker lat="36.966" lon="-76.35" site="Hampton Roads (Virginia, United States)"/>
<marker lat="23.183" lon="-106.416" site="Mazatlan (Sinaloa, Mexico)"/>
<marker lat="33.783" lon="-81.916" site="Edgefield, S. C. (South Carolina, United States)"/>
<marker lat="32.216" lon="-80.666" site="Hilton Head (South Carolina, United States)"/>
<marker lat="37.85" lon="-94.85" site="Bourbon County (Kansas, United States)"/>
<marker lat="37.983" lon="-91.6" site="Saint James (Missouri, United States)"/>
<marker lat="43.65" lon="-70.25" site="Portland (Maine, United States)"/>
<marker lat="35.466" lon="-86.83" site="Manchester, Tenn. (Tennessee, United States)"/>
<marker lat="35.483" lon="-86.45" site="Shelbyville, Tenn. (Tennessee, United States)"/>
<marker lat="32.85" lon="-90.4" site="Yazoo City (Mississippi, United States)"/>
<marker lat="43.45" lon="-76.5" site="Oswego (New York, United States)"/>
<marker lat="42.316" lon="-73.6" site="Ghent, N. Y. (New York, United States)"/>
<marker lat="31.566" lon="-90.1" site="Lawrence County (Mississippi, United States)"/>
<marker lat="31.1" lon="-91.283" site="Woodville (Mississippi, United States)"/>
<marker lat="38.683" lon="-79.35" site="Pendleton (West Virginia, United States)"/>
<marker lat="38.8" lon="-77.33" site="Alexandria (Virginia, United States)"/>
<marker lat="36.83" lon="-78.3" site="Louisburg (North Carolina, United States)"/>
<marker lat="30.566" lon="-81.683" site="Nassau River (Florida, United States)"/>
<marker lat="40.833" lon="-76.0" site="Pennsylvania (Pennsylvania, United States)"/>
<marker lat="33.333" lon="-83.35" site="Putnam (Georgia, United States)"/>
<marker lat="37.75" lon="-77.483" site="Hanover County (Virginia, United States)"/>
<marker lat="43.166" lon="-78.683" site="Lockport, N. Y. (New York, United States)"/>
<marker lat="38.833" lon="-76.85" site="Prince Georges (Maryland, United States)"/>
<marker lat="37.333" lon="-77.966" site="Amelia Court House (Virginia, United States)"/>
<marker lat="35.75" lon="-86.916" site="Spring Hill (Tennessee, United States)"/>
<marker lat="41.833" lon="-72.833" site="Connecticut (Connecticut, United States)"/>
<marker lat="37.0" lon="-119.0" site="California (California, United States)"/>
<marker lat="38.9" lon="-77.25" site="Vienna (Virginia, United States)"/>
<marker lat="32.516" lon="-93.75" site="Shreveport (Louisiana, United States)"/>
<marker lat="38.733" lon="-77.816" site="Fauquier (Virginia, United States)"/>
<marker lat="39.466" lon="-76.65" site="Baltimore (Maryland, United States)"/>
<marker lat="41.383" lon="-84.116" site="Napoleon (Ohio, United States)"/>
<marker lat="36.716" lon="-76.583" site="Suffolk, Va. (Virginia, United States)"/>
<marker lat="43.1" lon="-75.216" site="Utica (New York, United States)"/>
<marker lat="42.716" lon="-73.683" site="Troy, N. Y. (New York, United States)"/>
<marker lat="37.16" lon="-76.333" site="Hampton (Virginia, United States)"/>
<marker lat="42.333" lon="-72.583" site="Hampshire County (Massachusetts, United States)"/>
<marker lat="41.75" lon="-72.683" site="Hartford (Connecticut, United States)"/>
<marker lat="36.166" lon="-86.75" site="Edgefield (Tennessee, United States)"/>
<marker lat="39.83" lon="-77.65" site="Loudoun (Virginia, United States)"/>
<marker lat="34.0" lon="-81.33" site="Columbia (South Carolina, United States)"/>
<marker lat="37.383" lon="-77.6" site="Chesterfield (Virginia, United States)"/>
<marker lat="36.66" lon="-79.1" site="Childsburg (North Carolina, United States)"/>
<marker lat="47.0" lon="20.0" site="Hungary (Hungary)"/>
<marker lat="36.45" lon="-94.1" site="Pea Ridge, Ark. (Arkansas, United States)"/>
<marker lat="39.533" lon="-76.83" site="Havre De Grace (Maryland, United States)"/>
<marker lat="37.66" lon="-88.55" site="Tennessee River (United States)"/>
<marker lat="34.883" lon="-88.1" site="Eastport (Mississippi, United States)"/>
<marker lat="38.8" lon="-80.616" site="Dutch (West Virginia, United States)"/>
<marker lat="46.0" lon="2.0" site="France (France)"/>
<marker lat="36.4" lon="-79.35" site="Caswell (North Carolina, United States)"/>
<marker lat="47.333" lon="13.333" site="Austria (Austria)"/>
<marker lat="36.833" lon="-81.5" site="Marion (Virginia, United States)"/>
<marker lat="37.4" lon="-78.816" site="Appomattox (Virginia, United States)"/>
<marker lat="39.316" lon="-82.966" site="Chillicothe (Ohio, United States)"/>
<marker lat="37.8" lon="-79.433" site="Rockbridge (Virginia, United States)"/>
<marker lat="36.8" lon="-84.866" site="Monticello (Kentucky, United States)"/>
<marker lat="39.266" lon="-77.633" site="Quarter Branch (Virginia, United States)"/>
<marker lat="39.3" lon="-77.85" site="Jefferson (West Virginia, United States)"/>
<marker lat="39.116" lon="-77.966" site="Clarke (Virginia, United States)"/>
</markers>