<markers>
<marker lat="38.0" lon="-98.0" site="United States (United States)"/>
<marker lat="27.0" lon="30.0" site="Egypt (Egypt)"/>
<marker lat="53.0" lon="-2.0" site="England (United Kingdom)"/>
<marker lat="46.0" lon="2.0" site="France (France)"/>
<marker lat="35.0" lon="105.0" site="China (China)"/>
<marker lat="51.5" lon="-0.166" site="London (United Kingdom)"/>
<marker lat="48.866" lon="2.333" site="Department de Ville de Paris (France)"/>
<marker lat="34.25" lon="-85.15" site="Rome, Ga. (Georgia, United States)"/>
<marker lat="40.0" lon="-4.0" site="Spain (Spain)"/>
<marker lat="25.683" lon="32.666" site="Thebes (Egypt)"/>
<marker lat="51.5" lon="10.5" site="Germany (Germany)"/>
<marker lat="42.833" lon="12.833" site="Italy (Italy)"/>
<marker lat="52.5" lon="5.75" site="Holland (Netherlands)"/>
<marker lat="57.0" lon="-4.0" site="Scotland (United Kingdom)"/>
<marker lat="60.0" lon="47.0" site="Russia (Russia)"/>
<marker lat="39.0" lon="22.0" site="Greece (Greece)"/>
<marker lat="45.433" lon="12.333" site="Venice (Italy)"/>
<marker lat="31.2" lon="29.9" site="Alexandrie (Egypt)"/>
<marker lat="39.0" lon="35.0" site="Turquie (Turkey)"/>
<marker lat="42.25" lon="-71.8" site="Worcester (Massachusetts, United States)"/>
<marker lat="36.0" lon="138.0" site="Japan (Japan)"/>
<marker lat="32.0" lon="53.0" site="Persia (Iran)"/>
<marker lat="35.0" lon="38.0" site="Syria (Syria)"/>
<marker lat="51.45" lon="5.983" site="America (Netherlands)"/>
<marker lat="60.0" lon="-96.0" site="Canada (Canada)"/>
<marker lat="62.0" lon="15.0" site="Sweden (Sweden)"/>
<marker lat="50.483" lon="-4.666" site="Cornwall (United Kingdom)"/>
<marker lat="50.833" lon="4.333" site="Brussels (Belgium)"/>
<marker lat="-10.0" lon="-55.0" site="Brazil (Brazil)"/>
<marker lat="25.0" lon="45.0" site="Arabia"/>
<marker lat="41.33" lon="28.95" site="Constantinople (Turkey)"/>
<marker lat="52.5" lon="-1.833" site="Birmingham (United Kingdom)"/>
<marker lat="19.416" lon="-99.166" site="Mexico (Mexico, Mexico)"/>
<marker lat="37.5" lon="14.0" site="Sicily (Italy)"/>
<marker lat="40.75" lon="14.483" site="Pompeii (Italy)"/>
<marker lat="49.45" lon="11.66" site="Nuremberg (Bavaria, Germany)"/>
<marker lat="37.883" lon="-4.766" site="Cordoba (Spain)"/>
<marker lat="53.416" lon="-3.0" site="Liverpool (United Kingdom)"/>
<marker lat="55.883" lon="-4.25" site="Glasgow (United Kingdom)"/>
<marker lat="37.0" lon="-119.0" site="California (California, United States)"/>
<marker lat="47.333" lon="13.333" site="Austria (Austria)"/>
<marker lat="47.16" lon="7.116" site="Ins (Switzerland)"/>
<marker lat="52.516" lon="-3.5" site="Cambria (United Kingdom)"/>
<marker lat="53.5" lon="-2.216" site="Manchester (United Kingdom)"/>
<marker lat="35.533" lon="-96.216" site="Oriental (Oklahoma, United States)"/>
<marker lat="56.0" lon="10.0" site="Denmark (Denmark)"/>
<marker lat="15.0" lon="42.0" site="Red Sea"/>
<marker lat="43.3" lon="5.366" site="Marseilles (France)"/>
<marker lat="47.0" lon="8.0" site="Switzerland (Switzerland)"/>
<marker lat="34.183" lon="-79.75" site="Florence, S. C. (South Carolina, United States)"/>
<marker lat="39.0" lon="-78.15" site="Nineveh (Virginia, United States)"/>
<marker lat="-25.0" lon="135.0" site="Australia (Australia)"/>
<marker lat="50.833" lon="4.0" site="Belgium (Belgium)"/>
<marker lat="36.5" lon="-88.0" site="Fort Henry (Tennessee, United States)"/>
<marker lat="40.433" lon="-79.983" site="Pittsburgh (Pennsylvania, United States)"/>
<marker lat="40.833" lon="14.25" site="Naples (Italy)"/>
<marker lat="43.233" lon="-88.183" site="Bark (Wisconsin, United States)"/>
<marker lat="40.8" lon="14.35" site="Herculaneum (Italy)"/>
<marker lat="52.833" lon="10.0" site="Saxony (Saxony, Germany)"/>
<marker lat="39.883" lon="-83.433" site="London, Madison County, Ohio (Ohio, United States)"/>
<marker lat="51.383" lon="-2.366" site="Aquae Sulis (United Kingdom)"/>
<marker lat="40.833" lon="-76.0" site="Pennsylvania (Pennsylvania, United States)"/>
<marker lat="40.2" lon="-93.116" site="Milan, Sullivan County, Missouri (Missouri, United States)"/>
<marker lat="-10.0" lon="-76.0" site="Peru (Peru)"/>
<marker lat="42.883" lon="-78.866" site="Buffalo, N. Y. (New York, United States)"/>
<marker lat="40.716" lon="-74.66" site="Hudson (New Jersey, United States)"/>
<marker lat="42.716" lon="-73.683" site="Troy, N. Y. (New York, United States)"/>
<marker lat="62.0" lon="10.0" site="Norway (Norway)"/>
<marker lat="37.216" lon="-89.45" site="Thebes (Illinois, United States)"/>
<marker lat="39.233" lon="-115.5" site="Babylon (Nevada, United States)"/>
<marker lat="43.33" lon="-76.133" site="Syracuse (New York, United States)"/>
<marker lat="47.0" lon="20.0" site="Hungary (Hungary)"/>
<marker lat="40.683" lon="-73.966" site="Brooklyn (New York, United States)"/>
<marker lat="39.5" lon="-8.0" site="Portugal (Portugal)"/>
<marker lat="51.45" lon="-2.583" site="Bristol (United Kingdom)"/>
<marker lat="33.1" lon="-79.9" site="Saw Mill (South Carolina, United States)"/>
<marker lat="41.883" lon="12.5" site="Roma (Italy)"/>
<marker lat="40.0" lon="-80.833" site="Ohio (Ohio, United States)"/>
<marker lat="38.9" lon="-77.25" site="Vienna (Virginia, United States)"/>
<marker lat="35.0" lon="33.0" site="Cyprus"/>
<marker lat="48.133" lon="11.583" site="Munich (Bavaria, Germany)"/>
<marker lat="20.0" lon="77.0" site="India (India)"/>
<marker lat="39.283" lon="-76.6" site="Baltimore, Md. (Maryland, United States)"/>
<marker lat="40.0" lon="-75.0" site="New Jersey (New Jersey, United States)"/>
<marker lat="39.916" lon="116.433" site="Peking (China)"/>
<marker lat="47.2" lon="-102.333" site="London Bridge (North Dakota, United States)"/>
<marker lat="45.766" lon="4.833" site="Lyons (France)"/>
<marker lat="42.633" lon="-76.1" site="East River (New York, United States)"/>
<marker lat="35.133" lon="-90.33" site="Memphis (Tennessee, United States)"/>
<marker lat="39.183" lon="-78.15" site="Winchester, Va. (Virginia, United States)"/>
<marker lat="53.966" lon="-1.83" site="York (United Kingdom)"/>
<marker lat="32.83" lon="-81.1" site="Savannah (Georgia, United States)"/>
<marker lat="47.6" lon="1.333" site="Blois (France)"/>
<marker lat="34.8" lon="-86.966" site="Athens, Ala. (Alabama, United States)"/>
<marker lat="43.183" lon="-84.6" site="Pompeii (Michigan, United States)"/>
<marker lat="37.33" lon="-89.183" site="Cairo, Ill. (Illinois, United States)"/>
<marker lat="59.883" lon="30.25" site="St. Petersburg (Russia)"/>
<marker lat="41.85" lon="-87.65" site="Chicago (Illinois, United States)"/>
<marker lat="34.933" lon="-88.516" site="Corinth (Mississippi, United States)"/>
<marker lat="31.966" lon="-81.183" site="Grove River (Georgia, United States)"/>
<marker lat="42.25" lon="-71.833" site="Massachusetts (Massachusetts, United States)"/>
<marker lat="43.65" lon="-70.25" site="Portland (Maine, United States)"/>
<marker lat="38.0" lon="23.733" site="Athens (Greece)"/>
<marker lat="48.5" lon="11.5" site="Bavaria (Bavaria, Germany)"/>
<marker lat="32.55" lon="44.4" site="Babylon (Iraq)"/>
<marker lat="53.383" lon="-1.5" site="Sheffield (United Kingdom)"/>
<marker lat="43.416" lon="11.0" site="Tuscany (Italy)"/>
<marker lat="51.483" lon="0.66" site="Woolwich (United Kingdom)"/>
<marker lat="37.766" lon="-122.416" site="San Francisco (California, United States)"/>
<marker lat="25.333" lon="83.0" site="Benares (Uttar Pradesh, India)"/>
<marker lat="52.883" lon="-2.33" site="Staffordshire (United Kingdom)"/>
<marker lat="24.83" lon="32.933" site="Syene (Egypt)"/>
<marker lat="41.566" lon="-77.233" site="Plank (Pennsylvania, United States)"/>
<marker lat="31.0" lon="-92.0" site="Louisiana (Louisiana, United States)"/>
<marker lat="42.983" lon="-76.8" site="Tyre, New York (New York, United States)"/>
<marker lat="-42.0" lon="174.0" site="New Zealand (New Zealand)"/>
<marker lat="51.133" lon="1.316" site="Dubris (United Kingdom)"/>
<marker lat="38.2" lon="-84.25" site="Paris, Ky. (Kentucky, United States)"/>
<marker lat="36.833" lon="3.0" site="Algiers (Algeria)"/>
<marker lat="38.883" lon="-77.33" site="Washington (United States)"/>
<marker lat="55.716" lon="12.566" site="Copenhagen (Denmark)"/>
<marker lat="45.5" lon="-73.6" site="Montreal (Canada)"/>
<marker lat="41.15" lon="-81.35" site="Franklin Mills, Portage County, Ohio (Ohio, United States)"/>
<marker lat="48.216" lon="16.366" site="Vienna (Wien, Austria)"/>
<marker lat="40.733" lon="-74.16" site="Hoboken (New Jersey, United States)"/>
<marker lat="47.55" lon="-99.4" site="Cathay (North Dakota, United States)"/>
<marker lat="-43.0" lon="147.0" site="Tasmania (Tasmania, Australia)"/>
<marker lat="40.75" lon="-86.66" site="Peru, Ind. (Indiana, United States)"/>
<marker lat="40.0" lon="-115.0" site="Nevada (Nevada, United States)"/>
<marker lat="50.383" lon="-4.166" site="Plymouth (United Kingdom)"/>
<marker lat="43.0" lon="-84.366" site="Ovid (Michigan, United States)"/>
<marker lat="32.9" lon="13.183" site="Tripoli (Libya)"/>
<marker lat="50.733" lon="-3.816" site="Devonshire (United Kingdom)"/>
<marker lat="52.35" lon="4.9" site="Amsterdam (Netherlands)"/>
<marker lat="42.866" lon="-76.966" site="Geneva, N. Y. (New York, United States)"/>
<marker lat="22.5" lon="88.333" site="Calcutta (West Bengal, India)"/>
<marker lat="49.25" lon="4.33" site="Rheims (France)"/>
<marker lat="53.333" lon="-6.25" site="Dublin (Irish Republic)"/>
<marker lat="47.383" lon="0.7" site="Turones (France)"/>
<marker lat="38.983" lon="-78.35" site="Strasburg, Va. (Virginia, United States)"/>
<marker lat="49.633" lon="-1.616" site="Cherbourg (France)"/>
<marker lat="10.0" lon="-80.0" site="Central America"/>
<marker lat="38.433" lon="-85.166" site="New Castle, Ky. (Kentucky, United States)"/>
<marker lat="40.683" lon="-73.8" site="Jamaica, L. I. (New York, United States)"/>
<marker lat="47.233" lon="-1.583" site="Nantes (France)"/>
<marker lat="52.0" lon="20.0" site="Poland (Poland)"/>
<marker lat="42.633" lon="-76.166" site="Homer, N. Y. (New York, United States)"/>
<marker lat="37.4" lon="-5.983" site="Seville (Spain)"/>
<marker lat="1.0" lon="-40.0" site="Atlantic Ocean"/>
<marker lat="53.16" lon="-1.533" site="Derbyshire (United Kingdom)"/>
<marker lat="49.433" lon="1.83" site="Rouen (France)"/>
<marker lat="52.966" lon="-1.166" site="Nottingham (United Kingdom)"/>
<marker lat="56.116" lon="-3.95" site="Stirling (United Kingdom)"/>
<marker lat="43.2" lon="-75.45" site="Fort Stanwix (New York, United States)"/>
<marker lat="8.0" lon="39.0" site="Ethiopia (Ethiopia)"/>
<marker lat="40.0" lon="-89.0" site="Illinois (Illinois, United States)"/>
<marker lat="39.833" lon="-75.35" site="Chester, Pa. (Pennsylvania, United States)"/>
<marker lat="51.333" lon="12.416" site="Leipzig (Saxony, Germany)"/>
<marker lat="22.0" lon="98.0" site="Burma (Myanmar)"/>
<marker lat="14.0" lon="-13.0" site="Oriental (Senegal)"/>
<marker lat="1.283" lon="103.85" site="Singapore (Singapore)"/>
<marker lat="25.716" lon="32.65" site="Karnak (Egypt)"/>
<marker lat="30.0" lon="-100.0" site="Texas (Texas, United States)"/>
<marker lat="18.933" lon="72.85" site="Bombay (Maharashtra, India)"/>
<marker lat="52.133" lon="11.616" site="Magdeburg (Saxony-Anhalt, Germany)"/>
<marker lat="25.583" lon="53.83" site="Arabian Gulf"/>
<marker lat="40.766" lon="-74.216" site="Orange, N. J. (New Jersey, United States)"/>
<marker lat="40.866" lon="-73.9" site="Harlem River (New York, United States)"/>
<marker lat="36.133" lon="-5.35" site="Gibraltar"/>
<marker lat="39.0" lon="-76.833" site="Maryland (Maryland, United States)"/>
<marker lat="52.916" lon="-1.5" site="Derby (United Kingdom)"/>
<marker lat="35.83" lon="-88.3" site="Hamburg, Tenn. (Tennessee, United States)"/>
<marker lat="30.6" lon="-81.45" site="Amelia Island (Florida, United States)"/>
<marker lat="27.766" lon="-82.666" site="Saint Petersburg (Florida, United States)"/>
<marker lat="37.216" lon="-77.4" site="Petersburg, Va. (Virginia, United States)"/>
<marker lat="41.816" lon="-71.4" site="Providence, R. I. (Rhode Island, United States)"/>
<marker lat="34.766" lon="-84.966" site="Dalton, Ga. (Georgia, United States)"/>
<marker lat="18.25" lon="-77.5" site="Jamaica (Jamaica)"/>
<marker lat="30.1" lon="31.333" site="Heliopolis (Egypt)"/>
<marker lat="39.566" lon="-76.983" site="Westminster (Maryland, United States)"/>
<marker lat="42.35" lon="-72.283" site="Greenwich, Mass. (Massachusetts, United States)"/>
<marker lat="48.35" lon="10.9" site="Augsburg (Bavaria, Germany)"/>
<marker lat="42.266" lon="-74.9" site="Delhi, N. Y. (New York, United States)"/>
<marker lat="38.8" lon="-80.616" site="Dutch (West Virginia, United States)"/>
<marker lat="41.133" lon="-73.25" site="Fairfield, Conn. (Connecticut, United States)"/>
<marker lat="37.166" lon="-3.666" site="Granada (Spain)"/>
<marker lat="43.0" lon="-75.0" site="New York State (New York, United States)"/>
<marker lat="44.5" lon="11.333" site="Bologna (Italy)"/>
<marker lat="45.666" lon="9.5" site="Lombardy (Italy)"/>
<marker lat="48.866" lon="2.333" site="Paris (France)"/>
<marker lat="51.583" lon="0.55" site="Essex (United Kingdom)"/>
<marker lat="53.7" lon="-2.666" site="Lancaster (United Kingdom)"/>
<marker lat="40.0" lon="9.0" site="Sardinia (Italy)"/>
<marker lat="42.3" lon="-93.66" site="Secor (Iowa, United States)"/>
<marker lat="43.15" lon="-77.6" site="Rochester (New York, United States)"/>
<marker lat="13.83" lon="80.3" site="Fort St. George (Tamil Nadu, India)"/>
<marker lat="55.75" lon="37.7" site="Moscow (Russia)"/>
<marker lat="41.83" lon="-82.866" site="Siam (Ohio, United States)"/>
<marker lat="38.8" lon="-77.33" site="Alexandria (Virginia, United States)"/>
<marker lat="32.0" lon="-84.0" site="Georgia (Georgia, United States)"/>
</markers>