<markers>
<marker lat="38.0" lon="-98.0" site="United States (United States)"/>
<marker lat="37.4" lon="-79.133" site="Lynchburg (Virginia, United States)"/>
<marker lat="34.0" lon="-80.0" site="South Carolina (South Carolina, United States)"/>
<marker lat="32.0" lon="-84.0" site="Georgia (Georgia, United States)"/>
<marker lat="35.5" lon="-80.0" site="North Carolina (North Carolina, United States)"/>
<marker lat="35.5" lon="-85.0" site="Tennessee (Tennessee, United States)"/>
<marker lat="39.0" lon="-76.833" site="Maryland (Maryland, United States)"/>
<marker lat="33.0" lon="-87.0" site="Alabama (Alabama, United States)"/>
<marker lat="37.55" lon="-77.45" site="Richmond (Virginia, United States)"/>
<marker lat="31.0" lon="-92.0" site="Louisiana (Louisiana, United States)"/>
<marker lat="39.283" lon="-76.6" site="Baltimore, Md. (Maryland, United States)"/>
<marker lat="40.833" lon="-76.0" site="Pennsylvania (Pennsylvania, United States)"/>
<marker lat="42.25" lon="-71.833" site="Massachusetts (Massachusetts, United States)"/>
<marker lat="37.0" lon="-80.0" site="Virginia (Virginia, United States)"/>
<marker lat="41.483" lon="-82.733" site="Johnson's Island (Ohio, United States)"/>
<marker lat="37.65" lon="-84.95" site="Perryville (Kentucky, United States)"/>
<marker lat="38.0" lon="-98.0" site="Missouri (Missouri, United States)"/>
<marker lat="41.433" lon="-82.7" site="Sandusky, Ohio (Ohio, United States)"/>
<marker lat="38.16" lon="-78.466" site="Charlottesville (Virginia, United States)"/>
<marker lat="37.4" lon="-78.816" site="Appomattox (Virginia, United States)"/>
<marker lat="44.0" lon="-85.0" site="Michigan (Michigan, United States)"/>
<marker lat="35.866" lon="-76.733" site="Plymouth, N. C. (North Carolina, United States)"/>
<marker lat="41.85" lon="-87.65" site="Chicago (Illinois, United States)"/>
<marker lat="38.3" lon="-77.633" site="Chancellorsville (Virginia, United States)"/>
<marker lat="36.833" lon="-76.283" site="Norfolk (Virginia, United States)"/>
<marker lat="39.933" lon="-77.65" site="Chambersburg, Pa. (Pennsylvania, United States)"/>
<marker lat="32.283" lon="-90.183" site="Jackson (Mississippi, United States)"/>
<marker lat="39.45" lon="-77.733" site="Sharpsburg (Maryland, United States)"/>
<marker lat="19.416" lon="-99.166" site="Mexico (Mexico, Mexico)"/>
<marker lat="38.2" lon="-78.883" site="Piedmont, Va. (Virginia, United States)"/>
<marker lat="38.816" lon="-77.516" site="Bull Run, Va. (Virginia, United States)"/>
<marker lat="38.333" lon="-118.183" site="Douglass (Nevada, United States)"/>
<marker lat="35.0" lon="-93.0" site="Arkansas (Arkansas, United States)"/>
<marker lat="45.0" lon="-69.0" site="Maine (Maine, United States)"/>
<marker lat="29.95" lon="-90.66" site="New Orleans (Louisiana, United States)"/>
<marker lat="42.983" lon="-71.45" site="Manchester (New Hampshire, United States)"/>
<marker lat="53.0" lon="-2.0" site="England (United Kingdom)"/>
<marker lat="38.8" lon="-77.33" site="Alexandria (Virginia, United States)"/>
<marker lat="38.883" lon="-77.33" site="Washington (United States)"/>
<marker lat="38.3" lon="-77.45" site="Fredericksburg, Va. (Virginia, United States)"/>
<marker lat="42.333" lon="-76.833" site="Havana, N. Y. (New York, United States)"/>
<marker lat="37.583" lon="-77.3" site="Gaines Mill (Virginia, United States)"/>
<marker lat="33.733" lon="-84.383" site="Atlanta (Georgia, United States)"/>
<marker lat="40.0" lon="-75.0" site="New Jersey (New Jersey, United States)"/>
<marker lat="35.1" lon="-77.33" site="New Bern (North Carolina, United States)"/>
<marker lat="39.16" lon="-78.3" site="Meadow Mills (Virginia, United States)"/>
<marker lat="38.966" lon="-78.4" site="Fishers Hill (Virginia, United States)"/>
<marker lat="37.516" lon="-76.783" site="West Point (Virginia, United States)"/>
<marker lat="60.0" lon="-96.0" site="Canada (Canada)"/>
<marker lat="38.25" lon="-85.75" site="Louisville (Kentucky, United States)"/>
<marker lat="39.566" lon="-76.983" site="Westminster (Maryland, United States)"/>
<marker lat="39.45" lon="-77.95" site="Martinsburg (West Virginia, United States)"/>
<marker lat="38.33" lon="-76.316" site="Point Lookout, Md. (Maryland, United States)"/>
<marker lat="37.3" lon="-79.566" site="Bedford County (Virginia, United States)"/>
<marker lat="37.233" lon="-80.2" site="Roanoke (United States)"/>
<marker lat="29.3" lon="-94.783" site="Galveston (Texas, United States)"/>
<marker lat="37.316" lon="-77.266" site="City Point (Virginia, United States)"/>
<marker lat="37.85" lon="-78.25" site="Rockaway (Virginia, United States)"/>
<marker lat="40.0" lon="-86.0" site="Indiana (Indiana, United States)"/>
<marker lat="40.0" lon="-89.0" site="Illinois (Illinois, United States)"/>
<marker lat="32.83" lon="-81.1" site="Savannah (Georgia, United States)"/>
<marker lat="37.216" lon="-77.4" site="Petersburg, Va. (Virginia, United States)"/>
<marker lat="36.166" lon="-86.75" site="Edgefield (Tennessee, United States)"/>
<marker lat="38.866" lon="-77.1" site="Arlington (Virginia, United States)"/>
<marker lat="35.983" lon="-78.883" site="Durham (North Carolina, United States)"/>
<marker lat="42.466" lon="-83.216" site="Southfield (Michigan, United States)"/>
<marker lat="38.2" lon="-77.583" site="Spottsylvania (Virginia, United States)"/>
<marker lat="42.1" lon="-86.466" site="Newburyport (Michigan, United States)"/>
<marker lat="36.483" lon="-87.85" site="Fort Donelson (Tennessee, United States)"/>
<marker lat="39.183" lon="-78.15" site="Winchester, Va. (Virginia, United States)"/>
<marker lat="37.75" lon="-84.833" site="Harrodsburg (Kentucky, United States)"/>
<marker lat="29.416" lon="-98.483" site="San Antonio (Texas, United States)"/>
<marker lat="38.966" lon="-77.633" site="Aldie (Virginia, United States)"/>
<marker lat="35.3" lon="-75.933" site="Pamlico Sound (North Carolina, United States)"/>
<marker lat="38.983" lon="-78.35" site="Strasburg, Va. (Virginia, United States)"/>
<marker lat="38.733" lon="-77.816" site="Fauquier (Virginia, United States)"/>
<marker lat="37.733" lon="-85.66" site="Mackville (Kentucky, United States)"/>
<marker lat="36.583" lon="-83.666" site="Cumberland Gap (Tennessee, United States)"/>
<marker lat="40.766" lon="-74.216" site="Orange, N. J. (New Jersey, United States)"/>
<marker lat="32.633" lon="-80.83" site="Chaplin Creek (South Carolina, United States)"/>
<marker lat="42.4" lon="-71.116" site="College Hill (Massachusetts, United States)"/>
<marker lat="39.133" lon="-77.416" site="Poolesville (Maryland, United States)"/>
<marker lat="35.833" lon="-86.383" site="Murfreesboro (Tennessee, United States)"/>
<marker lat="37.633" lon="-77.45" site="Yellow Tavern (Virginia, United States)"/>
<marker lat="34.25" lon="-85.15" site="Rome, Ga. (Georgia, United States)"/>
<marker lat="38.66" lon="-78.883" site="Waynesboro, Va. (Virginia, United States)"/>
<marker lat="38.7" lon="-77.783" site="Warrenton (Virginia, United States)"/>
<marker lat="39.466" lon="-76.633" site="Cockeysville (Maryland, United States)"/>
<marker lat="46.216" lon="6.15" site="Geneva (Switzerland)"/>
<marker lat="45.0" lon="-100.0" site="South Dakota (South Dakota, United States)"/>
<marker lat="41.666" lon="-71.5" site="Rhode Island (Rhode Island, United States)"/>
<marker lat="32.366" lon="-86.3" site="Montgomery (Alabama, United States)"/>
<marker lat="39.316" lon="-77.733" site="Harper's Ferry (West Virginia, United States)"/>
<marker lat="37.633" lon="-84.766" site="Danville, Ky. (Kentucky, United States)"/>
<marker lat="38.133" lon="-79.66" site="Staunton, Va. (Virginia, United States)"/>
<marker lat="39.683" lon="-78.166" site="Hancock, Md. (Maryland, United States)"/>
<marker lat="35.583" lon="-79.5" site="Cape Fear (North Carolina, United States)"/>
<marker lat="39.633" lon="-77.716" site="Hagerstown (Maryland, United States)"/>
<marker lat="45.366" lon="10.566" site="Solferino (Italy)"/>
<marker lat="33.466" lon="-82.16" site="Augusta (Georgia, United States)"/>
<marker lat="30.683" lon="-88.33" site="Mobile, Ala. (Alabama, United States)"/>
<marker lat="32.366" lon="-80.683" site="Port Royal (South Carolina, United States)"/>
<marker lat="40.0" lon="-4.0" site="Spain (Spain)"/>
<marker lat="37.616" lon="-79.25" site="Amherst county (Virginia, United States)"/>
<marker lat="39.366" lon="-76.716" site="Pikesville (Maryland, United States)"/>
<marker lat="38.5" lon="-77.883" site="Brandy Station (Virginia, United States)"/>
<marker lat="39.7" lon="-76.65" site="Maryland Line (Maryland, United States)"/>
<marker lat="35.95" lon="-87.366" site="Missionary Ridge, Tenn. (Tennessee, United States)"/>
<marker lat="39.5" lon="-78.966" site="Moorefield (West Virginia, United States)"/>
<marker lat="59.333" lon="18.83" site="Stockholm (Sweden)"/>
<marker lat="38.916" lon="-78.183" site="Front Royal (Virginia, United States)"/>
<marker lat="39.5" lon="-77.65" site="Boonsboro (Maryland, United States)"/>
<marker lat="37.5" lon="-77.3" site="White Oak Swamp (Virginia, United States)"/>
<marker lat="42.83" lon="-76.8" site="Newtown (New York, United States)"/>
<marker lat="30.666" lon="-91.266" site="Port Hudson (Louisiana, United States)"/>
<marker lat="47.233" lon="-95.2" site="Mississippi (United States)"/>
<marker lat="35.983" lon="-86.45" site="Stone River (Tennessee, United States)"/>
<marker lat="35.55" lon="-77.83" site="Pamlico (North Carolina, United States)"/>
<marker lat="32.216" lon="-80.666" site="Hilton Head (South Carolina, United States)"/>
<marker lat="39.266" lon="-81.55" site="Parkersburg (West Virginia, United States)"/>
<marker lat="37.55" lon="-80.183" site="Hanging Rock, Va. (Virginia, United States)"/>
<marker lat="37.85" lon="-79.33" site="Tye River (Virginia, United States)"/>
<marker lat="38.283" lon="-78.8" site="Port Republic (Virginia, United States)"/>
<marker lat="38.233" lon="-78.1" site="Orange Court House (Virginia, United States)"/>
<marker lat="25.0" lon="-90.0" site="Gulf of Mexico"/>
<marker lat="38.833" lon="-77.416" site="Centreville (Virginia, United States)"/>
<marker lat="47.45" lon="9.533" site="Heiden (Switzerland)"/>
<marker lat="36.85" lon="-76.816" site="Zuni (Virginia, United States)"/>
<marker lat="47.5" lon="-92.733" site="Lucknow (Minnesota, United States)"/>
<marker lat="37.3" lon="-77.15" site="Westover (Virginia, United States)"/>
<marker lat="36.83" lon="-78.8" site="Neuse (North Carolina, United States)"/>
<marker lat="35.133" lon="-90.33" site="Memphis (Tennessee, United States)"/>
<marker lat="35.916" lon="-86.866" site="Franklin (Tennessee, United States)"/>
<marker lat="38.466" lon="-77.766" site="Kelly's Ford (Virginia, United States)"/>
<marker lat="42.65" lon="-73.75" site="Albany (New York, United States)"/>
<marker lat="38.483" lon="-78.416" site="Rapidan (Virginia, United States)"/>
<marker lat="42.516" lon="-70.883" site="Salem (Massachusetts, United States)"/>
<marker lat="28.0" lon="-82.0" site="Florida (Florida, United States)"/>
<marker lat="33.66" lon="-83.216" site="Milledgeville (Georgia, United States)"/>
<marker lat="38.33" lon="-84.5" site="Lexington (Kentucky, United States)"/>
<marker lat="6.5" lon="-9.5" site="Liberia (Liberia)"/>
<marker lat="38.33" lon="-77.816" site="Centreville (Virginia, United States)"/>
<marker lat="38.2" lon="-84.866" site="Frankfort (Kentucky, United States)"/>
<marker lat="-2.0" lon="39.75" site="Coast (Kenya)"/>
<marker lat="23.0" lon="-102.0" site="Mexico (Mexico)"/>
<marker lat="37.2" lon="-93.283" site="Springfield, Mo. (Missouri, United States)"/>
<marker lat="37.383" lon="-77.233" site="Malvern Hill (Virginia, United States)"/>
<marker lat="35.95" lon="-83.916" site="Knoxville (Tennessee, United States)"/>
<marker lat="35.6" lon="-88.8" site="Jackson (Tennessee, United States)"/>
<marker lat="34.733" lon="-80.83" site="Chesterfield (South Carolina, United States)"/>
<marker lat="37.266" lon="-85.883" site="Munfordville (Kentucky, United States)"/>
<marker lat="37.16" lon="-76.333" site="Hampton (Virginia, United States)"/>
<marker lat="34.216" lon="-77.933" site="Wilmington, N. C. (North Carolina, United States)"/>
<marker lat="41.383" lon="-73.95" site="West Point (New York, United States)"/>
<marker lat="29.75" lon="-95.35" site="Harrisburg (Texas, United States)"/>
<marker lat="-6.66" lon="12.4" site="Congo River"/>
<marker lat="54.0" lon="-72.0" site="Quebec (Canada)"/>
<marker lat="34.65" lon="-80.166" site="Chesterfield (South Carolina, United States)"/>
<marker lat="34.0" lon="-112.0" site="Arizona (Arizona, United States)"/>
<marker lat="33.433" lon="-86.1" site="Talladega (Alabama, United States)"/>
<marker lat="35.216" lon="-80.833" site="Charlotte (North Carolina, United States)"/>
<marker lat="32.766" lon="-79.916" site="Charleston (South Carolina, United States)"/>
<marker lat="46.0" lon="2.0" site="France (France)"/>
<marker lat="48.866" lon="2.333" site="Department de Ville de Paris (France)"/>
<marker lat="34.233" lon="-80.6" site="Camden, S. C. (South Carolina, United States)"/>
<marker lat="39.83" lon="-77.15" site="Rockville, Md. (Maryland, United States)"/>
<marker lat="42.216" lon="-78.266" site="Cuba, N. Y. (New York, United States)"/>
<marker lat="37.983" lon="-77.966" site="Louisa (Virginia, United States)"/>
<marker lat="37.233" lon="-79.1" site="Campbell (Virginia, United States)"/>
<marker lat="39.583" lon="-75.566" site="Fort Delaware (Delaware, United States)"/>
<marker lat="28.716" lon="-95.883" site="Gulf (Texas, United States)"/>
<marker lat="51.133" lon="16.8" site="Leuthen (Poland)"/>
<marker lat="33.95" lon="-79.5" site="Booth (South Carolina, United States)"/>
<marker lat="37.333" lon="-87.55" site="Hopkins (Kentucky, United States)"/>
<marker lat="37.283" lon="-86.85" site="Seminary Hill (Kentucky, United States)"/>
<marker lat="32.75" lon="-79.883" site="Charleston Harbor (South Carolina, United States)"/>
<marker lat="37.4" lon="-77.3" site="Deep Bottom (Virginia, United States)"/>
<marker lat="47.933" lon="-121.816" site="Chaplain creek (Washington, United States)"/>
<marker lat="33.983" lon="-77.95" site="Sunny Point (North Carolina, United States)"/>
<marker lat="47.55" lon="-99.4" site="Cathay (North Dakota, United States)"/>
<marker lat="38.133" lon="13.383" site="Palermo (Italy)"/>
<marker lat="39.616" lon="-78.216" site="Berkeley Springs (West Virginia, United States)"/>
<marker lat="37.8" lon="-77.4" site="Pamunkey (Virginia, United States)"/>
<marker lat="38.416" lon="-77.466" site="Stafford (Virginia, United States)"/>
<marker lat="38.2" lon="-80.85" site="Mount Nebo (West Virginia, United States)"/>
<marker lat="43.33" lon="-87.9" site="Milwaukee (Wisconsin, United States)"/>
<marker lat="42.633" lon="-76.166" site="Homer, N. Y. (New York, United States)"/>
<marker lat="33.95" lon="-83.366" site="Athens (Georgia, United States)"/>
<marker lat="33.366" lon="-79.283" site="Georgetown, S. C. (South Carolina, United States)"/>
<marker lat="36.666" lon="-78.383" site="Boydton (Virginia, United States)"/>
<marker lat="38.7" lon="-78.716" site="Forestville (Virginia, United States)"/>
<marker lat="39.4" lon="-76.733" site="Green Spring Valley (Maryland, United States)"/>
<marker lat="38.666" lon="-78.566" site="Massanutten Mountain (Virginia, United States)"/>
<marker lat="53.616" lon="-2.15" site="Rochdale (United Kingdom)"/>
<marker lat="31.16" lon="-87.85" site="Vaughn (Alabama, United States)"/>
<marker lat="30.266" lon="-97.733" site="Austin (Texas, United States)"/>
<marker lat="37.883" lon="-4.766" site="Cordoba (Spain)"/>
<marker lat="35.2" lon="-89.416" site="Fayette (Tennessee, United States)"/>
<marker lat="37.816" lon="-79.25" site="South Mountain, Va. (Virginia, United States)"/>
<marker lat="42.216" lon="-78.33" site="Belmont (New York, United States)"/>
</markers>