<markers>
<marker lat="38.325" lon="23.3333" site="Thebes (Greece)"/>
<marker lat="39.0" lon="22.0" site="Greece (Greece)"/>
<marker lat="40.25" lon="22.416" site="Pieria (Greece)"/>
<marker lat="38.683" lon="27.516" site="Lydia (Turkey)"/>
<marker lat="38.4917" lon="22.5167" site="Delphi (Greece)"/>
<marker lat="25.0" lon="45.0" site="Arabia"/>
<marker lat="34.75" lon="32.416" site="Paphos (Cyprus)"/>
<marker lat="40.583" lon="22.833" site="Axius"/>
<marker lat="51.45" lon="6.65" site="Mors (North Rhine-Westphalia, Germany)"/>
<marker lat="37.8667" lon="28.1667" site="Nysa (Turkey)"/>
<marker lat="35.0" lon="33.0" site="Cyprus (Cyprus)"/>
<marker lat="38.475" lon="28.0167" site="Sardis (Turkey)"/>
<marker lat="33.55" lon="35.366" site="Sidon (Lebanon)"/>
</markers>