<markers>
<marker lat="19.416" lon="-99.166" site="Mexico (Mexico, Mexico)"/>
<marker lat="38.0" lon="-98.0" site="United States (United States)"/>
<marker lat="53.5" lon="-2.216" site="Manchester (United Kingdom)"/>
<marker lat="37.55" lon="-77.45" site="Richmond (Virginia, United States)"/>
<marker lat="39.516" lon="-87.116" site="Brazil, Clay County, Indiana (Indiana, United States)"/>
<marker lat="38.0" lon="-98.0" site="Missouri (Missouri, United States)"/>
<marker lat="39.216" lon="-119.666" site="Mound House (Nevada, United States)"/>
<marker lat="57.0" lon="-4.0" site="Scotland (United Kingdom)"/>
<marker lat="39.0" lon="-105.0" site="Colorado (Colorado, United States)"/>
<marker lat="39.0" lon="-76.833" site="Maryland (Maryland, United States)"/>
<marker lat="36.983" lon="-89.133" site="Ohio (United States)"/>
<marker lat="41.116" lon="-78.733" site="Shaffer (Pennsylvania, United States)"/>
<marker lat="31.0" lon="-92.0" site="Louisiana (Louisiana, United States)"/>
<marker lat="35.5" lon="-80.0" site="North Carolina (North Carolina, United States)"/>
<marker lat="34.0" lon="-80.0" site="South Carolina (South Carolina, United States)"/>
<marker lat="40.833" lon="-76.0" site="Pennsylvania (Pennsylvania, United States)"/>
<marker lat="37.55" lon="-77.366" site="Henrico (Virginia, United States)"/>
<marker lat="37.0" lon="-119.0" site="California (California, United States)"/>
<marker lat="23.0" lon="-102.0" site="Mexico (Mexico)"/>
<marker lat="35.5" lon="-85.0" site="Tennessee (Tennessee, United States)"/>
<marker lat="39.55" lon="-95.116" site="Atchison, Kan. (Kansas, United States)"/>
<marker lat="39.733" lon="-104.983" site="Denver (Colorado, United States)"/>
<marker lat="46.0" lon="2.0" site="France (France)"/>
<marker lat="35.183" lon="-87.16" site="Pulaski, Tenn. (Tennessee, United States)"/>
<marker lat="33.733" lon="-84.383" site="Atlanta (Georgia, United States)"/>
<marker lat="35.633" lon="-87.66" site="Maury (Tennessee, United States)"/>
<marker lat="33.0" lon="-87.0" site="Alabama (Alabama, United States)"/>
<marker lat="37.366" lon="-77.5" site="Chesterfield (Virginia, United States)"/>
<marker lat="43.916" lon="-90.266" site="Camp Douglas (Wisconsin, United States)"/>
<marker lat="-8.1" lon="-34.883" site="Recife (Pernambuco, Brazil)"/>
<marker lat="39.266" lon="-81.55" site="Parkersburg (West Virginia, United States)"/>
<marker lat="-25.0" lon="-58.0" site="Paraguay"/>
<marker lat="40.433" lon="-93.566" site="Mercer (Missouri, United States)"/>
<marker lat="34.116" lon="-92.4" site="Saline River (Arkansas, United States)"/>
<marker lat="42.783" lon="-81.2" site="Saint Thomas (Canada)"/>
<marker lat="36.833" lon="-86.883" site="Russellville (Kentucky, United States)"/>
<marker lat="43.2" lon="-75.45" site="Fort Stanwix (New York, United States)"/>
<marker lat="46.383" lon="-90.733" site="High Bridge (Wisconsin, United States)"/>
<marker lat="35.133" lon="-90.33" site="Memphis (Tennessee, United States)"/>
<marker lat="44.45" lon="-68.7" site="Penobscot (Maine, United States)"/>
<marker lat="53.0" lon="-2.0" site="England (United Kingdom)"/>
<marker lat="37.683" lon="-77.83" site="King William County (Virginia, United States)"/>
<marker lat="38.666" lon="-98.0" site="Kansas (Kansas, United States)"/>
<marker lat="40.0" lon="-89.0" site="Illinois (Illinois, United States)"/>
<marker lat="32.0" lon="-84.0" site="Georgia (Georgia, United States)"/>
<marker lat="38.616" lon="-90.183" site="St. Louis (Missouri, United States)"/>
<marker lat="37.783" lon="-79.433" site="Lexington, Va. (Virginia, United States)"/>
<marker lat="38.33" lon="-84.733" site="Woodford (Kentucky, United States)"/>
<marker lat="32.366" lon="-86.3" site="Montgomery (Alabama, United States)"/>
<marker lat="38.733" lon="-9.133" site="Lisbon (Portugal)"/>
<marker lat="-11.0" lon="-42.0" site="Bahia (Bahia, Brazil)"/>
<marker lat="22.5" lon="-100.5" site="San Luis Potosi (San Luis Potosi, Mexico)"/>
<marker lat="44.0" lon="-73.0" site="Vermont (Vermont, United States)"/>
<marker lat="43.183" lon="-78.5" site="Clarendon (New York, United States)"/>
<marker lat="44.833" lon="-0.566" site="Bordeaux (France)"/>
<marker lat="39.95" lon="-76.716" site="York, Pa. (Pennsylvania, United States)"/>
<marker lat="37.383" lon="-77.6" site="Chesterfield (Virginia, United States)"/>
<marker lat="34.716" lon="-86.583" site="Huntsville (Alabama, United States)"/>
<marker lat="43.0" lon="-88.216" site="Waukesha, Waukesha County, Wisconsin (Wisconsin, United States)"/>
<marker lat="37.2" lon="-78.45" site="Prince Edward (Virginia, United States)"/>
</markers>