<markers>
<marker lat="36.533" lon="-82.55" site="Kingsport (Tennessee, United States)"/>
<marker lat="35.5" lon="-85.0" site="Tennessee (Tennessee, United States)"/>
<marker lat="46.0" lon="2.0" site="France (France)"/>
<marker lat="38.0" lon="-98.0" site="United States (United States)"/>
<marker lat="33.733" lon="-84.383" site="Atlanta (Georgia, United States)"/>
<marker lat="32.0" lon="-84.0" site="Georgia (Georgia, United States)"/>
<marker lat="36.366" lon="-82.283" site="Carter's Depot (Tennessee, United States)"/>
<marker lat="19.416" lon="-99.166" site="Mexico (Mexico, Mexico)"/>
<marker lat="38.33" lon="-77.35" site="Caroline (Virginia, United States)"/>
<marker lat="37.66" lon="-88.55" site="Tennessee River (United States)"/>
<marker lat="36.466" lon="-82.25" site="Zollicoffer (Tennessee, United States)"/>
<marker lat="38.483" lon="-78.416" site="Rapidan (Virginia, United States)"/>
<marker lat="34.766" lon="-84.966" site="Dalton, Ga. (Georgia, United States)"/>
<marker lat="36.283" lon="-82.466" site="Jonesboro (Tennessee, United States)"/>
<marker lat="36.83" lon="-83.466" site="Mossy Creek (Tennessee, United States)"/>
<marker lat="36.516" lon="-82.533" site="Sullivan (Tennessee, United States)"/>
<marker lat="33.95" lon="-84.55" site="Marietta (Georgia, United States)"/>
<marker lat="32.7" lon="-79.883" site="Morris Island (South Carolina, United States)"/>
<marker lat="36.15" lon="-82.816" site="Greenville, Tenn. (Tennessee, United States)"/>
<marker lat="36.3" lon="-82.133" site="Carter County (Tennessee, United States)"/>
<marker lat="38.433" lon="-77.9" site="Stevensburg (Virginia, United States)"/>
<marker lat="25.0" lon="-90.0" site="Gulf of Mexico"/>
<marker lat="38.216" lon="-78.216" site="Liberty Mills (Virginia, United States)"/>
<marker lat="35.283" lon="-84.75" site="Charleston, Tenn. (Tennessee, United States)"/>
<marker lat="36.383" lon="-88.783" site="Camp Ground (Tennessee, United States)"/>
<marker lat="33.666" lon="-84.433" site="South River, Ga. (Georgia, United States)"/>
<marker lat="38.3" lon="-77.45" site="Fredericksburg, Va. (Virginia, United States)"/>
<marker lat="40.25" lon="-82.33" site="Tunnell Hill (Ohio, United States)"/>
<marker lat="36.466" lon="-89.466" site="Island Number Ten (Missouri, United States)"/>
<marker lat="41.583" lon="-109.2" site="Rock Springs (Wyoming, United States)"/>
<marker lat="35.95" lon="-83.916" site="Knoxville (Tennessee, United States)"/>
<marker lat="37.16" lon="-76.333" site="Hampton (Virginia, United States)"/>
<marker lat="37.0" lon="-80.0" site="Virginia (Virginia, United States)"/>
<marker lat="34.716" lon="-86.583" site="Huntsville (Alabama, United States)"/>
<marker lat="35.483" lon="-84.866" site="Cottonport (Tennessee, United States)"/>
<marker lat="35.216" lon="-80.833" site="Charlotte (North Carolina, United States)"/>
<marker lat="47.333" lon="13.333" site="Austria (Austria)"/>
<marker lat="40.0" lon="-4.0" site="Spain (Spain)"/>
<marker lat="37.733" lon="-77.916" site="Goochland (Virginia, United States)"/>
</markers>