<markers>
<marker lat="42.766" lon="-71.66" site="Haverhill (Massachusetts, United States)"/>
<marker lat="42.85" lon="-70.916" site="Amesbury (Massachusetts, United States)"/>
<marker lat="37.766" lon="-91.0" site="Quaker (Missouri, United States)"/>
<marker lat="42.25" lon="-71.833" site="Massachusetts (Massachusetts, United States)"/>
<marker lat="40.833" lon="-76.0" site="Pennsylvania (Pennsylvania, United States)"/>
<marker lat="41.75" lon="-72.683" site="Hartford (Connecticut, United States)"/>
<marker lat="42.233" lon="-71.83" site="Milton, Mass. (Massachusetts, United States)"/>
<marker lat="42.633" lon="-71.316" site="Lowell (Massachusetts, United States)"/>
<marker lat="38.0" lon="-98.0" site="United States (United States)"/>
<marker lat="42.45" lon="-71.35" site="Concord (Massachusetts, United States)"/>
<marker lat="41.483" lon="-71.3" site="Newport (Rhode Island, United States)"/>
<marker lat="42.516" lon="-70.883" site="Salem (Massachusetts, United States)"/>
<marker lat="42.8" lon="-70.866" site="Newburyport (Massachusetts, United States)"/>
<marker lat="45.0" lon="-69.0" site="Maine (Maine, United States)"/>
<marker lat="44.0" lon="-71.666" site="New Hampshire (New Hampshire, United States)"/>
<marker lat="42.566" lon="-70.916" site="Danvers (Massachusetts, United States)"/>
<marker lat="34.0" lon="-80.0" site="South Carolina (South Carolina, United States)"/>
<marker lat="42.666" lon="-70.833" site="Essex County (Massachusetts, United States)"/>
<marker lat="42.866" lon="-73.183" site="Bennington, Vt. (Vermont, United States)"/>
<marker lat="39.283" lon="-76.6" site="Baltimore, Md. (Maryland, United States)"/>
<marker lat="35.666" lon="-80.466" site="Salisbury, N. C. (North Carolina, United States)"/>
<marker lat="39.15" lon="-82.483" site="Puritan (Ohio, United States)"/>
<marker lat="42.766" lon="-70.883" site="Newbury, Mass. (Massachusetts, United States)"/>
<marker lat="43.66" lon="-70.75" site="Portsmouth (New Hampshire, United States)"/>
<marker lat="38.666" lon="-98.0" site="Kansas (Kansas, United States)"/>
<marker lat="42.716" lon="-70.983" site="Georgetown, Mass. (Massachusetts, United States)"/>
<marker lat="42.25" lon="-71.8" site="Worcester (Massachusetts, United States)"/>
<marker lat="42.833" lon="-70.85" site="Salisbury, Mass. (Massachusetts, United States)"/>
<marker lat="42.833" lon="12.833" site="Italy (Italy)"/>
<marker lat="44.66" lon="-71.133" site="Intervale, N.H. (New Hampshire, United States)"/>
<marker lat="41.5" lon="-100.0" site="Nebraska (Nebraska, United States)"/>
<marker lat="40.0" lon="-75.0" site="New Jersey (New Jersey, United States)"/>
<marker lat="33.983" lon="-82.633" site="Huguenot (Georgia, United States)"/>
<marker lat="42.35" lon="-71.5" site="Boston (Massachusetts, United States)"/>
<marker lat="42.9" lon="-70.85" site="Hampton Falls, N. H. (New Hampshire, United States)"/>
<marker lat="56.4" lon="-3.433" site="Perth (United Kingdom)"/>
<marker lat="40.66" lon="-74.85" site="Burlington (New Jersey, United States)"/>
<marker lat="13.166" lon="-59.533" site="Barbados (Barbados)"/>
<marker lat="44.983" lon="-66.983" site="Deer Island (Canada)"/>
<marker lat="45.583" lon="-69.7" site="Kennebec (Maine, United States)"/>
<marker lat="43.65" lon="-70.25" site="Portland (Maine, United States)"/>
<marker lat="42.45" lon="-71.66" site="Melrose (Massachusetts, United States)"/>
<marker lat="57.0" lon="-4.0" site="Scotland (United Kingdom)"/>
<marker lat="60.0" lon="-96.0" site="Canada (Canada)"/>
<marker lat="43.75" lon="-71.683" site="Plymouth, N. H. (New Hampshire, United States)"/>
<marker lat="45.5" lon="-68.75" site="Oak Knoll (Maine, United States)"/>
<marker lat="40.833" lon="14.25" site="Naples (Italy)"/>
<marker lat="42.933" lon="-71.116" site="Powow River (United States)"/>
<marker lat="44.0" lon="-73.0" site="Vermont (Vermont, United States)"/>
<marker lat="37.16" lon="-76.333" site="Hampton (Virginia, United States)"/>
<marker lat="43.83" lon="-70.733" site="Kittery (Maine, United States)"/>
<marker lat="50.9" lon="-1.4" site="Southampton (United Kingdom)"/>
<marker lat="51.5" lon="-0.166" site="St. Margaret's church (United Kingdom)"/>
<marker lat="42.666" lon="-70.833" site="Ipswich, Mass. (Massachusetts, United States)"/>
<marker lat="54.0" lon="-72.0" site="Quebec (Canada)"/>
<marker lat="41.85" lon="-87.65" site="Chicago (Illinois, United States)"/>
<marker lat="39.83" lon="-84.5" site="Covington (Kentucky, United States)"/>
<marker lat="46.0" lon="2.0" site="France (France)"/>
<marker lat="42.65" lon="-71.16" site="East Parish (Massachusetts, United States)"/>
<marker lat="43.866" lon="-71.55" site="Bearcamp River (New Hampshire, United States)"/>
<marker lat="47.283" lon="-121.3" site="Whittier (Washington, United States)"/>
<marker lat="35.216" lon="-88.516" site="Purdy (Tennessee, United States)"/>
<marker lat="39.55" lon="-103.35" site="Shaw (Colorado, United States)"/>
<marker lat="42.466" lon="-70.95" site="Lynn (Massachusetts, United States)"/>
<marker lat="39.0" lon="-76.833" site="Maryland (Maryland, United States)"/>
<marker lat="43.0" lon="-75.0" site="New York State (New York, United States)"/>
<marker lat="39.516" lon="-87.116" site="Brazil, Clay County, Indiana (Indiana, United States)"/>
<marker lat="42.983" lon="-70.6" site="Appledore Island (Maine, United States)"/>
<marker lat="37.5" lon="-91.316" site="Meramec (Missouri, United States)"/>
<marker lat="42.933" lon="-70.833" site="Hampton, N. H. (New Hampshire, United States)"/>
<marker lat="42.66" lon="-72.216" site="Wales (Massachusetts, United States)"/>
<marker lat="51.66" lon="-1.25" site="Hampshire (United Kingdom)"/>
<marker lat="39.416" lon="-93.116" site="Brunswick, Mo. (Missouri, United States)"/>
<marker lat="39.95" lon="-80.366" site="Time (Pennsylvania, United States)"/>
<marker lat="42.816" lon="-71.0" site="Merrimac (Massachusetts, United States)"/>
<marker lat="55.95" lon="-3.216" site="Edinburgh (United Kingdom)"/>
<marker lat="42.65" lon="-73.75" site="Albany (New York, United States)"/>
<marker lat="33.666" lon="-84.433" site="South River, Ga. (Georgia, United States)"/>
<marker lat="43.216" lon="-70.683" site="Mt. Agamenticus (Maine, United States)"/>
<marker lat="43.233" lon="-70.766" site="Agamenticus (Maine, United States)"/>
<marker lat="46.216" lon="6.15" site="Geneva (Switzerland)"/>
<marker lat="38.33" lon="-84.5" site="Lexington (Kentucky, United States)"/>
<marker lat="31.5" lon="34.75" site="Israel (Israel)"/>
<marker lat="35.0" lon="105.0" site="China (China)"/>
<marker lat="40.25" lon="-76.25" site="Lancaster County (Pennsylvania, United States)"/>
<marker lat="38.966" lon="-92.633" site="Elliot (Missouri, United States)"/>
<marker lat="39.95" lon="-75.15" site="Philadelphia (Pennsylvania, United States)"/>
<marker lat="40.433" lon="-79.983" site="Pittsburgh (Pennsylvania, United States)"/>
<marker lat="39.316" lon="-77.733" site="Harper's Ferry (West Virginia, United States)"/>
<marker lat="38.883" lon="-77.33" site="Washington (United States)"/>
<marker lat="41.816" lon="-71.4" site="Providence, R. I. (Rhode Island, United States)"/>
<marker lat="39.866" lon="-79.85" site="Puritan (Pennsylvania, United States)"/>
<marker lat="42.583" lon="-70.816" site="Essex (Massachusetts, United States)"/>
<marker lat="33.75" lon="-89.66" site="Congress (Mississippi, United States)"/>
<marker lat="42.183" lon="-71.9" site="Rochdale (Massachusetts, United States)"/>
<marker lat="43.33" lon="-76.133" site="Syracuse (New York, United States)"/>
<marker lat="40.55" lon="-83.133" site="Oak Knoll (Ohio, United States)"/>
<marker lat="42.583" lon="-72.3" site="Orange, Ma. (Massachusetts, United States)"/>
<marker lat="41.833" lon="-72.833" site="Connecticut (Connecticut, United States)"/>
<marker lat="41.883" lon="-88.3" site="Geneva (Illinois, United States)"/>
<marker lat="43.383" lon="-70.533" site="Kennebunk, Me. (Maine, United States)"/>
<marker lat="33.3" lon="-89.15" site="Tuscan (Mississippi, United States)"/>
<marker lat="43.2" lon="-71.533" site="Concord, N. H. (New Hampshire, United States)"/>
<marker lat="37.583" lon="-118.266" site="White Mountains (United States)"/>
<marker lat="43.9" lon="-69.95" site="Brunswick, Me. (Maine, United States)"/>
<marker lat="-10.0" lon="-55.0" site="Brazil (Brazil)"/>
<marker lat="42.366" lon="-71.1" site="Cambridge (Massachusetts, United States)"/>
<marker lat="39.9" lon="-75.25" site="Academy (Pennsylvania, United States)"/>
<marker lat="40.283" lon="-84.15" site="Sydney (Ohio, United States)"/>
<marker lat="41.316" lon="-73.83" site="Derby, Conn. (Connecticut, United States)"/>
</markers>