<markers>
<marker lat="38.0" lon="-98.0" site="United States (United States)"/>
<marker lat="32.316" lon="-90.916" site="Delta (Louisiana, United States)"/>
<marker lat="37.55" lon="-77.45" site="Richmond (Virginia, United States)"/>
<marker lat="44.0" lon="-85.0" site="Michigan (Michigan, United States)"/>
<marker lat="35.5" lon="-80.0" site="North Carolina (North Carolina, United States)"/>
<marker lat="39.583" lon="-75.566" site="Fort Delaware (Delaware, United States)"/>
<marker lat="37.25" lon="-76.483" site="Gloucester Point (Virginia, United States)"/>
<marker lat="39.0" lon="-76.833" site="Maryland (Maryland, United States)"/>
<marker lat="41.65" lon="-83.55" site="Vistula (Ohio, United States)"/>
<marker lat="40.0" lon="-86.0" site="Indiana (Indiana, United States)"/>
<marker lat="40.0" lon="-89.0" site="Illinois (Illinois, United States)"/>
<marker lat="30.566" lon="-81.683" site="Nassau River (Florida, United States)"/>
<marker lat="36.433" lon="-76.7" site="Gates county (North Carolina, United States)"/>
<marker lat="44.0" lon="-73.0" site="Vermont (Vermont, United States)"/>
<marker lat="37.383" lon="-77.233" site="Malvern Hill (Virginia, United States)"/>
<marker lat="30.866" lon="-90.5" site="Tangipahoa, La. (Louisiana, United States)"/>
<marker lat="37.2" lon="-77.233" site="county, Va. (Virginia, United States)"/>
<marker lat="36.966" lon="-76.35" site="Hampton Roads (Virginia, United States)"/>
<marker lat="37.4" lon="-76.516" site="Gloucester, Va. (Virginia, United States)"/>
<marker lat="41.433" lon="-71.5" site="Wakefield, Washington County, Rhode Island (Rhode Island, United States)"/>
<marker lat="38.166" lon="-77.183" site="Port Royal, Va. (Virginia, United States)"/>
<marker lat="37.283" lon="-77.15" site="Coggin's Point (Virginia, United States)"/>
<marker lat="36.483" lon="-87.85" site="Fort Donelson (Tennessee, United States)"/>
<marker lat="36.883" lon="-89.916" site="Bloomfield, Mo. (Missouri, United States)"/>
<marker lat="53.0" lon="-2.0" site="England (United Kingdom)"/>
<marker lat="31.0" lon="-92.0" site="Louisiana (Louisiana, United States)"/>
<marker lat="32.0" lon="-84.0" site="Georgia (Georgia, United States)"/>
<marker lat="37.766" lon="-79.383" site="South River (Virginia, United States)"/>
<marker lat="60.0" lon="-96.0" site="Canada (Canada)"/>
<marker lat="40.833" lon="-76.0" site="Pennsylvania (Pennsylvania, United States)"/>
<marker lat="38.833" lon="-76.85" site="Prince Georges (Maryland, United States)"/>
<marker lat="38.983" lon="-78.35" site="Strasburg, Va. (Virginia, United States)"/>
<marker lat="37.0" lon="-119.0" site="California (California, United States)"/>
<marker lat="35.5" lon="-85.0" site="Tennessee (Tennessee, United States)"/>
<marker lat="41.266" lon="-85.5" site="Tippecanoe (Indiana, United States)"/>
<marker lat="45.5" lon="-73.6" site="Montreal (Canada)"/>
<marker lat="40.116" lon="-91.616" site="Canton, Lewis County, Missouri (Missouri, United States)"/>
<marker lat="37.95" lon="-76.95" site="Essex County (Virginia, United States)"/>
<marker lat="45.2" lon="-67.3" site="St. Stephen (Canada)"/>
<marker lat="36.266" lon="-86.183" site="Taylorsville (Tennessee, United States)"/>
<marker lat="40.5" lon="-80.716" site="Wheeling, W. Va. (West Virginia, United States)"/>
<marker lat="38.33" lon="-77.35" site="Caroline (Virginia, United States)"/>
<marker lat="36.35" lon="-83.55" site="Dutch (Tennessee, United States)"/>
<marker lat="36.933" lon="-77.25" site="Sussex (Virginia, United States)"/>
<marker lat="37.166" lon="-80.383" site="Montgomery County (Virginia, United States)"/>
<marker lat="34.35" lon="-86.283" site="Guntersville (Alabama, United States)"/>
</markers>