<markers>
<marker lat="38.0" lon="-98.0" site="United States (United States)"/>
<marker lat="36.95" lon="-76.316" site="Sewell's Point (Virginia, United States)"/>
<marker lat="35.5" lon="-85.0" site="Tennessee (Tennessee, United States)"/>
<marker lat="35.683" lon="-75.716" site="Old Point (North Carolina, United States)"/>
<marker lat="29.416" lon="-98.483" site="San Antonio (Texas, United States)"/>
<marker lat="19.416" lon="-99.166" site="Mexico (Mexico, Mexico)"/>
<marker lat="30.316" lon="-87.283" site="Fort Pickens (Florida, United States)"/>
<marker lat="38.516" lon="-77.6" site="Aquia Creek (Virginia, United States)"/>
<marker lat="35.0" lon="105.0" site="China (China)"/>
<marker lat="41.633" lon="-85.416" site="La Grange (Indiana, United States)"/>
<marker lat="39.0" lon="-76.833" site="Maryland (Maryland, United States)"/>
<marker lat="37.266" lon="-76.883" site="Pig Point (Virginia, United States)"/>
<marker lat="36.883" lon="-76.35" site="Craney Island (Virginia, United States)"/>
<marker lat="39.4" lon="-76.6" site="Towson (Maryland, United States)"/>
<marker lat="39.0" lon="-80.0" site="West Virginia (West Virginia, United States)"/>
<marker lat="33.466" lon="-82.16" site="Augusta (Georgia, United States)"/>
<marker lat="46.0" lon="2.0" site="France (France)"/>
<marker lat="9.933" lon="76.25" site="Cochin (Kerala, India)"/>
<marker lat="38.45" lon="-77.16" site="Chapel Point (Maryland, United States)"/>
<marker lat="39.466" lon="-76.633" site="Cockeysville (Maryland, United States)"/>
<marker lat="34.183" lon="-88.716" site="Verona (Mississippi, United States)"/>
<marker lat="34.0" lon="-80.0" site="South Carolina (South Carolina, United States)"/>
<marker lat="37.75" lon="-77.483" site="Hanover County (Virginia, United States)"/>
<marker lat="38.883" lon="-77.33" site="Washington (United States)"/>
<marker lat="44.0" lon="-87.0" site="Lake Michigan (United States)"/>
<marker lat="37.16" lon="-76.333" site="Hampton (Virginia, United States)"/>
<marker lat="32.75" lon="-79.85" site="Fort Moultrie (South Carolina, United States)"/>
<marker lat="32.35" lon="-90.866" site="Vicksburg (Mississippi, United States)"/>
<marker lat="39.35" lon="-75.733" site="Sassafras River (United States)"/>
<marker lat="38.0" lon="-98.0" site="Missouri (Missouri, United States)"/>
<marker lat="44.0" lon="-71.666" site="New Hampshire (New Hampshire, United States)"/>
<marker lat="36.733" lon="-76.583" site="Nansemond River (Virginia, United States)"/>
<marker lat="38.5" lon="-77.16" site="Port Tobacco (Maryland, United States)"/>
<marker lat="36.66" lon="-79.783" site="Greensboro (North Carolina, United States)"/>
<marker lat="33.0" lon="-87.0" site="Alabama (Alabama, United States)"/>
<marker lat="38.833" lon="-77.3" site="Fairfax, Va. (Virginia, United States)"/>
<marker lat="43.166" lon="-78.766" site="Niagara County (New York, United States)"/>
<marker lat="36.966" lon="-76.35" site="Hampton Roads (Virginia, United States)"/>
<marker lat="38.6" lon="-78.783" site="Broadway (Virginia, United States)"/>
<marker lat="38.2" lon="-77.583" site="Spottsylvania (Virginia, United States)"/>
<marker lat="39.15" lon="-80.33" site="Philippi (West Virginia, United States)"/>
<marker lat="41.483" lon="-71.3" site="Newport (Rhode Island, United States)"/>
<marker lat="39.333" lon="-80.16" site="Grafton, W. Va. (West Virginia, United States)"/>
<marker lat="35.5" lon="-78.866" site="Fayetteville (North Carolina, United States)"/>
<marker lat="51.483" lon="0.66" site="Woolwich (United Kingdom)"/>
<marker lat="43.45" lon="-76.5" site="Oswego (New York, United States)"/>
<marker lat="39.3" lon="-76.33" site="Kent County (Maryland, United States)"/>
<marker lat="38.266" lon="-77.15" site="King George county (Virginia, United States)"/>
<marker lat="31.0" lon="-92.0" site="Louisiana (Louisiana, United States)"/>
<marker lat="40.0" lon="-86.0" site="Indiana (Indiana, United States)"/>
<marker lat="40.0" lon="-89.0" site="Illinois (Illinois, United States)"/>
<marker lat="60.0" lon="-96.0" site="Canada (Canada)"/>
<marker lat="37.233" lon="-76.55" site="York county (Virginia, United States)"/>
<marker lat="35.5" lon="-80.0" site="North Carolina (North Carolina, United States)"/>
<marker lat="32.366" lon="-86.3" site="Montgomery (Alabama, United States)"/>
<marker lat="38.25" lon="-85.75" site="Louisville (Kentucky, United States)"/>
<marker lat="40.716" lon="-80.283" site="Marion Hill (Pennsylvania, United States)"/>
<marker lat="34.716" lon="-76.733" site="Carolina City (North Carolina, United States)"/>
<marker lat="38.3" lon="-77.45" site="Fredericksburg, Va. (Virginia, United States)"/>
<marker lat="32.75" lon="-79.833" site="Sullivan's Island (South Carolina, United States)"/>
<marker lat="38.66" lon="-77.183" site="Port Tobacco Creek (Virginia, United States)"/>
<marker lat="38.9" lon="-77.25" site="Vienna (Virginia, United States)"/>
<marker lat="23.0" lon="-102.0" site="Mexico (Mexico)"/>
<marker lat="30.0" lon="-100.0" site="Texas (Texas, United States)"/>
<marker lat="33.233" lon="-81.35" site="Barnwell Court House (South Carolina, United States)"/>
<marker lat="35.95" lon="-83.916" site="Knoxville (Tennessee, United States)"/>
<marker lat="40.416" lon="-86.866" site="Lafayette (Indiana, United States)"/>
<marker lat="37.16" lon="-78.883" site="Patrick Henry (Virginia, United States)"/>
<marker lat="35.583" lon="-79.5" site="Cape Fear (North Carolina, United States)"/>
<marker lat="38.6" lon="-76.1" site="Howells Point (Maryland, United States)"/>
<marker lat="34.216" lon="-77.933" site="Wilmington, N. C. (North Carolina, United States)"/>
<marker lat="37.0" lon="-80.0" site="Virginia (Virginia, United States)"/>
<marker lat="36.833" lon="-76.283" site="Elizabeth (Virginia, United States)"/>
<marker lat="39.45" lon="-77.95" site="Martinsburg (West Virginia, United States)"/>
<marker lat="32.716" lon="-79.866" site="Cumming's Point (South Carolina, United States)"/>
<marker lat="30.683" lon="-88.33" site="Mobile, Ala. (Alabama, United States)"/>
<marker lat="32.766" lon="-79.916" site="Charleston (South Carolina, United States)"/>
<marker lat="37.0" lon="-76.0" site="Chesapeake Bay (United States)"/>
<marker lat="38.933" lon="-74.9" site="Cape May (New Jersey, United States)"/>
<marker lat="50.833" lon="4.0" site="Belgium (Belgium)"/>
<marker lat="34.45" lon="-86.85" site="Morgan (Alabama, United States)"/>
<marker lat="31.883" lon="-85.45" site="Barbour (Alabama, United States)"/>
<marker lat="50.75" lon="-1.133" site="Spithead (United Kingdom)"/>
<marker lat="62.0" lon="15.0" site="Sweden (Sweden)"/>
<marker lat="62.0" lon="10.0" site="Norway (Norway)"/>
<marker lat="29.35" lon="-98.866" site="Castroville (Texas, United States)"/>
<marker lat="32.7" lon="-87.583" site="Greensboro, Alabama (Alabama, United States)"/>
<marker lat="38.166" lon="-79.116" site="Augusta county (Virginia, United States)"/>
<marker lat="39.45" lon="-78.33" site="Berkeley County (West Virginia, United States)"/>
</markers>