<markers>
<marker lat="49.116" lon="6.183" site="Metz (France)"/>
<marker lat="35.166" lon="25.0" site="Crete (Greece)"/>
<marker lat="43.816" lon="-72.716" site="Olympus (Vermont, United States)"/>
<marker lat="37.8083" lon="22.75" site="Nemea (Greece)"/>
<marker lat="41.166" lon="24.833" site="Xanthe (Greece)"/>
<marker lat="40.7" lon="-76.95" site="Pallas (Pennsylvania, United States)"/>
<marker lat="35.0" lon="33.0" site="Cyprus (Cyprus)"/>
<marker lat="45.0" lon="24.833" site="Arges (Romania)"/>
<marker lat="37.75" lon="15.0" site="Aetna (Italy)"/>
<marker lat="38.916" lon="27.0" site="Caicus (Turkey)"/>
<marker lat="38.0333" lon="23.3333" site="Nisaea"/>
<marker lat="35.2" lon="25.3667" site="Lyctus"/>
<marker lat="45.133" lon="-79.983" site="Moon (Canada)"/>
<marker lat="41.233" lon="-8.633" site="Maia (Portugal)"/>
<marker lat="38.483" lon="22.5" site="Pytho (Greece)"/>
<marker lat="42.0" lon="38.0" site="Pontus"/>
<marker lat="36.666" lon="34.333" site="Cilicia (Turkey)"/>
<marker lat="48.16" lon="2.533" site="Ladon (France)"/>
<marker lat="37.6" lon="22.8167" site="Tiryns (Greece)"/>
<marker lat="37.9667" lon="23.7333" site="Athens (Greece)"/>
<marker lat="42.183" lon="41.683" site="Phasis (Georgia)"/>
<marker lat="44.966" lon="12.5" site="Padus (Italy)"/>
<marker lat="38.325" lon="23.3333" site="Thebes (Greece)"/>
</markers>