<markers>
<marker lat="38.0" lon="-98.0" site="United States (United States)"/>
<marker lat="35.5" lon="-85.0" site="Tennessee (Tennessee, United States)"/>
<marker lat="34.716" lon="-86.583" site="Huntsville (Alabama, United States)"/>
<marker lat="34.933" lon="-88.516" site="Corinth (Mississippi, United States)"/>
<marker lat="19.416" lon="-99.166" site="Mexico (Mexico, Mexico)"/>
<marker lat="38.0" lon="-98.0" site="Missouri (Missouri, United States)"/>
<marker lat="53.7" lon="-2.666" site="Lancaster (United Kingdom)"/>
<marker lat="36.483" lon="-87.85" site="Fort Donelson (Tennessee, United States)"/>
<marker lat="40.0" lon="-89.0" site="Illinois (Illinois, United States)"/>
<marker lat="34.0" lon="-80.0" site="South Carolina (South Carolina, United States)"/>
<marker lat="39.583" lon="-75.566" site="Fort Delaware (Delaware, United States)"/>
<marker lat="32.266" lon="-106.8" site="Mesilla (New Mexico, United States)"/>
<marker lat="36.95" lon="-76.316" site="Sewell's Point (Virginia, United States)"/>
<marker lat="25.9" lon="-97.483" site="Fort Taylor (Texas, United States)"/>
<marker lat="33.2" lon="-87.566" site="Shelbyville (Alabama, United States)"/>
<marker lat="33.55" lon="-107.5" site="Paraje (New Mexico, United States)"/>
<marker lat="38.833" lon="-82.133" site="Point Pleasant (West Virginia, United States)"/>
<marker lat="38.866" lon="-78.1" site="Rappahannock (Virginia, United States)"/>
<marker lat="33.483" lon="-88.416" site="Columbus (Mississippi, United States)"/>
<marker lat="37.75" lon="-77.483" site="Hanover County (Virginia, United States)"/>
<marker lat="35.0" lon="-93.0" site="Arkansas (Arkansas, United States)"/>
<marker lat="37.55" lon="-77.45" site="Richmond (Virginia, United States)"/>
<marker lat="42.316" lon="-70.916" site="Fort Warren (Massachusetts, United States)"/>
<marker lat="36.466" lon="-89.466" site="Island Number Ten (Missouri, United States)"/>
<marker lat="34.833" lon="-88.3" site="Burnsville (Mississippi, United States)"/>
<marker lat="36.383" lon="-86.433" site="Gallatin, Tenn. (Tennessee, United States)"/>
<marker lat="34.766" lon="-89.433" site="Holly Springs (Mississippi, United States)"/>
<marker lat="36.516" lon="-82.533" site="Sullivan (Tennessee, United States)"/>
<marker lat="36.5" lon="-83.45" site="Jefferson (Tennessee, United States)"/>
<marker lat="33.0" lon="-87.0" site="Alabama (Alabama, United States)"/>
<marker lat="35.833" lon="-86.383" site="Murfreesboro (Tennessee, United States)"/>
<marker lat="34.216" lon="-83.216" site="Shiloh Church (Georgia, United States)"/>
<marker lat="42.333" lon="-70.966" site="Boston Harbor (Massachusetts, United States)"/>
<marker lat="39.566" lon="-75.583" site="Delaware City (Delaware, United States)"/>
<marker lat="41.35" lon="-86.433" site="Donelson (Indiana, United States)"/>
<marker lat="43.566" lon="-70.316" site="Scarboro, Me. (Maine, United States)"/>
<marker lat="38.4" lon="-79.566" site="Monterey (Virginia, United States)"/>
<marker lat="34.5" lon="-106.883" site="Socorro, N. Mex. (New Mexico, United States)"/>
<marker lat="34.8" lon="-89.516" site="Marshall County, Mississippi (Mississippi, United States)"/>
<marker lat="53.0" lon="-2.0" site="England (United Kingdom)"/>
<marker lat="43.233" lon="-88.183" site="Bark (Wisconsin, United States)"/>
<marker lat="31.0" lon="-92.0" site="Louisiana (Louisiana, United States)"/>
<marker lat="39.0" lon="-80.0" site="West Virginia (West Virginia, United States)"/>
<marker lat="60.35" lon="-149.883" site="Russian River (Alaska, United States)"/>
<marker lat="23.0" lon="-102.0" site="Mexico (Mexico)"/>
<marker lat="33.95" lon="-83.383" site="Clarke (Georgia, United States)"/>
<marker lat="35.95" lon="-83.916" site="Knoxville (Tennessee, United States)"/>
<marker lat="35.683" lon="-75.716" site="Old Point (North Carolina, United States)"/>
<marker lat="40.2" lon="-93.116" site="Milan, Sullivan County, Missouri (Missouri, United States)"/>
<marker lat="40.5" lon="-80.716" site="Wheeling, W. Va. (West Virginia, United States)"/>
<marker lat="29.75" lon="-95.35" site="Harrisburg (Texas, United States)"/>
<marker lat="36.366" lon="-89.466" site="Tiptonville (Tennessee, United States)"/>
<marker lat="37.66" lon="-88.55" site="Tennessee River (United States)"/>
<marker lat="36.916" lon="-84.766" site="Mill Springs (Kentucky, United States)"/>
<marker lat="33.266" lon="-86.666" site="Shelby (Alabama, United States)"/>
<marker lat="46.0" lon="2.0" site="France (France)"/>
<marker lat="38.85" lon="-77.85" site="Marshall (Virginia, United States)"/>
<marker lat="39.833" lon="-88.95" site="Decatur (Illinois, United States)"/>
<marker lat="39.5" lon="-75.15" site="Delaware Bay (United States)"/>
<marker lat="36.8" lon="-79.3" site="Shockoe Creek (Virginia, United States)"/>
<marker lat="39.116" lon="-77.966" site="Clarke (Virginia, United States)"/>
</markers>