<markers>
<marker lat="39.9167" lon="26.2833" site="Troy (Turkey)"/>
<marker lat="31.866" lon="-93.883" site="Sabine (United States)"/>
<marker lat="41.7" lon="-71.15" site="Troy (Massachusetts, United States)"/>
<marker lat="35.16" lon="33.433" site="Idalium (Cyprus)"/>
<marker lat="39.5" lon="22.25" site="Thessaly (Greece)"/>
<marker lat="20.0" lon="77.0" site="India (India)"/>
<marker lat="33.75" lon="-81.233" site="Pelion (South Carolina, United States)"/>
<marker lat="35.0" lon="38.0" site="Syria (Syria)"/>
<marker lat="45.45" lon="11.0" site="Verona (Italy)"/>
<marker lat="45.55" lon="10.216" site="Brescia (Italy)"/>
<marker lat="35.166" lon="25.0" site="Crete (Greece)"/>
<marker lat="45.483" lon="10.6" site="Sirmio (Italy)"/>
<marker lat="40.33" lon="-75.716" site="Dorian (Pennsylvania, United States)"/>
<marker lat="34.6667" lon="33.05" site="Amathus"/>
<marker lat="38.283" lon="-79.116" site="Parnassus (Virginia, United States)"/>
<marker lat="43.6333" lon="13.5" site="Ancona (Italy)"/>
<marker lat="40.2" lon="-74.16" site="Neptune (New Jersey, United States)"/>
<marker lat="32.833" lon="21.866" site="Cyrene (Libya)"/>
<marker lat="30.166" lon="31.1" site="Nile"/>
<marker lat="43.7" lon="7.266" site="Nicaea (France)"/>
<marker lat="46.0" lon="2.0" site="France (France)"/>
<marker lat="29.266" lon="-82.283" site="Emathia (Florida, United States)"/>
<marker lat="40.166" lon="24.316" site="Athos (Greece)"/>
<marker lat="38.283" lon="23.166" site="Thespiae (Greece)"/>
<marker lat="25.0" lon="17.0" site="Libya (Libya)"/>
<marker lat="43.15" lon="13.733" site="Firmum (Italy)"/>
<marker lat="37.9667" lon="23.7333" site="Athens (Greece)"/>
<marker lat="42.183" lon="41.683" site="Phasis (Georgia)"/>
<marker lat="37.9583" lon="23.6583" site="Piraeus (Greece)"/>
<marker lat="36.9" lon="-103.866" site="Alps (New Mexico, United States)"/>
<marker lat="40.4" lon="-84.966" site="Liber (Indiana, United States)"/>
<marker lat="35.233" lon="-86.83" site="Asia (Tennessee, United States)"/>
<marker lat="39.9" lon="-77.516" site="Africa (Pennsylvania, United States)"/>
<marker lat="41.9" lon="12.4833" site="Rome (Italy)"/>
<marker lat="40.166" lon="30.25" site="Bithynia (Turkey)"/>
<marker lat="40.0" lon="-4.0" site="Spain (Spain)"/>
<marker lat="32.0" lon="53.0" site="Persia (Iran)"/>
<marker lat="39.95" lon="26.25" site="Ilium (Turkey)"/>
<marker lat="43.9" lon="12.9" site="Pesaro (Italy)"/>
<marker lat="42.0" lon="38.0" site="Pontus"/>
<marker lat="41.3" lon="19.466" site="Epidamnus (Albania)"/>
<marker lat="37.416" lon="24.916" site="Cyclades (Greece)"/>
<marker lat="45.433" lon="11.0" site="Verona (Italy)"/>
<marker lat="36.166" lon="28.0" site="Rhodes (Greece)"/>
<marker lat="44.0" lon="22.833" site="Bononia (Bulgaria)"/>
<marker lat="10.2" lon="-2.633" site="Tappo (Ghana)"/>
<marker lat="41.85" lon="15.85" site="Urium"/>
<marker lat="36.666" lon="27.366" site="Cnidus (Turkey)"/>
<marker lat="45.416" lon="11.883" site="Padua (Italy)"/>
</markers>