<markers>
<marker lat="38.0" lon="-98.0" site="United States (United States)"/>
<marker lat="35.5" lon="-85.0" site="Tennessee (Tennessee, United States)"/>
<marker lat="32.0" lon="-84.0" site="Georgia (Georgia, United States)"/>
<marker lat="34.766" lon="-89.433" site="Holly Springs (Mississippi, United States)"/>
<marker lat="33.733" lon="-84.383" site="Atlanta (Georgia, United States)"/>
<marker lat="36.4" lon="-83.0" site="Rodgersville (Tennessee, United States)"/>
<marker lat="60.0" lon="-96.0" site="Canada (Canada)"/>
<marker lat="35.5" lon="-80.0" site="North Carolina (North Carolina, United States)"/>
<marker lat="41.483" lon="-82.733" site="Johnson's Island (Ohio, United States)"/>
<marker lat="37.66" lon="-88.55" site="Tennessee River (United States)"/>
<marker lat="34.983" lon="-85.333" site="Lookout Mountain, Tenn. (Tennessee, United States)"/>
<marker lat="36.583" lon="-79.383" site="Danville (Virginia, United States)"/>
<marker lat="38.16" lon="-80.25" site="Droop Mountain (West Virginia, United States)"/>
<marker lat="33.0" lon="-90.0" site="Mississippi (Mississippi, United States)"/>
<marker lat="42.0" lon="-81.0" site="Lake Erie (United States)"/>
<marker lat="35.466" lon="-86.83" site="Manchester, Tenn. (Tennessee, United States)"/>
<marker lat="34.733" lon="-92.283" site="Little Rock (Arkansas, United States)"/>
<marker lat="39.0" lon="-80.0" site="West Virginia (West Virginia, United States)"/>
<marker lat="32.716" lon="-79.95" site="James Island (South Carolina, United States)"/>
<marker lat="37.0" lon="-80.0" site="Virginia (Virginia, United States)"/>
<marker lat="32.75" lon="-79.85" site="Fort Moultrie (South Carolina, United States)"/>
<marker lat="39.266" lon="-80.333" site="Clarksburg (West Virginia, United States)"/>
<marker lat="53.5" lon="-2.216" site="Manchester (United Kingdom)"/>
<marker lat="35.666" lon="-92.733" site="Arkansas (United States)"/>
<marker lat="34.8" lon="-88.183" site="Iuka (Mississippi, United States)"/>
<marker lat="41.633" lon="-85.416" site="La Grange (Indiana, United States)"/>
<marker lat="37.35" lon="-78.816" site="Appomattox, Va. (Virginia, United States)"/>
<marker lat="35.95" lon="-87.366" site="Missionary Ridge, Tenn. (Tennessee, United States)"/>
<marker lat="34.433" lon="-89.766" site="Moccasin Point (Mississippi, United States)"/>
<marker lat="32.7" lon="-79.883" site="Morris Island (South Carolina, United States)"/>
<marker lat="42.916" lon="-76.55" site="Auburn, N. Y. (New York, United States)"/>
<marker lat="34.5" lon="-89.5" site="Abbeville (Mississippi, United States)"/>
<marker lat="39.8" lon="-76.983" site="McAllister (Pennsylvania, United States)"/>
<marker lat="34.816" lon="-85.4" site="Chattanooga Creek (United States)"/>
<marker lat="34.85" lon="-82.383" site="Greenville (South Carolina, United States)"/>
<marker lat="30.666" lon="-91.266" site="Port Hudson (Louisiana, United States)"/>
<marker lat="34.233" lon="-83.266" site="Fort Lamar (Georgia, United States)"/>
<marker lat="32.316" lon="-87.1" site="Cahawba (Alabama, United States)"/>
<marker lat="41.433" lon="-82.7" site="Sandusky, Ohio (Ohio, United States)"/>
<marker lat="44.683" lon="-75.483" site="Ogdensburg (New York, United States)"/>
<marker lat="32.75" lon="129.866" site="Nagasaki (Japan)"/>
<marker lat="38.866" lon="-78.5" site="Woodstock, Va. (Virginia, United States)"/>
<marker lat="35.5" lon="-78.866" site="Fayetteville (North Carolina, United States)"/>
<marker lat="33.55" lon="-81.8" site="Graniteville (South Carolina, United States)"/>
<marker lat="35.133" lon="-90.33" site="Memphis (Tennessee, United States)"/>
<marker lat="38.683" lon="-79.35" site="Pendleton (West Virginia, United States)"/>
<marker lat="36.683" lon="-83.1" site="Jonesville (Virginia, United States)"/>
<marker lat="38.666" lon="-98.0" site="Kansas (Kansas, United States)"/>
<marker lat="33.483" lon="-88.416" site="Columbus (Mississippi, United States)"/>
<marker lat="36.7" lon="-81.966" site="Abingdon, Va. (Virginia, United States)"/>
<marker lat="32.83" lon="-81.1" site="Savannah (Georgia, United States)"/>
<marker lat="36.0" lon="138.0" site="Japan (Japan)"/>
<marker lat="40.0" lon="-80.833" site="Ohio (Ohio, United States)"/>
<marker lat="37.216" lon="-77.4" site="Petersburg, Va. (Virginia, United States)"/>
<marker lat="37.55" lon="-77.366" site="Henrico (Virginia, United States)"/>
<marker lat="38.5" lon="-84.716" site="Versailles (Kentucky, United States)"/>
<marker lat="41.783" lon="-69.983" site="Orleans, Ma. (Massachusetts, United States)"/>
<marker lat="32.75" lon="-79.833" site="Sullivan's Island (South Carolina, United States)"/>
<marker lat="41.833" lon="-72.833" site="Connecticut (Connecticut, United States)"/>
<marker lat="49.633" lon="-1.616" site="Cherbourg (France)"/>
<marker lat="34.283" lon="-90.5" site="Tallahatchie River (Mississippi, United States)"/>
<marker lat="33.66" lon="-82.0" site="Burke (Georgia, United States)"/>
<marker lat="32.533" lon="-94.366" site="Marshall, Texas (Texas, United States)"/>
<marker lat="51.5" lon="-0.166" site="Custom house (United Kingdom)"/>
<marker lat="35.866" lon="-84.5" site="Kingston (Tennessee, United States)"/>
<marker lat="33.833" lon="-85.0" site="Dead River (United States)"/>
<marker lat="38.433" lon="-78.866" site="Harrisonburg, Va. (Virginia, United States)"/>
<marker lat="33.716" lon="-112.5" site="Union Hills (Arizona, United States)"/>
<marker lat="34.883" lon="-88.1" site="Eastport (Mississippi, United States)"/>
<marker lat="46.0" lon="2.0" site="France (France)"/>
<marker lat="35.433" lon="-84.583" site="Athens, Tenn. (Tennessee, United States)"/>
<marker lat="38.15" lon="-80.166" site="Mill Point (West Virginia, United States)"/>
<marker lat="37.0" lon="-79.866" site="Franklin county (Virginia, United States)"/>
<marker lat="36.666" lon="-79.883" site="Henry (Virginia, United States)"/>
<marker lat="37.566" lon="-77.916" site="Powhatan (Virginia, United States)"/>
</markers>