<markers>
<marker lat="38.0" lon="-98.0" site="United States (United States)"/>
<marker lat="38.916" lon="-78.183" site="Front Royal (Virginia, United States)"/>
<marker lat="38.983" lon="-78.35" site="Strasburg, Va. (Virginia, United States)"/>
<marker lat="39.0" lon="-76.833" site="Maryland (Maryland, United States)"/>
<marker lat="35.5" lon="-85.0" site="Tennessee (Tennessee, United States)"/>
<marker lat="34.933" lon="-88.516" site="Corinth (Mississippi, United States)"/>
<marker lat="35.6" lon="-88.8" site="Jackson (Tennessee, United States)"/>
<marker lat="40.833" lon="-76.0" site="Pennsylvania (Pennsylvania, United States)"/>
<marker lat="37.55" lon="-77.45" site="Richmond (Virginia, United States)"/>
<marker lat="38.733" lon="-77.816" site="Fauquier (Virginia, United States)"/>
<marker lat="35.683" lon="-75.716" site="Old Point (North Carolina, United States)"/>
<marker lat="36.716" lon="-76.583" site="Suffolk, Va. (Virginia, United States)"/>
<marker lat="36.8" lon="-76.316" site="Gosport (Virginia, United States)"/>
<marker lat="42.25" lon="-71.833" site="Massachusetts (Massachusetts, United States)"/>
<marker lat="33.0" lon="-87.0" site="Alabama (Alabama, United States)"/>
<marker lat="41.233" lon="-81.783" site="Sherman (Ohio) (Ohio, United States)"/>
<marker lat="38.7" lon="-77.783" site="Warrenton (Virginia, United States)"/>
<marker lat="30.566" lon="-81.683" site="Nassau River (Florida, United States)"/>
<marker lat="41.666" lon="-71.5" site="Rhode Island (Rhode Island, United States)"/>
<marker lat="40.766" lon="-111.883" site="Capitol (Utah, United States)"/>
<marker lat="37.383" lon="-77.6" site="Chesterfield (Virginia, United States)"/>
<marker lat="39.45" lon="-77.95" site="Martinsburg (West Virginia, United States)"/>
<marker lat="32.183" lon="-86.566" site="Hayneville, Alabama (Alabama, United States)"/>
<marker lat="36.583" lon="-79.383" site="Danville (Virginia, United States)"/>
<marker lat="36.95" lon="-78.25" site="Lunenburg (Virginia, United States)"/>
<marker lat="41.6" lon="-87.66" site="Porter (Indiana, United States)"/>
<marker lat="35.2" lon="-89.866" site="Shelby (Tennessee, United States)"/>
<marker lat="39.483" lon="-0.4" site="Valencia (Spain)"/>
<marker lat="37.516" lon="-76.783" site="York (Virginia, United States)"/>
<marker lat="38.166" lon="-99.83" site="Larned (Kansas, United States)"/>
<marker lat="35.383" lon="-77.983" site="Goldsboro (North Carolina, United States)"/>
<marker lat="38.15" lon="-76.8" site="Cold Harbor Creek (Virginia, United States)"/>
<marker lat="40.75" lon="-111.916" site="Butte (Utah, United States)"/>
<marker lat="40.7" lon="-74.0" site="New York (New York, United States)"/>
<marker lat="35.33" lon="-89.183" site="Grand Junction (Tennessee, United States)"/>
<marker lat="36.66" lon="-79.783" site="Greensboro (North Carolina, United States)"/>
<marker lat="34.85" lon="-82.383" site="Greenville (South Carolina, United States)"/>
<marker lat="39.15" lon="-82.483" site="Puritan (Ohio, United States)"/>
<marker lat="39.16" lon="-78.3" site="Meadow Mills (Virginia, United States)"/>
<marker lat="37.4" lon="-79.133" site="Lynchburg (Virginia, United States)"/>
<marker lat="38.816" lon="-77.516" site="Bull Run, Va. (Virginia, United States)"/>
<marker lat="32.35" lon="-87.633" site="Dayton (Alabama, United States)"/>
<marker lat="36.483" lon="-87.85" site="Fort Donelson (Tennessee, United States)"/>
<marker lat="35.866" lon="-75.65" site="Roanoke Island (North Carolina, United States)"/>
<marker lat="40.66" lon="-93.266" site="Parsons (Missouri, United States)"/>
<marker lat="39.766" lon="-86.15" site="Indianapolis (Indiana, United States)"/>
<marker lat="32.0" lon="-84.0" site="Georgia (Georgia, United States)"/>
<marker lat="32.633" lon="-80.85" site="Pocotaligo (South Carolina, United States)"/>
<marker lat="37.133" lon="-93.5" site="Henderson (Missouri, United States)"/>
<marker lat="35.5" lon="-80.0" site="North Carolina (North Carolina, United States)"/>
<marker lat="34.0" lon="-80.0" site="South Carolina (South Carolina, United States)"/>
<marker lat="36.683" lon="-77.566" site="Greensville (Virginia, United States)"/>
<marker lat="30.216" lon="-88.16" site="Fort Morgan (Alabama, United States)"/>
<marker lat="39.316" lon="-77.733" site="Harper's Ferry (West Virginia, United States)"/>
<marker lat="32.7" lon="-84.5" site="Talbot (Georgia, United States)"/>
<marker lat="32.283" lon="-90.183" site="Jackson (Mississippi, United States)"/>
<marker lat="33.916" lon="-84.833" site="Dallas, Ga. (Georgia, United States)"/>
<marker lat="38.933" lon="-78.183" site="Shenandoah (United States)"/>
<marker lat="40.0" lon="-110.0" site="Utah (Utah, United States)"/>
<marker lat="36.95" lon="-89.83" site="Wickliffe (Kentucky, United States)"/>
<marker lat="36.416" lon="-77.583" site="Weldon, N. C. (North Carolina, United States)"/>
<marker lat="44.833" lon="-0.566" site="Bordeaux (France)"/>
<marker lat="35.95" lon="-83.916" site="Knoxville (Tennessee, United States)"/>
<marker lat="32.533" lon="-80.75" site="Page's Point (South Carolina, United States)"/>
<marker lat="32.7" lon="-79.933" site="Secessionville (South Carolina, United States)"/>
<marker lat="39.633" lon="-77.716" site="Hagerstown (Maryland, United States)"/>
<marker lat="40.266" lon="-76.883" site="Harrisburg, Pa. (Pennsylvania, United States)"/>
<marker lat="37.416" lon="-77.16" site="Oldhouse Landing (Virginia, United States)"/>
<marker lat="29.566" lon="-90.683" site="Mechanicville (Louisiana, United States)"/>
<marker lat="39.83" lon="-77.65" site="Loudoun (Virginia, United States)"/>
<marker lat="37.0" lon="-80.0" site="Virginia (Virginia, United States)"/>
<marker lat="34.716" lon="-86.583" site="Huntsville (Alabama, United States)"/>
<marker lat="38.766" lon="-76.66" site="Easton (Maryland, United States)"/>
<marker lat="37.75" lon="-77.366" site="Hanover Court House (Virginia, United States)"/>
<marker lat="42.433" lon="-76.16" site="Marathon, Cortland County, New York (New York, United States)"/>
<marker lat="33.533" lon="-79.983" site="New Market (South Carolina, United States)"/>
<marker lat="35.216" lon="-80.833" site="Charlotte (North Carolina, United States)"/>
<marker lat="32.766" lon="-79.916" site="Charleston (South Carolina, United States)"/>
<marker lat="41.433" lon="-84.733" site="Edgerton, O. (Ohio, United States)"/>
<marker lat="46.0" lon="2.0" site="France (France)"/>
<marker lat="40.616" lon="-78.366" site="Blair (Pennsylvania, United States)"/>
<marker lat="40.0" lon="-4.0" site="Spain (Spain)"/>
<marker lat="38.33" lon="-78.55" site="Albemarle (Virginia, United States)"/>
</markers>