<markers>
<marker lat="46.0" lon="2.0" site="France (France)"/>
<marker lat="40.0" lon="-4.0" site="Spain (Spain)"/>
<marker lat="45.5" lon="-73.6" site="Montreal (Canada)"/>
<marker lat="38.133" lon="-90.55" site="De Soto, Jefferson County, Missouri (Missouri, United States)"/>
<marker lat="42.83" lon="-79.233" site="Jamestown, N. Y. (New York, United States)"/>
<marker lat="37.233" lon="-80.2" site="Roanoke (United States)"/>
<marker lat="41.833" lon="-70.0" site="Cape Cod (Massachusetts, United States)"/>
<marker lat="52.0" lon="-56.0" site="Newfoundland (Canada)"/>
<marker lat="50.383" lon="-4.166" site="Plymouth (United Kingdom)"/>
<marker lat="35.816" lon="-75.55" site="Hatorask (North Carolina, United States)"/>
<marker lat="42.516" lon="-70.883" site="Salem (Massachusetts, United States)"/>
<marker lat="38.0" lon="-98.0" site="United States (United States)"/>
<marker lat="60.0" lon="-96.0" site="Canada (Canada)"/>
<marker lat="51.45" lon="-2.583" site="Bristol (United Kingdom)"/>
<marker lat="42.633" lon="-70.633" site="Cape Ann (Massachusetts, United States)"/>
<marker lat="37.666" lon="-78.65" site="Manteo (Virginia, United States)"/>
<marker lat="42.366" lon="-70.75" site="Massachusetts Bay (Massachusetts, United States)"/>
<marker lat="37.4" lon="-5.983" site="Seville (Spain)"/>
<marker lat="45.433" lon="12.333" site="Venice (Italy)"/>
<marker lat="10.5" lon="-61.25" site="Trinidad (Trinidad and Tobago)"/>
<marker lat="19.0" lon="-70.666" site="Dominican Republic (Dominican Republic)"/>
<marker lat="46.833" lon="-71.25" site="Stadacona (Canada)"/>
<marker lat="30.316" lon="-81.65" site="Jacksonville (Florida, United States)"/>
<marker lat="65.0" lon="-18.0" site="Iceland (Iceland)"/>
<marker lat="38.566" lon="-76.166" site="Hudson River (Maryland, United States)"/>
<marker lat="45.0" lon="-69.0" site="Maine (Maine, United States)"/>
<marker lat="45.583" lon="-69.7" site="Kennebec (Maine, United States)"/>
<marker lat="41.95" lon="-70.666" site="Accomack (Massachusetts, United States)"/>
<marker lat="48.0" lon="-3.16" site="Brittany (France)"/>
<marker lat="52.5" lon="5.75" site="Holland (Netherlands)"/>
<marker lat="54.0" lon="-72.0" site="Quebec (Canada)"/>
<marker lat="32.45" lon="-80.683" site="Beaufort River (South Carolina, United States)"/>
<marker lat="41.983" lon="-70.16" site="Pamet River (Massachusetts, United States)"/>
<marker lat="47.55" lon="-99.4" site="Cathay (North Dakota, United States)"/>
<marker lat="36.666" lon="-7.75" site="Malaga (Spain)"/>
<marker lat="44.2" lon="-71.9" site="Lisbon, Grafton County, New Hampshire (New Hampshire, United States)"/>
<marker lat="42.6" lon="-70.65" site="Glocester (Massachusetts, United States)"/>
<marker lat="49.316" lon="2.333" site="Mouy (France)"/>
<marker lat="42.25" lon="-71.833" site="Massachusetts (Massachusetts, United States)"/>
<marker lat="43.0" lon="-75.0" site="New York State (New York, United States)"/>
<marker lat="39.516" lon="-87.116" site="Brazil, Clay County, Indiana (Indiana, United States)"/>
<marker lat="41.983" lon="-70.5" site="Dangerfield (Massachusetts, United States)"/>
<marker lat="57.616" lon="-2.7" site="Cornhill (United Kingdom)"/>
<marker lat="26.366" lon="-98.816" site="Rio Grande City (Texas, United States)"/>
<marker lat="35.866" lon="-76.733" site="Plymouth, N. C. (North Carolina, United States)"/>
<marker lat="48.583" lon="-97.866" site="Gardar (North Dakota, United States)"/>
<marker lat="41.966" lon="-70.666" site="Plymouth Harbor (Massachusetts, United States)"/>
<marker lat="25.0" lon="-90.0" site="Gulf of Mexico"/>
<marker lat="29.5" lon="-96.766" site="Navidad (Texas, United States)"/>
<marker lat="42.516" lon="-78.983" site="Iroquois (New York, United States)"/>
<marker lat="15.5" lon="-61.333" site="Dominica (Dominica)"/>
<marker lat="42.366" lon="-74.416" site="Mount Royal (New York, United States)"/>
<marker lat="42.65" lon="-73.75" site="Albany (New York, United States)"/>
<marker lat="45.6" lon="-68.516" site="Penobscot (Maine, United States)"/>
<marker lat="51.45" lon="0.4" site="Gravesend (United Kingdom)"/>
<marker lat="35.5" lon="-80.0" site="North Carolina (North Carolina, United States)"/>
<marker lat="41.816" lon="-69.966" site="Eastham (Massachusetts, United States)"/>
<marker lat="44.25" lon="-74.266" site="Plymouth Rock (New York, United States)"/>
<marker lat="54.0" lon="-60.0" site="Labrador (Canada)"/>
<marker lat="44.633" lon="-63.583" site="Halifax (Canada)"/>
<marker lat="27.0" lon="30.0" site="Egypt (Egypt)"/>
<marker lat="41.6" lon="-71.316" site="Narragansett Bay (Rhode Island, United States)"/>
<marker lat="42.933" lon="-74.183" site="Amsterdam (New York, United States)"/>
<marker lat="32.366" lon="-80.683" site="Port Royal (South Carolina, United States)"/>
<marker lat="40.683" lon="-73.8" site="Jamaica, L. I. (New York, United States)"/>
<marker lat="47.333" lon="13.333" site="Austria (Austria)"/>
<marker lat="39.483" lon="-0.4" site="Valencia (Spain)"/>
<marker lat="37.516" lon="-76.783" site="York (Virginia, United States)"/>
<marker lat="42.416" lon="-71.1" site="Medford (Massachusetts, United States)"/>
<marker lat="41.933" lon="-70.33" site="Billingsgate (Massachusetts, United States)"/>
<marker lat="40.266" lon="-80.983" site="Cadiz, Harrison County, Ohio (Ohio, United States)"/>
<marker lat="-3.25" lon="-63.33" site="Badajos (Amazonas, Brazil)"/>
<marker lat="57.2" lon="-153.15" site="Nut Island (Alaska, United States)"/>
<marker lat="32.416" lon="-80.666" site="Beaufort, S. C. (South Carolina, United States)"/>
<marker lat="40.333" lon="-78.766" site="Saint Michael (Pennsylvania, United States)"/>
<marker lat="41.466" lon="-71.316" site="Newport Harbor (Rhode Island, United States)"/>
<marker lat="35.216" lon="-75.516" site="Cape Hatteras (North Carolina, United States)"/>
<marker lat="41.883" lon="-70.33" site="Wellfleet Harbor (Massachusetts, United States)"/>
<marker lat="43.916" lon="-69.966" site="Topsham (Maine, United States)"/>
<marker lat="53.416" lon="-3.0" site="Liverpool (United Kingdom)"/>
<marker lat="37.6" lon="-0.983" site="Cartagena (Spain)"/>
<marker lat="10.483" lon="-64.2" site="Cumana (Sucre, Venezuela)"/>
<marker lat="34.85" lon="-82.383" site="Greenville (South Carolina, United States)"/>
<marker lat="33.0" lon="-87.0" site="Alabama (Alabama, United States)"/>
<marker lat="42.966" lon="-70.933" site="Exeter, N. H. (New Hampshire, United States)"/>
<marker lat="32.433" lon="-80.683" site="Battery Creek (South Carolina, United States)"/>
<marker lat="42.583" lon="-70.666" site="Gloucester Harbor (Massachusetts, United States)"/>
<marker lat="18.83" lon="-63.83" site="St. Martin"/>
<marker lat="46.6" lon="-117.866" site="New York Island (Washington, United States)"/>
<marker lat="13.833" lon="-88.916" site="El Salvador (El Salvador)"/>
<marker lat="30.533" lon="-91.83" site="Monhegan (Louisiana, United States)"/>
<marker lat="41.483" lon="-71.3" site="Newport (Rhode Island, United States)"/>
<marker lat="41.283" lon="-70.83" site="Nantucket (Massachusetts, United States)"/>
<marker lat="42.516" lon="-70.866" site="Salem Harbor (Massachusetts, United States)"/>
<marker lat="41.483" lon="-70.75" site="Elizabeth's Island (Massachusetts, United States)"/>
<marker lat="50.733" lon="-3.816" site="Devonshire (United Kingdom)"/>
<marker lat="38.783" lon="-90.466" site="St. Charles, Mo. (Missouri, United States)"/>
<marker lat="38.33" lon="-76.533" site="Parkers Island (Virginia, United States)"/>
<marker lat="37.733" lon="-97.55" site="Saint Marks (Kansas, United States)"/>
<marker lat="49.916" lon="1.83" site="Dieppe (France)"/>
<marker lat="30.666" lon="-81.45" site="Fernandina, Fla. (Florida, United States)"/>
<marker lat="41.7" lon="-73.916" site="Poughkeepsie (New York, United States)"/>
<marker lat="18.233" lon="-66.55" site="Porto Rico"/>
<marker lat="46.966" lon="-90.85" site="York Island (Wisconsin, United States)"/>
<marker lat="37.433" lon="-122.133" site="Palo Alto (California, United States)"/>
<marker lat="41.316" lon="-71.85" site="Great River (United States)"/>
<marker lat="28.266" lon="-82.83" site="Hillsborough River (Florida, United States)"/>
<marker lat="19.0" lon="-72.0" site="Hispaniola"/>
<marker lat="41.716" lon="-70.266" site="Beach Point (Massachusetts, United States)"/>
<marker lat="42.33" lon="-70.166" site="Cape Cod Harbor (Massachusetts, United States)"/>
<marker lat="37.7" lon="-77.616" site="Chickahominy (Virginia, United States)"/>
<marker lat="53.0" lon="-2.0" site="England (United Kingdom)"/>
<marker lat="48.2" lon="-90.85" site="James Bay (Minnesota, United States)"/>
<marker lat="29.883" lon="-81.3" site="St. Augustine (Florida, United States)"/>
<marker lat="30.366" lon="-87.2" site="Pensacola Bay (Florida, United States)"/>
<marker lat="33.666" lon="-84.433" site="South River, Ga. (Georgia, United States)"/>
<marker lat="37.316" lon="-78.283" site="Jamestown (Virginia) (Virginia, United States)"/>
<marker lat="39.0" lon="35.0" site="Turquie (Turkey)"/>
<marker lat="35.0" lon="38.0" site="Syria (Syria)"/>
<marker lat="29.666" lon="-84.95" site="Apalachicola Bay (Florida, United States)"/>
<marker lat="34.0" lon="-80.0" site="South Carolina (South Carolina, United States)"/>
<marker lat="42.366" lon="-71.5" site="Charles (Massachusetts, United States)"/>
<marker lat="43.7" lon="-69.833" site="Cape Small Point (Maine, United States)"/>
<marker lat="34.983" lon="-76.133" site="Portsmouth Island (North Carolina, United States)"/>
<marker lat="42.25" lon="-70.983" site="Town River (Massachusetts, United States)"/>
<marker lat="39.316" lon="-77.7" site="Sandy Hook, Md. (Maryland, United States)"/>
<marker lat="32.433" lon="-80.733" site="Port Royal Island (South Carolina, United States)"/>
<marker lat="34.483" lon="-90.6" site="Helena, Ark. (Arkansas, United States)"/>
<marker lat="42.0" lon="-70.633" site="Clarks Island (Massachusetts, United States)"/>
<marker lat="46.316" lon="-91.8" site="Saint Croix River (United States)"/>
<marker lat="44.0" lon="-4.0" site="Mare Cantabricum"/>
<marker lat="40.95" lon="-87.2" site="Iroquois (United States)"/>
<marker lat="42.1" lon="-72.85" site="Cook Brook (Massachusetts, United States)"/>
<marker lat="44.516" lon="-89.566" site="Stevens Point (Wisconsin, United States)"/>
<marker lat="42.433" lon="-76.483" site="Ithaca (New York, United States)"/>
<marker lat="41.15" lon="-81.35" site="Franklin Mills, Portage County, Ohio (Ohio, United States)"/>
<marker lat="53.166" lon="-0.333" site="Lincolnshire (United Kingdom)"/>
<marker lat="43.833" lon="-73.383" site="Fort Ticonderoga (New York, United States)"/>
<marker lat="34.0" lon="-86.0" site="Gadsden (Alabama, United States)"/>
<marker lat="42.7" lon="-72.616" site="Leydon (Massachusetts, United States)"/>
<marker lat="36.633" lon="-80.25" site="Stuart (Virginia, United States)"/>
<marker lat="39.166" lon="-91.866" site="Mexico, Mo. (Missouri, United States)"/>
<marker lat="41.7" lon="-70.216" site="Yarmouth (Massachusetts, United States)"/>
<marker lat="43.75" lon="-69.783" site="Fort Popham (Maine, United States)"/>
<marker lat="42.7" lon="-73.2" site="Williamstown (Massachusetts, United States)"/>
<marker lat="26.95" lon="-82.66" site="Charlotte Harbor (Florida, United States)"/>
<marker lat="45.0" lon="-90.0" site="Wisconsin (Wisconsin, United States)"/>
<marker lat="50.8" lon="-1.83" site="Portsmouth (United Kingdom)"/>
<marker lat="50.35" lon="-3.583" site="Dartmouth (United Kingdom)"/>
<marker lat="42.466" lon="-79.333" site="Dunkirk (New York, United States)"/>
<marker lat="37.65" lon="-78.466" site="Stouts Creek (Virginia, United States)"/>
<marker lat="40.783" lon="-73.966" site="Manhattan (New York, United States)"/>
<marker lat="41.266" lon="-72.8" site="Branford (Connecticut, United States)"/>
<marker lat="29.3" lon="-81.583" site="Lake George, Fla. (Florida, United States)"/>
<marker lat="42.5" lon="-70.166" site="Provincetown (Massachusetts, United States)"/>
<marker lat="38.8" lon="-80.616" site="Dutch (West Virginia, United States)"/>
<marker lat="40.75" lon="-73.816" site="Flushing, L. I. (New York, United States)"/>
<marker lat="30.433" lon="-86.3" site="Choctawhatchee Bay (Florida, United States)"/>
<marker lat="19.416" lon="-99.166" site="Mexico (Mexico, Mexico)"/>
<marker lat="-10.0" lon="-76.0" site="Peru (Peru)"/>
<marker lat="-10.0" lon="-55.0" site="Brazil (Brazil)"/>
<marker lat="48.866" lon="2.333" site="Department de Ville de Paris (France)"/>
<marker lat="37.4" lon="-78.816" site="Appomattox (Virginia, United States)"/>
<marker lat="38.316" lon="-77.466" site="Falmouth, Va. (Virginia, United States)"/>
<marker lat="44.583" lon="5.15" site="Bourdeaux (France)"/>
<marker lat="42.833" lon="12.833" site="Italy (Italy)"/>
<marker lat="39.5" lon="-8.0" site="Portugal (Portugal)"/>
<marker lat="62.0" lon="10.0" site="Norway (Norway)"/>
<marker lat="38.5" lon="-91.4" site="Amanda (Missouri, United States)"/>
<marker lat="35.33" lon="-89.233" site="La Grange (Tennessee, United States)"/>
<marker lat="41.933" lon="-70.666" site="Billington Sea (Massachusetts, United States)"/>
</markers>