<markers>
<marker lat="35.5" lon="-85.0" site="Tennessee (Tennessee, United States)"/>
<marker lat="30.666" lon="-91.266" site="Port Hudson (Louisiana, United States)"/>
<marker lat="33.733" lon="-84.383" site="Atlanta (Georgia, United States)"/>
<marker lat="36.2" lon="-83.283" site="Morristown, Tenn. (Tennessee, United States)"/>
<marker lat="41.15" lon="-79.65" site="Saint Petersburg (Pennsylvania, United States)"/>
<marker lat="35.766" lon="-91.633" site="Napoleon (Arkansas, United States)"/>
<marker lat="37.45" lon="-76.833" site="Barhamsville (Virginia, United States)"/>
<marker lat="40.833" lon="-76.0" site="Pennsylvania (Pennsylvania, United States)"/>
<marker lat="37.75" lon="-77.483" site="Hanover County (Virginia, United States)"/>
<marker lat="36.83" lon="-83.466" site="Mossy Creek (Tennessee, United States)"/>
<marker lat="37.516" lon="-76.783" site="York (Virginia, United States)"/>
<marker lat="34.633" lon="-87.9" site="Newsome Springs (Alabama, United States)"/>
<marker lat="31.983" lon="-97.166" site="Union Bluff (Texas, United States)"/>
<marker lat="41.433" lon="-82.7" site="Sandusky, Ohio (Ohio, United States)"/>
<marker lat="32.216" lon="-80.666" site="Hilton Head (South Carolina, United States)"/>
<marker lat="31.933" lon="-80.95" site="Warsaw Sound (Georgia, United States)"/>
<marker lat="35.866" lon="-76.733" site="Plymouth, N. C. (North Carolina, United States)"/>
<marker lat="38.7" lon="-77.783" site="Warrenton (Virginia, United States)"/>
<marker lat="40.15" lon="-76.383" site="Manheim (Pennsylvania, United States)"/>
<marker lat="37.95" lon="-76.733" site="Richmond county (Virginia, United States)"/>
<marker lat="32.383" lon="-88.683" site="Lauderdale (Mississippi, United States)"/>
<marker lat="38.0" lon="-98.0" site="United States (United States)"/>
<marker lat="60.0" lon="47.0" site="Russia (Russia)"/>
<marker lat="41.65" lon="-0.9" site="Caesaraugusta (Spain)"/>
<marker lat="31.0" lon="-92.0" site="Louisiana (Louisiana, United States)"/>
<marker lat="32.45" lon="-91.1" site="Milliken's Bend (Louisiana, United States)"/>
<marker lat="37.55" lon="-77.366" site="Henrico (Virginia, United States)"/>
<marker lat="35.783" lon="-84.25" site="Lenoirs (Tennessee, United States)"/>
<marker lat="36.2" lon="-86.283" site="Lebanon (Tennessee, United States)"/>
<marker lat="34.283" lon="-90.5" site="Tallahatchie River (Mississippi, United States)"/>
<marker lat="32.616" lon="-90.5" site="Mechanicsburg (Mississippi, United States)"/>
<marker lat="36.716" lon="-76.583" site="Suffolk, Va. (Virginia, United States)"/>
<marker lat="35.866" lon="-84.5" site="Kingston (Tennessee, United States)"/>
<marker lat="51.5" lon="10.5" site="Germany (Germany)"/>
<marker lat="33.633" lon="-90.333" site="Schlater (Mississippi, United States)"/>
<marker lat="34.716" lon="-86.583" site="Huntsville (Alabama, United States)"/>
<marker lat="35.516" lon="-86.333" site="Wartrace (Tennessee, United States)"/>
<marker lat="45.0" lon="-63.0" site="Nova Scotia (Canada)"/>
<marker lat="32.316" lon="-90.6" site="Edward's Depot (Mississippi, United States)"/>
<marker lat="37.8" lon="-85.466" site="Bardstown (Kentucky, United States)"/>
<marker lat="46.0" lon="2.0" site="France (France)"/>
<marker lat="47.333" lon="13.333" site="Austria (Austria)"/>
<marker lat="32.283" lon="-90.283" site="Bakers Creek (Mississippi, United States)"/>
<marker lat="36.66" lon="-86.33" site="Alexandria (Tennessee, United States)"/>
<marker lat="37.1" lon="-81.566" site="Tazewell (Virginia, United States)"/>
</markers>