<markers>
<marker lat="38.0" lon="-98.0" site="United States (United States)"/>
<marker lat="39.45" lon="-77.95" site="Martinsburg (West Virginia, United States)"/>
<marker lat="35.5" lon="-80.0" site="North Carolina (North Carolina, United States)"/>
<marker lat="39.0" lon="-76.833" site="Maryland (Maryland, United States)"/>
<marker lat="32.0" lon="-84.0" site="Georgia (Georgia, United States)"/>
<marker lat="46.0" lon="2.0" site="France (France)"/>
<marker lat="33.733" lon="-84.383" site="Atlanta (Georgia, United States)"/>
<marker lat="38.0" lon="-98.0" site="Missouri (Missouri, United States)"/>
<marker lat="38.433" lon="-85.166" site="New Castle, Ky. (Kentucky, United States)"/>
<marker lat="40.683" lon="-73.8" site="Jamaica, L. I. (New York, United States)"/>
<marker lat="39.583" lon="-75.566" site="Fort Delaware (Delaware, United States)"/>
<marker lat="30.666" lon="-91.266" site="Port Hudson (Louisiana, United States)"/>
<marker lat="34.983" lon="-81.233" site="Yorkville (South Carolina, United States)"/>
<marker lat="35.683" lon="-85.766" site="McMinnville (Tennessee, United States)"/>
<marker lat="42.8" lon="-83.0" site="Romeo (Michigan, United States)"/>
<marker lat="32.35" lon="-89.65" site="Morton (Mississippi, United States)"/>
<marker lat="38.8" lon="-77.33" site="Alexandria (Virginia, United States)"/>
<marker lat="40.0" lon="-86.0" site="Indiana (Indiana, United States)"/>
<marker lat="34.566" lon="-84.16" site="Lumpkin (Georgia, United States)"/>
<marker lat="40.833" lon="-76.0" site="Pennsylvania (Pennsylvania, United States)"/>
<marker lat="40.433" lon="-79.983" site="Pittsburgh (Pennsylvania, United States)"/>
<marker lat="32.283" lon="-90.183" site="Jackson (Mississippi, United States)"/>
<marker lat="34.35" lon="-83.5" site="Banks county (Georgia, United States)"/>
<marker lat="37.0" lon="-119.0" site="California (California, United States)"/>
<marker lat="39.0" lon="-105.0" site="Colorado (Colorado, United States)"/>
<marker lat="35.5" lon="-85.0" site="Tennessee (Tennessee, United States)"/>
<marker lat="36.416" lon="-77.583" site="Weldon, N. C. (North Carolina, United States)"/>
<marker lat="33.933" lon="-84.566" site="Cobb (Georgia, United States)"/>
<marker lat="37.1" lon="-80.683" site="Dublin (Virginia, United States)"/>
<marker lat="39.633" lon="-77.716" site="Hagerstown (Maryland, United States)"/>
<marker lat="39.83" lon="-77.65" site="Loudoun (Virginia, United States)"/>
<marker lat="43.633" lon="-70.216" site="Fort Preble (Maine, United States)"/>
<marker lat="32.45" lon="-84.983" site="Columbus (Georgia, United States)"/>
<marker lat="41.116" lon="-73.8" site="Westchester (New York, United States)"/>
<marker lat="37.1" lon="-85.3" site="Columbia, Ky. (Kentucky, United States)"/>
<marker lat="40.866" lon="-73.9" site="Harlem River (New York, United States)"/>
<marker lat="37.66" lon="-80.716" site="Pulaski (Virginia, United States)"/>
</markers>