<markers>
<marker lat="34.933" lon="-88.516" site="Corinth (Mississippi, United States)"/>
<marker lat="35.5" lon="-85.0" site="Tennessee (Tennessee, United States)"/>
<marker lat="33.0" lon="-90.0" site="Mississippi (Mississippi, United States)"/>
<marker lat="32.283" lon="-90.183" site="Jackson (Mississippi, United States)"/>
<marker lat="38.0" lon="-98.0" site="United States (United States)"/>
<marker lat="31.0" lon="-92.0" site="Louisiana (Louisiana, United States)"/>
<marker lat="33.0" lon="-87.0" site="Alabama (Alabama, United States)"/>
<marker lat="32.35" lon="-88.7" site="Meridian (Mississippi, United States)"/>
<marker lat="35.6" lon="-88.8" site="Jackson (Tennessee, United States)"/>
<marker lat="35.0" lon="-93.0" site="Arkansas (Arkansas, United States)"/>
<marker lat="34.766" lon="-89.433" site="Holly Springs (Mississippi, United States)"/>
<marker lat="32.0" lon="-84.0" site="Georgia (Georgia, United States)"/>
<marker lat="32.25" lon="-90.416" site="Raymond (Mississippi, United States)"/>
<marker lat="35.33" lon="-89.233" site="La Grange (Tennessee, United States)"/>
<marker lat="34.0" lon="-88.75" site="Okolona (Mississippi, United States)"/>
<marker lat="31.95" lon="-90.983" site="Port Gibson (Mississippi, United States)"/>
<marker lat="32.333" lon="-90.316" site="Clinton (Mississippi, United States)"/>
<marker lat="30.666" lon="-91.266" site="Port Hudson (Louisiana, United States)"/>
<marker lat="35.833" lon="-86.383" site="Murfreesboro (Tennessee, United States)"/>
<marker lat="36.166" lon="-86.75" site="Edgefield (Tennessee, United States)"/>
<marker lat="33.733" lon="-84.383" site="Atlanta (Georgia, United States)"/>
<marker lat="38.0" lon="-98.0" site="Missouri (Missouri, United States)"/>
<marker lat="47.233" lon="-95.2" site="Mississippi (United States)"/>
<marker lat="37.66" lon="-88.55" site="Tennessee River (United States)"/>
<marker lat="34.716" lon="-88.95" site="Ripley (Mississippi, United States)"/>
<marker lat="33.6" lon="-88.65" site="West Point (Mississippi, United States)"/>
<marker lat="38.3" lon="-77.45" site="Fredericksburg, Va. (Virginia, United States)"/>
<marker lat="35.25" lon="-88.983" site="Bolivar, Tenn. (Tennessee, United States)"/>
<marker lat="34.8" lon="-88.183" site="Iuka (Mississippi, United States)"/>
<marker lat="32.85" lon="-90.4" site="Yazoo City (Mississippi, United States)"/>
<marker lat="32.4" lon="-90.833" site="Chickasaw Bayou (Mississippi, United States)"/>
<marker lat="38.3" lon="-77.633" site="Chancellorsville (Virginia, United States)"/>
<marker lat="33.533" lon="-90.166" site="Yazoo River (United States)"/>
<marker lat="36.483" lon="-87.85" site="Fort Donelson (Tennessee, United States)"/>
<marker lat="32.4" lon="-87.16" site="Selma (Alabama, United States)"/>
<marker lat="19.416" lon="-99.166" site="Mexico (Mexico, Mexico)"/>
<marker lat="32.783" lon="-90.183" site="Deer Creek (Mississippi, United States)"/>
<marker lat="33.816" lon="-88.533" site="Aberdeen (Mississippi, United States)"/>
<marker lat="34.433" lon="-88.65" site="Guntown (Mississippi, United States)"/>
<marker lat="36.983" lon="-86.433" site="Bowling Green (Kentucky, United States)"/>
<marker lat="38.4" lon="-79.566" site="Monterey (Virginia, United States)"/>
<marker lat="35.95" lon="-83.916" site="Knoxville (Tennessee, United States)"/>
<marker lat="34.916" lon="-88.45" site="Farmington (Mississippi, United States)"/>
<marker lat="37.0" lon="-80.0" site="Virginia (Virginia, United States)"/>
<marker lat="32.316" lon="-90.6" site="Edward's Depot (Mississippi, United States)"/>
<marker lat="32.283" lon="-90.283" site="Bakers Creek (Mississippi, United States)"/>
<marker lat="34.75" lon="-88.516" site="Rienzi (Mississippi, United States)"/>
<marker lat="34.75" lon="-88.416" site="Jacinto (Mississippi, United States)"/>
<marker lat="35.95" lon="-87.366" site="Missionary Ridge, Tenn. (Tennessee, United States)"/>
<marker lat="31.933" lon="-91.15" site="Bruinsburg (Mississippi, United States)"/>
<marker lat="39.0" lon="-76.833" site="Maryland (Maryland, United States)"/>
<marker lat="35.33" lon="-89.183" site="Grand Junction (Tennessee, United States)"/>
<marker lat="35.15" lon="-88.316" site="Pittsburg Landing (Tennessee, United States)"/>
<marker lat="34.566" lon="-84.933" site="Resaca (Georgia, United States)"/>
<marker lat="32.233" lon="-90.916" site="Warrenton (Mississippi, United States)"/>
<marker lat="35.5" lon="-80.0" site="North Carolina (North Carolina, United States)"/>
<marker lat="36.466" lon="-89.466" site="Island Number Ten (Missouri, United States)"/>
<marker lat="39.45" lon="-77.733" site="Sharpsburg (Maryland, United States)"/>
<marker lat="33.883" lon="-88.716" site="Egypt Station (Mississippi, United States)"/>
<marker lat="37.4" lon="-78.816" site="Appomattox (Virginia, United States)"/>
<marker lat="30.3" lon="-89.233" site="Pass Christian (Mississippi, United States)"/>
<marker lat="35.216" lon="-88.516" site="Purdy (Tennessee, United States)"/>
<marker lat="30.383" lon="-88.883" site="Biloxi (Mississippi, United States)"/>
<marker lat="32.516" lon="-87.833" site="Demopolis (Alabama, United States)"/>
<marker lat="37.0" lon="-85.0" site="Kentucky (Kentucky, United States)"/>
<marker lat="38.25" lon="-85.75" site="Louisville (Kentucky, United States)"/>
<marker lat="39.316" lon="-77.733" site="Harper's Ferry (West Virginia, United States)"/>
<marker lat="32.45" lon="-91.1" site="Milliken's Bend (Louisiana, United States)"/>
<marker lat="33.966" lon="-89.666" site="Coffeeville (Mississippi, United States)"/>
<marker lat="33.683" lon="-89.116" site="Big Black (Mississippi, United States)"/>
<marker lat="37.383" lon="-77.233" site="Malvern Hill (Virginia, United States)"/>
<marker lat="31.566" lon="-90.433" site="Brookhaven (Mississippi, United States)"/>
<marker lat="37.266" lon="-85.883" site="Munfordville (Kentucky, United States)"/>
<marker lat="35.633" lon="-89.833" site="Fort Pillow (Tennessee, United States)"/>
<marker lat="31.966" lon="-88.7" site="De Soto (Mississippi, United States)"/>
<marker lat="33.666" lon="-88.8" site="Palo Alto (Mississippi, United States)"/>
<marker lat="34.5" lon="-89.5" site="Abbeville (Mississippi, United States)"/>
<marker lat="39.366" lon="-87.0" site="Bowling Green (Indiana, United States)"/>
<marker lat="32.5" lon="-90.783" site="Haynes Bluff (Mississippi, United States)"/>
<marker lat="30.366" lon="-86.916" site="Santa Rosa Island (Florida, United States)"/>
<marker lat="35.833" lon="-87.233" site="Lick Creek (Tennessee, United States)"/>
<marker lat="32.66" lon="-99.83" site="Red River (Texas, United States)"/>
<marker lat="37.233" lon="-76.5" site="Yorktown (Virginia, United States)"/>
<marker lat="34.1" lon="-84.7" site="Allatoona (Georgia, United States)"/>
<marker lat="29.35" lon="-89.516" site="Buras (Louisiana, United States)"/>
<marker lat="31.1" lon="-91.283" site="Woodville (Mississippi, United States)"/>
<marker lat="38.666" lon="-98.0" site="Kansas (Kansas, United States)"/>
<marker lat="40.0" lon="-89.0" site="Illinois (Illinois, United States)"/>
<marker lat="34.766" lon="-84.966" site="Dalton, Ga. (Georgia, United States)"/>
<marker lat="35.75" lon="-86.916" site="Spring Hill (Tennessee, United States)"/>
<marker lat="37.0" lon="-119.0" site="California (California, United States)"/>
<marker lat="33.816" lon="-84.35" site="Peachtree Creek (Georgia, United States)"/>
<marker lat="32.333" lon="-90.45" site="Bolton's Depot (Mississippi, United States)"/>
<marker lat="34.833" lon="-88.3" site="Burnsville (Mississippi, United States)"/>
<marker lat="39.383" lon="-84.55" site="Fort Hamilton (Ohio, United States)"/>
<marker lat="37.583" lon="-77.3" site="Gaines Mill (Virginia, United States)"/>
<marker lat="37.266" lon="-76.7" site="Williamsburg (Virginia, United States)"/>
<marker lat="33.45" lon="-88.816" site="Starkville (Mississippi, United States)"/>
<marker lat="30.316" lon="-87.3" site="Fort McRae (Florida, United States)"/>
<marker lat="37.516" lon="-84.65" site="Stanford, Ky. (Kentucky, United States)"/>
<marker lat="30.216" lon="-88.916" site="Ship Island (Mississippi, United States)"/>
<marker lat="34.566" lon="-88.766" site="Tishomingo Creek (Mississippi, United States)"/>
<marker lat="37.1" lon="-82.716" site="Cumberland River (Kentucky, United States)"/>
<marker lat="31.933" lon="-90.933" site="Claiborne (Mississippi, United States)"/>
<marker lat="35.5" lon="-88.483" site="Caffey (Tennessee, United States)"/>
<marker lat="35.85" lon="-86.4" site="Rutherford (Tennessee, United States)"/>
<marker lat="33.883" lon="-88.983" site="Houston (Mississippi, United States)"/>
<marker lat="32.35" lon="-90.866" site="Vicksburg (Mississippi, United States)"/>
<marker lat="35.33" lon="-89.65" site="Collierville (Tennessee, United States)"/>
<marker lat="32.816" lon="-91.2" site="Lake Providence (Louisiana, United States)"/>
<marker lat="34.633" lon="-90.433" site="Austin (Mississippi, United States)"/>
<marker lat="33.5" lon="-90.166" site="Greenwood (Mississippi, United States)"/>
<marker lat="31.85" lon="-90.383" site="Hazlehurst (Mississippi, United States)"/>
<marker lat="37.65" lon="-84.95" site="Perryville (Kentucky, United States)"/>
<marker lat="34.816" lon="-89.316" site="Coldwater (Mississippi, United States)"/>
<marker lat="38.833" lon="-91.933" site="Fulton, Mo. (Missouri, United States)"/>
<marker lat="30.316" lon="-87.283" site="Fort Pickens (Florida, United States)"/>
<marker lat="33.516" lon="-84.35" site="Jonesboro (Georgia, United States)"/>
<marker lat="33.966" lon="-84.566" site="Kenesaw Mountain (Georgia, United States)"/>
<marker lat="38.2" lon="-77.583" site="Spottsylvania (Virginia, United States)"/>
<marker lat="39.816" lon="-77.216" site="Cemetery Hill (Pennsylvania, United States)"/>
<marker lat="35.3" lon="-88.166" site="Cerro Gordo, Tenn. (Tennessee, United States)"/>
<marker lat="34.716" lon="-88.216" site="Tishomingo (Mississippi, United States)"/>
<marker lat="32.816" lon="-90.366" site="Yazoo (Mississippi, United States)"/>
<marker lat="37.516" lon="-76.783" site="West Point (Virginia, United States)"/>
<marker lat="35.216" lon="-88.233" site="Savannah, Tenn. (Tennessee, United States)"/>
<marker lat="37.183" lon="-76.433" site="Goose Creek (Virginia, United States)"/>
<marker lat="37.83" lon="-88.6" site="Paducah (Kentucky, United States)"/>
<marker lat="34.9" lon="-85.1" site="Ringgold, Ga. (Georgia, United States)"/>
<marker lat="38.8" lon="-77.33" site="Alexandria (Virginia, United States)"/>
<marker lat="42.516" lon="-70.883" site="Salem (Massachusetts, United States)"/>
<marker lat="39.766" lon="-94.833" site="St. Joseph, Mo. (Missouri, United States)"/>
<marker lat="34.183" lon="-88.716" site="Verona (Mississippi, United States)"/>
<marker lat="33.483" lon="-88.416" site="Columbus (Mississippi, United States)"/>
<marker lat="34.0" lon="-80.0" site="South Carolina (South Carolina, United States)"/>
<marker lat="40.833" lon="-76.0" site="Pennsylvania (Pennsylvania, United States)"/>
<marker lat="30.416" lon="-87.216" site="Pensacola (Florida, United States)"/>
<marker lat="35.583" lon="-89.25" site="Brownsville, Tenn. (Tennessee, United States)"/>
<marker lat="34.75" lon="-87.966" site="Cherokee, Ala. (Alabama, United States)"/>
<marker lat="32.616" lon="-90.5" site="Mechanicsburg (Mississippi, United States)"/>
<marker lat="34.33" lon="-84.733" site="Pickett's Mill (Georgia, United States)"/>
<marker lat="32.433" lon="-90.433" site="Brownsville (Mississippi, United States)"/>
<marker lat="32.866" lon="-90.8" site="Little Sunflower River (Mississippi, United States)"/>
<marker lat="34.116" lon="-89.16" site="Chuquatonchee Creek (Mississippi, United States)"/>
<marker lat="32.65" lon="-89.933" site="Sharon (Mississippi, United States)"/>
<marker lat="35.716" lon="-86.6" site="Harpeth River (Tennessee, United States)"/>
<marker lat="35.8" lon="-86.9" site="Thompson's Station (Tennessee, United States)"/>
<marker lat="32.166" lon="-88.816" site="Enterprise (Mississippi, United States)"/>
<marker lat="36.75" lon="-89.1" site="Columbus, Ky. (Kentucky, United States)"/>
<marker lat="41.216" lon="-85.316" site="Churubusco (Indiana, United States)"/>
<marker lat="34.416" lon="-88.366" site="Sandy Springs (Mississippi, United States)"/>
<marker lat="32.366" lon="-90.866" site="Fort Hill (Mississippi, United States)"/>
<marker lat="35.183" lon="-88.483" site="Owl Creek (Tennessee, United States)"/>
<marker lat="32.9" lon="-90.866" site="Rolling Fork (Mississippi, United States)"/>
<marker lat="32.433" lon="-89.1" site="Decatur (Mississippi, United States)"/>
<marker lat="31.983" lon="-90.35" site="Crystal Springs (Mississippi, United States)"/>
<marker lat="36.416" lon="-89.5" site="Union City (Tennessee, United States)"/>
<marker lat="34.216" lon="-90.566" site="Coahoma County (Mississippi, United States)"/>
<marker lat="33.533" lon="-90.5" site="Roundaway Bayou (Mississippi, United States)"/>
<marker lat="33.766" lon="-90.783" site="Bolivar county (Mississippi, United States)"/>
<marker lat="37.733" lon="-84.3" site="Madison County (Kentucky, United States)"/>
<marker lat="34.5" lon="-88.716" site="Bethany (Mississippi, United States)"/>
<marker lat="34.95" lon="-90.16" site="Horn Lake (Mississippi, United States)"/>
<marker lat="34.5" lon="-89.9" site="Oakland (Mississippi, United States)"/>
<marker lat="35.533" lon="-89.733" site="Tipton (Tennessee, United States)"/>
<marker lat="36.5" lon="-88.5" site="Fort Heiman (Kentucky, United States)"/>
<marker lat="34.816" lon="-89.766" site="Ingrams Mill (Mississippi, United States)"/>
<marker lat="37.933" lon="-80.833" site="Sewell Mountain (West Virginia, United States)"/>
<marker lat="33.95" lon="-84.55" site="Marietta (Georgia, United States)"/>
<marker lat="38.15" lon="-78.83" site="North Anna (Virginia, United States)"/>
<marker lat="35.666" lon="-86.416" site="Fosterville (Tennessee, United States)"/>
<marker lat="31.666" lon="-96.35" site="Cotton Gin (Texas, United States)"/>
<marker lat="39.333" lon="-77.716" site="Maryland Heights (Maryland, United States)"/>
<marker lat="34.833" lon="-90.3" site="Dales Point (Mississippi, United States)"/>
<marker lat="33.883" lon="-97.85" site="Fleetwood (Oklahoma, United States)"/>
<marker lat="35.5" lon="-89.4" site="Moscow, Tenn. (Tennessee, United States)"/>
<marker lat="35.383" lon="-77.983" site="Goldsboro (North Carolina, United States)"/>
<marker lat="30.25" lon="-89.0" site="Mississippi Sound (United States)"/>
<marker lat="36.316" lon="-83.433" site="Richland Creek (Tennessee, United States)"/>
<marker lat="36.1" lon="-84.116" site="Clinton (Tennessee, United States)"/>
<marker lat="36.16" lon="-87.966" site="Johnsonville, Tenn. (Tennessee, United States)"/>
<marker lat="33.866" lon="-88.433" site="Athens, Mississippi (Mississippi, United States)"/>
<marker lat="38.35" lon="-78.833" site="Cross Keys (Virginia, United States)"/>
<marker lat="39.5" lon="-77.65" site="Boonsboro (Maryland, United States)"/>
<marker lat="33.383" lon="-89.366" site="Bankston (Mississippi, United States)"/>
<marker lat="33.783" lon="-88.666" site="Prairie Station (Mississippi, United States)"/>
<marker lat="40.0" lon="-75.0" site="New Jersey (New Jersey, United States)"/>
<marker lat="36.85" lon="-87.483" site="Hopkinsville, Ky. (Kentucky, United States)"/>
<marker lat="36.66" lon="-79.783" site="Greensboro (North Carolina, United States)"/>
<marker lat="25.9" lon="-97.483" site="Fort Taylor (Texas, United States)"/>
<marker lat="32.33" lon="-89.516" site="Raleigh (Mississippi, United States)"/>
<marker lat="35.1" lon="-77.33" site="New Bern (North Carolina, United States)"/>
<marker lat="32.1" lon="-93.55" site="Bayou Pierre Lake (Louisiana, United States)"/>
<marker lat="38.416" lon="-77.4" site="Stafford Court House (Virginia, United States)"/>
<marker lat="33.2" lon="-87.566" site="Shelbyville (Alabama, United States)"/>
<marker lat="30.183" lon="-82.633" site="Lake City (Florida, United States)"/>
<marker lat="32.316" lon="-87.1" site="Cahawba (Alabama, United States)"/>
<marker lat="40.66" lon="-74.85" site="Burlington (New Jersey, United States)"/>
<marker lat="31.83" lon="-88.216" site="Citronelle (Alabama, United States)"/>
<marker lat="39.4" lon="-77.65" site="Pleasant Valley (Maryland, United States)"/>
</markers>