<markers>
<marker lat="40.833" lon="-76.0" site="Pennsylvania (Pennsylvania, United States)"/>
<marker lat="37.65" lon="-84.95" site="Perryville (Kentucky, United States)"/>
<marker lat="40.0" lon="-86.0" site="Indiana (Indiana, United States)"/>
<marker lat="42.0" lon="-93.0" site="Iowa (Iowa, United States)"/>
<marker lat="39.316" lon="-77.733" site="Harper's Ferry (West Virginia, United States)"/>
<marker lat="37.25" lon="-84.866" site="Gilpin (Kentucky, United States)"/>
<marker lat="37.683" lon="-84.65" site="Camp Dick Robinson (Kentucky, United States)"/>
<marker lat="46.0" lon="2.0" site="France (France)"/>
<marker lat="39.0" lon="-76.833" site="Maryland (Maryland, United States)"/>
<marker lat="36.983" lon="-89.133" site="Ohio (United States)"/>
<marker lat="53.4" lon="-3.33" site="Birkenhead (United Kingdom)"/>
<marker lat="37.75" lon="-84.833" site="Harrodsburg (Kentucky, United States)"/>
<marker lat="31.0" lon="-92.0" site="Louisiana (Louisiana, United States)"/>
<marker lat="35.5" lon="-80.0" site="North Carolina (North Carolina, United States)"/>
<marker lat="40.216" lon="-74.733" site="Chambersburg (New Jersey, United States)"/>
<marker lat="38.916" lon="-76.616" site="Davidsonville (Maryland, United States)"/>
<marker lat="42.833" lon="12.833" site="Italy (Italy)"/>
<marker lat="35.25" lon="-88.983" site="Bolivar, Tenn. (Tennessee, United States)"/>
<marker lat="36.383" lon="-86.433" site="Gallatin, Tenn. (Tennessee, United States)"/>
<marker lat="30.216" lon="-90.9" site="Ascension Parish, La. (Louisiana, United States)"/>
<marker lat="38.633" lon="-83.733" site="Maysville, Ky. (Kentucky, United States)"/>
<marker lat="39.333" lon="-77.716" site="Maryland Heights (Maryland, United States)"/>
<marker lat="45.0" lon="-69.0" site="Maine (Maine, United States)"/>
<marker lat="36.983" lon="-86.433" site="Bowling Green (Kentucky, United States)"/>
<marker lat="44.283" lon="-68.416" site="Butler's Hill (Maine, United States)"/>
<marker lat="42.483" lon="-90.866" site="Dubuque County (Iowa, United States)"/>
<marker lat="38.7" lon="-77.783" site="Warrenton (Virginia, United States)"/>
<marker lat="37.516" lon="-76.783" site="West Point (Virginia, United States)"/>
<marker lat="37.733" lon="-84.283" site="Richmond, Ky. (Kentucky, United States)"/>
<marker lat="38.0" lon="-98.0" site="United States (United States)"/>
<marker lat="40.0" lon="-89.0" site="Illinois (Illinois, United States)"/>
<marker lat="32.0" lon="-84.0" site="Georgia (Georgia, United States)"/>
<marker lat="45.66" lon="7.666" site="Turin (Italy)"/>
<marker lat="40.716" lon="-80.283" site="Marion Hill (Pennsylvania, United States)"/>
<marker lat="38.833" lon="-76.85" site="Prince Georges (Maryland, United States)"/>
<marker lat="41.833" lon="-72.833" site="Connecticut (Connecticut, United States)"/>
<marker lat="42.316" lon="-70.916" site="Fort Warren (Massachusetts, United States)"/>
<marker lat="39.45" lon="-77.733" site="Sharpsburg (Maryland, United States)"/>
<marker lat="38.716" lon="-27.216" site="Terceira (Portugal)"/>
<marker lat="40.766" lon="-111.883" site="Capitol (Utah, United States)"/>
<marker lat="41.816" lon="-79.683" site="Spartansburg (Pennsylvania, United States)"/>
<marker lat="37.33" lon="-89.183" site="Cairo, Ill. (Illinois, United States)"/>
<marker lat="37.45" lon="-84.5" site="Crab Orchard, Ky. (Kentucky, United States)"/>
<marker lat="43.9" lon="-69.95" site="Brunswick, Me. (Maine, United States)"/>
<marker lat="42.366" lon="-71.5" site="Charlestown, Mass. (Massachusetts, United States)"/>
<marker lat="37.8" lon="-85.466" site="Bardstown (Kentucky, United States)"/>
<marker lat="36.583" lon="-79.383" site="Danville (Virginia, United States)"/>
<marker lat="39.5" lon="-8.0" site="Portugal (Portugal)"/>
<marker lat="36.916" lon="-81.5" site="Wythe (Virginia, United States)"/>
</markers>