<markers>
<marker lat="38.1" lon="-82.6" site="Louisa, Ky. (Kentucky, United States)"/>
<marker lat="35.216" lon="-80.833" site="Charlotte (North Carolina, United States)"/>
<marker lat="37.55" lon="-77.45" site="Richmond (Virginia, United States)"/>
<marker lat="35.266" lon="-80.85" site="Mecklenburg (North Carolina, United States)"/>
<marker lat="39.583" lon="-75.566" site="Fort Delaware (Delaware, United States)"/>
<marker lat="30.566" lon="-81.683" site="Nassau River (Florida, United States)"/>
<marker lat="37.366" lon="-77.5" site="Chesterfield (Virginia, United States)"/>
<marker lat="40.16" lon="-78.5" site="Fort Bedford (Pennsylvania, United States)"/>
<marker lat="37.333" lon="-77.966" site="Amelia Court House (Virginia, United States)"/>
<marker lat="37.383" lon="-77.233" site="Malvern Hill (Virginia, United States)"/>
<marker lat="37.75" lon="-77.366" site="Hanover Court House (Virginia, United States)"/>
<marker lat="37.133" lon="-78.66" site="Nottoway (Virginia, United States)"/>
<marker lat="39.33" lon="-80.816" site="Cox's Mill (West Virginia, United States)"/>
<marker lat="38.233" lon="-78.1" site="Orange Court House (Virginia, United States)"/>
<marker lat="35.683" lon="-85.766" site="McMinnville (Tennessee, United States)"/>
<marker lat="37.3" lon="-77.15" site="Westover (Virginia, United States)"/>
<marker lat="38.0" lon="-98.0" site="United States (United States)"/>
<marker lat="35.5" lon="-85.0" site="Tennessee (Tennessee, United States)"/>
<marker lat="33.55" lon="-81.716" site="Plunkett (South Carolina, United States)"/>
<marker lat="36.7" lon="-77.933" site="Diamond Grove (Virginia, United States)"/>
<marker lat="37.516" lon="-76.783" site="York (Virginia, United States)"/>
<marker lat="42.583" lon="-71.716" site="Lunenburg, Ma. (Massachusetts, United States)"/>
<marker lat="36.533" lon="-76.9" site="Chowan River (United States)"/>
<marker lat="38.383" lon="-78.883" site="Rockingham, Va. (Virginia, United States)"/>
<marker lat="39.0" lon="-76.833" site="Maryland (Maryland, United States)"/>
<marker lat="35.583" lon="-78.8" site="Varina (North Carolina, United States)"/>
<marker lat="35.666" lon="-80.466" site="Salisbury, N. C. (North Carolina, United States)"/>
<marker lat="36.5" lon="-77.633" site="Gaston, N. C. (North Carolina, United States)"/>
<marker lat="33.0" lon="-87.0" site="Alabama (Alabama, United States)"/>
<marker lat="37.483" lon="-77.0" site="New Kent (Virginia, United States)"/>
<marker lat="37.116" lon="-80.4" site="Christiansburg (Virginia, United States)"/>
<marker lat="37.4" lon="-76.516" site="Gloucester, Va. (Virginia, United States)"/>
<marker lat="31.566" lon="-93.483" site="Manny (Louisiana, United States)"/>
<marker lat="37.6" lon="-76.566" site="Middlesex County (Virginia, United States)"/>
<marker lat="37.95" lon="-80.716" site="Little Sewell Mountain (West Virginia, United States)"/>
<marker lat="37.266" lon="-93.35" site="Greene County (Missouri, United States)"/>
<marker lat="37.516" lon="-76.783" site="West Point (Virginia, United States)"/>
<marker lat="36.483" lon="-87.85" site="Fort Donelson (Tennessee, United States)"/>
<marker lat="37.266" lon="-79.933" site="Big Lick (Virginia, United States)"/>
<marker lat="37.7" lon="-77.616" site="Chickahominy (Virginia, United States)"/>
<marker lat="40.616" lon="-80.116" site="Westmoreland County (Pennsylvania, United States)"/>
<marker lat="37.683" lon="-77.83" site="King William County (Virginia, United States)"/>
<marker lat="38.8" lon="-77.33" site="Alexandria (Virginia, United States)"/>
<marker lat="32.0" lon="-84.0" site="Georgia (Georgia, United States)"/>
<marker lat="42.516" lon="-70.883" site="Salem (Massachusetts, United States)"/>
<marker lat="39.0" lon="-75.666" site="Delaware (Delaware, United States)"/>
<marker lat="36.866" lon="-78.783" site="Mount Laurel (Virginia, United States)"/>
<marker lat="35.5" lon="-80.0" site="North Carolina (North Carolina, United States)"/>
<marker lat="40.833" lon="-76.0" site="Pennsylvania (Pennsylvania, United States)"/>
<marker lat="38.833" lon="-76.85" site="Prince Georges (Maryland, United States)"/>
<marker lat="41.816" lon="-71.4" site="Providence, R. I. (Rhode Island, United States)"/>
<marker lat="32.4" lon="-87.16" site="Selma (Alabama, United States)"/>
<marker lat="38.983" lon="-78.35" site="Strasburg, Va. (Virginia, United States)"/>
<marker lat="42.316" lon="-70.916" site="Fort Warren (Massachusetts, United States)"/>
<marker lat="39.333" lon="-78.75" site="Romney (West Virginia, United States)"/>
<marker lat="39.0" lon="-77.333" site="Dranesville (Virginia, United States)"/>
<marker lat="39.85" lon="-91.916" site="Burksville (Missouri, United States)"/>
<marker lat="36.166" lon="-86.75" site="Edgefield (Tennessee, United States)"/>
<marker lat="39.83" lon="-77.65" site="Loudoun (Virginia, United States)"/>
<marker lat="38.7" lon="-77.483" site="Prince William (Virginia, United States)"/>
<marker lat="34.0" lon="-81.33" site="Columbia (South Carolina, United States)"/>
<marker lat="40.183" lon="-79.516" site="Southwest (Pennsylvania, United States)"/>
<marker lat="36.183" lon="-76.45" site="Hertford, N. C. (North Carolina, United States)"/>
<marker lat="38.33" lon="-77.35" site="Caroline (Virginia, United States)"/>
<marker lat="50.9" lon="-1.4" site="Southampton (United Kingdom)"/>
<marker lat="38.433" lon="-78.866" site="Harrisonburg, Va. (Virginia, United States)"/>
<marker lat="37.9" lon="-80.65" site="Meadow Bluff (West Virginia, United States)"/>
<marker lat="39.83" lon="-84.5" site="Covington (Kentucky, United States)"/>
<marker lat="36.4" lon="-79.35" site="Caswell (North Carolina, United States)"/>
<marker lat="37.416" lon="-77.866" site="Mattoax (Virginia, United States)"/>
<marker lat="37.4" lon="-78.816" site="Appomattox (Virginia, United States)"/>
<marker lat="39.833" lon="-74.4" site="Red Oak Grove (New Jersey, United States)"/>
<marker lat="38.5" lon="-77.966" site="Culpeper (Virginia, United States)"/>
<marker lat="31.75" lon="-81.216" site="Belle Island (Georgia, United States)"/>
<marker lat="38.3" lon="-80.833" site="Nicholas County (West Virginia, United States)"/>
<marker lat="36.666" lon="-79.883" site="Henry (Virginia, United States)"/>
<marker lat="36.5" lon="-88.0" site="Fort Henry (Tennessee, United States)"/>
<marker lat="36.816" lon="-79.4" site="Pittsylvania (Virginia, United States)"/>
<marker lat="37.583" lon="-80.533" site="Union, Monroe County (West Virginia, United States)"/>
<marker lat="36.933" lon="-82.83" site="Russell County (Virginia, United States)"/>
<marker lat="36.65" lon="-82.816" site="Drakes Branch (Virginia, United States)"/>
<marker lat="37.0" lon="-78.683" site="Charlotte county (Virginia, United States)"/>
<marker lat="39.45" lon="-78.33" site="Berkeley County (West Virginia, United States)"/>
</markers>