<markers>
<marker lat="41.9" lon="12.4833" site="Rome (Italy)"/>
<marker lat="40.166" lon="30.25" site="Bithynia (Turkey)"/>
<marker lat="38.883" lon="-77.33" site="Washington (United States)"/>
<marker lat="45.45" lon="11.0" site="Verona (Italy)"/>
<marker lat="45.483" lon="10.6" site="Sirmio (Italy)"/>
<marker lat="42.833" lon="12.833" site="Italy (Italy)"/>
<marker lat="37.283" lon="-108.33" site="Hesperus (Colorado, United States)"/>
<marker lat="35.0" lon="38.0" site="Syria (Syria)"/>
<marker lat="40.0" lon="-4.0" site="Spain (Spain)"/>
<marker lat="45.55" lon="10.25" site="Brixia (Italy)"/>
<marker lat="46.0" lon="2.0" site="France (France)"/>
<marker lat="44.5" lon="-76.683" site="Verona (Canada)"/>
<marker lat="42.0" lon="38.0" site="Pontus"/>
<marker lat="39.166" lon="16.15" site="Lago (Italy)"/>
<marker lat="32.833" lon="21.866" site="Cyrene (Libya)"/>
<marker lat="39.0" lon="22.0" site="Greece (Greece)"/>
<marker lat="35.0" lon="33.0" site="Cyprus (Cyprus)"/>
<marker lat="35.166" lon="25.0" site="Crete (Greece)"/>
<marker lat="39.5" lon="22.25" site="Thessaly (Greece)"/>
<marker lat="37.9667" lon="23.7333" site="Athens (Greece)"/>
<marker lat="27.0" lon="30.0" site="Egypt (Egypt)"/>
<marker lat="41.333" lon="26.75" site="Thrace (Greece)"/>
<marker lat="45.8" lon="9.83" site="Como (Italy)"/>
<marker lat="37.5" lon="28.0" site="Caria (Turkey)"/>
<marker lat="43.8333" lon="10.4833" site="Luca (Italy)"/>
<marker lat="45.566" lon="10.716" site="Garda (Italy)"/>
<marker lat="45.433" lon="11.0" site="Verona (Italy)"/>
<marker lat="41.833" lon="22.0" site="Macedonia (Macedonia)"/>
<marker lat="38.325" lon="23.3333" site="Thebes (Greece)"/>
<marker lat="41.75" lon="32.4" site="Amastris"/>
<marker lat="43.6333" lon="13.5" site="Ancona (Italy)"/>
<marker lat="31.0" lon="22.5" site="Cyrenaica (Libya)"/>
<marker lat="37.816" lon="15.283" site="Naxos (Italy)"/>
<marker lat="43.816" lon="-72.716" site="Olympus (Vermont, United States)"/>
<marker lat="40.75" lon="14.45" site="Pompeii (Italy)"/>
<marker lat="25.0" lon="17.0" site="Libya (Libya)"/>
<marker lat="43.15" lon="13.733" site="Firmum (Italy)"/>
<marker lat="39.283" lon="31.533" site="Pessinus (Turkey)"/>
<marker lat="45.7833" lon="9.08333" site="Comum (Italy)"/>
<marker lat="41.7" lon="-71.15" site="Troy (Massachusetts, United States)"/>
<marker lat="45.55" lon="10.216" site="Brescia (Italy)"/>
<marker lat="38.566" lon="23.833" site="Euboea (Greece)"/>
<marker lat="38.5" lon="25.0" site="Aegean"/>
<marker lat="36.8" lon="34.6333" site="Zephyrion"/>
<marker lat="31.2" lon="29.9" site="Alexandria (Egypt)"/>
<marker lat="41.9667" lon="12.8" site="Tibur (Italy)"/>
<marker lat="45.133" lon="10.16" site="Cenomani (Italy)"/>
<marker lat="37.8667" lon="28.1667" site="Nysa (Turkey)"/>
<marker lat="43.9" lon="12.9" site="Pesaro (Italy)"/>
<marker lat="40.45" lon="29.7167" site="Nicaea (Turkey)"/>
<marker lat="32.116" lon="20.66" site="Berenice (Libya)"/>
<marker lat="39.283" lon="22.383" site="Pharsalus (Greece)"/>
<marker lat="31.75" lon="35.583" site="Jordan"/>
<marker lat="37.5" lon="14.0" site="Sicily (Italy)"/>
<marker lat="42.2" lon="-71.183" site="Ellis (Massachusetts, United States)"/>
<marker lat="44.5" lon="8.833" site="Liguria (Italy)"/>
<marker lat="42.0" lon="46.833" site="Caucasus"/>
<marker lat="19.466" lon="30.333" site="Argo (Sudan)"/>
<marker lat="40.9667" lon="15.8167" site="Venusia (Italy)"/>
<marker lat="40.116" lon="-86.0" site="Cicero (Indiana, United States)"/>
<marker lat="45.466" lon="9.2" site="Milan (Italy)"/>
<marker lat="31.166" lon="29.883" site="Canopus (Egypt)"/>
<marker lat="38.0" lon="23.733" site="Athens (Greece)"/>
<marker lat="37.0" lon="-119.0" site="California (California, United States)"/>
<marker lat="38.866" lon="-75.333" site="Argo (Delaware, United States)"/>
<marker lat="29.2" lon="25.516" site="Siwah (Egypt)"/>
<marker lat="42.633" lon="-122.216" site="Lucifer (Oregon, United States)"/>
<marker lat="46.4" lon="-95.733" site="Amor (Minnesota, United States)"/>
<marker lat="41.583" lon="-74.133" site="St. Elmo (New York, United States)"/>
<marker lat="40.75" lon="23.833" site="Struma"/>
<marker lat="41.266" lon="13.616" site="Formiae (Italy)"/>
<marker lat="31.866" lon="-93.883" site="Sabine (United States)"/>
<marker lat="38.166" lon="-92.33" site="Venus (Missouri, United States)"/>
<marker lat="53.416" lon="-2.85" site="Roby (United Kingdom)"/>
<marker lat="20.0" lon="77.0" site="India (India)"/>
<marker lat="47.333" lon="13.333" site="Austria (Austria)"/>
<marker lat="-5.0" lon="120.0" site="East Indies (Indonesia)"/>
<marker lat="51.5" lon="10.5" site="Germany (Germany)"/>
<marker lat="41.966" lon="12.8" site="Tivoli (Italy)"/>
<marker lat="41.883" lon="12.5" site="Roma (Italy)"/>
<marker lat="40.166" lon="24.316" site="Athos (Greece)"/>
<marker lat="45.4667" lon="9.2" site="Mediolanum (Italy)"/>
<marker lat="41.83" lon="-82.95" site="Scipio (Ohio, United States)"/>
<marker lat="38.283" lon="23.166" site="Thespiae (Greece)"/>
<marker lat="39.0" lon="35.0" site="Asia Minor (Turkey)"/>
<marker lat="39.75" lon="16.4833" site="Sybaris"/>
<marker lat="45.216" lon="10.216" site="Mella (Italy)"/>
<marker lat="46.0" lon="9.283" site="Lacus Larius (Italy)"/>
<marker lat="43.166" lon="-76.116" site="Cicero (New York, United States)"/>
<marker lat="39.916" lon="25.25" site="Lemnos (Greece)"/>
<marker lat="37.9083" lon="22.9083" site="Corinth (Greece)"/>
<marker lat="38.4917" lon="22.5167" site="Delphi (Greece)"/>
<marker lat="25.0" lon="45.0" site="Arabia"/>
<marker lat="38.5167" lon="22.75" site="Daulis"/>
<marker lat="38.83" lon="23.5" site="Attica (Greece)"/>
<marker lat="36.4" lon="25.433" site="Thera (Greece)"/>
<marker lat="42.266" lon="-72.6" site="Thermopylae (Massachusetts, United States)"/>
<marker lat="45.316" lon="7.366" site="Ceres (Italy)"/>
<marker lat="46.583" lon="-112.33" site="Helena (Montana, United States)"/>
<marker lat="42.733" lon="12.733" site="Spoleto (Italy)"/>
<marker lat="38.0" lon="-98.0" site="United States (United States)"/>
<marker lat="39.9" lon="-77.516" site="Africa (Pennsylvania, United States)"/>
<marker lat="26.933" lon="-80.83" site="Jupiter (Florida, United States)"/>
<marker lat="42.916" lon="-76.616" site="Aurelius (New York, United States)"/>
<marker lat="32.35" lon="-96.8" site="Ellis (Texas, United States)"/>
<marker lat="39.3417" lon="22.9417" site="Demetrias"/>
<marker lat="37.566" lon="24.366" site="Ceos (Greece)"/>
<marker lat="32.0" lon="53.0" site="Persia (Iran)"/>
<marker lat="39.95" lon="26.25" site="Ilium (Turkey)"/>
<marker lat="37.633" lon="-94.616" site="Arcadia (Kansas, United States)"/>
<marker lat="39.0" lon="51.0" site="Caspian Sea"/>
<marker lat="35.0" lon="59.0" site="Parthia (Iran)"/>
<marker lat="41.25" lon="16.25" site="Apulia (Italy)"/>
<marker lat="38.4667" lon="23.6083" site="Chalcis (Greece)"/>
<marker lat="41.733" lon="12.233" site="Tiber (Italy)"/>
<marker lat="33.0" lon="65.0" site="Bactria (Afghanistan)"/>
<marker lat="38.233" lon="21.733" site="Patrae (Greece)"/>
<marker lat="40.583" lon="-122.383" site="Latona (California, United States)"/>
<marker lat="41.33" lon="28.95" site="Constantinople (Turkey)"/>
<marker lat="41.3" lon="19.466" site="Epidamnus (Albania)"/>
<marker lat="39.633" lon="22.416" site="Larisa (Greece)"/>
<marker lat="37.95" lon="-76.466" site="Coan (Virginia, United States)"/>
<marker lat="50.933" lon="6.95" site="Cologne (North Rhine-Westphalia, Germany)"/>
<marker lat="57.566" lon="-4.433" site="Conon (United Kingdom)"/>
<marker lat="31.5" lon="30.0" site="Mediterranean Sea"/>
<marker lat="38.683" lon="27.516" site="Lydia (Turkey)"/>
<marker lat="41.166" lon="-83.633" site="Galatea (Ohio, United States)"/>
<marker lat="41.9" lon="-77.75" site="Ulysses (Pennsylvania, United States)"/>
<marker lat="45.66" lon="10.983" site="Mincio (Italy)"/>
<marker lat="32.4" lon="-90.233" site="Cynthia (Mississippi, United States)"/>
<marker lat="40.733" lon="-82.66" site="Horace (Ohio, United States)"/>
<marker lat="36.666" lon="27.366" site="Cnidus (Turkey)"/>
<marker lat="43.33" lon="2.966" site="Sigean (France)"/>
<marker lat="37.75" lon="15.0" site="Aetna (Italy)"/>
<marker lat="31.83" lon="47.5" site="Euphrates"/>
<marker lat="51.833" lon="6.0" site="Rhine"/>
</markers>