<markers>
<marker lat="46.0" lon="2.0" site="France (France)"/>
<marker lat="34.933" lon="-88.516" site="Corinth (Mississippi, United States)"/>
<marker lat="38.0" lon="-98.0" site="United States (United States)"/>
<marker lat="19.416" lon="-99.166" site="Mexico (Mexico, Mexico)"/>
<marker lat="35.5" lon="-80.0" site="North Carolina (North Carolina, United States)"/>
<marker lat="30.316" lon="-81.65" site="Jacksonville (Florida, United States)"/>
<marker lat="30.566" lon="-81.683" site="Nassau River (Florida, United States)"/>
<marker lat="40.0" lon="-4.0" site="Spain (Spain)"/>
<marker lat="35.5" lon="-85.0" site="Tennessee (Tennessee, United States)"/>
<marker lat="42.333" lon="-76.833" site="Havana, N. Y. (New York, United States)"/>
<marker lat="40.0" lon="-89.0" site="Illinois (Illinois, United States)"/>
<marker lat="29.883" lon="-81.416" site="St Johns (Florida, United States)"/>
<marker lat="37.75" lon="-77.366" site="Hanover Court House (Virginia, United States)"/>
<marker lat="34.683" lon="-76.666" site="Fort Macon (North Carolina, United States)"/>
<marker lat="38.316" lon="-77.466" site="Falmouth, Va. (Virginia, United States)"/>
<marker lat="35.15" lon="-88.316" site="Pittsburg Landing (Tennessee, United States)"/>
<marker lat="41.35" lon="-86.433" site="Donelson (Indiana, United States)"/>
<marker lat="37.233" lon="-76.5" site="Yorktown (Virginia, United States)"/>
<marker lat="30.666" lon="-81.45" site="Fernandina, Fla. (Florida, United States)"/>
<marker lat="30.6" lon="-87.9" site="Daphne (Alabama, United States)"/>
<marker lat="37.266" lon="-79.933" site="Big Lick (Virginia, United States)"/>
<marker lat="32.0" lon="-84.0" site="Georgia (Georgia, United States)"/>
<marker lat="38.866" lon="-78.1" site="Rappahannock (Virginia, United States)"/>
<marker lat="34.0" lon="-80.0" site="South Carolina (South Carolina, United States)"/>
<marker lat="37.55" lon="-77.366" site="Henrico (Virginia, United States)"/>
<marker lat="23.0" lon="-102.0" site="Mexico (Mexico)"/>
<marker lat="37.0" lon="-80.0" site="Virginia (Virginia, United States)"/>
<marker lat="36.45" lon="-94.1" site="Pea Ridge, Ark. (Arkansas, United States)"/>
<marker lat="36.583" lon="-83.666" site="Cumberland Gap (Tennessee, United States)"/>
<marker lat="35.183" lon="-88.483" site="Owl Creek (Tennessee, United States)"/>
<marker lat="37.1" lon="-82.716" site="Cumberland River (Kentucky, United States)"/>
<marker lat="35.183" lon="-87.16" site="Pulaski, Tenn. (Tennessee, United States)"/>
<marker lat="32.416" lon="-80.666" site="Beaufort, S. C. (South Carolina, United States)"/>
<marker lat="37.583" lon="-90.45" site="Lance (Missouri, United States)"/>
<marker lat="38.0" lon="-98.0" site="Missouri (Missouri, United States)"/>
<marker lat="39.8" lon="-76.983" site="McAllister (Pennsylvania, United States)"/>
<marker lat="33.0" lon="-87.0" site="Alabama (Alabama, United States)"/>
<marker lat="47.233" lon="-95.2" site="Mississippi (United States)"/>
<marker lat="29.566" lon="-95.75" site="Richmond, Fort Bend County, Texas (Texas, United States)"/>
<marker lat="32.216" lon="-80.666" site="Hilton Head (South Carolina, United States)"/>
<marker lat="38.266" lon="-77.916" site="Black Walnut Run (Virginia, United States)"/>
<marker lat="33.8" lon="-91.16" site="Beulah Island Landing (Arkansas, United States)"/>
<marker lat="37.133" lon="-76.45" site="Harwoods Mill (Virginia, United States)"/>
<marker lat="37.266" lon="-93.35" site="Greene County (Missouri, United States)"/>
<marker lat="38.816" lon="-77.516" site="Bull Run, Va. (Virginia, United States)"/>
<marker lat="36.483" lon="-87.85" site="Fort Donelson (Tennessee, United States)"/>
<marker lat="38.4" lon="-79.566" site="Monterey (Virginia, United States)"/>
<marker lat="37.283" lon="-80.5" site="Roanoke County (Virginia, United States)"/>
<marker lat="38.516" lon="-77.6" site="Aquia Creek (Virginia, United States)"/>
<marker lat="53.0" lon="-2.0" site="England (United Kingdom)"/>
<marker lat="38.683" lon="-77.9" site="Waterloo, Va. (Virginia, United States)"/>
<marker lat="40.0" lon="-86.0" site="Indiana (Indiana, United States)"/>
<marker lat="35.166" lon="-85.33" site="Snow Hill, Tenn. (Tennessee, United States)"/>
<marker lat="25.2" lon="-99.833" site="Monterrey (Nuevo Leon, Mexico)"/>
<marker lat="35.333" lon="-76.133" site="Southwest Bay (North Carolina, United States)"/>
<marker lat="31.533" lon="-97.133" site="Waco (Texas, United States)"/>
<marker lat="25.716" lon="32.65" site="Karnak (Egypt)"/>
<marker lat="30.0" lon="-100.0" site="Texas (Texas, United States)"/>
<marker lat="37.633" lon="-76.566" site="Urbana (Virginia, United States)"/>
<marker lat="45.5" lon="-73.6" site="Montreal (Canada)"/>
<marker lat="32.866" lon="-85.183" site="West Point (Georgia, United States)"/>
<marker lat="35.95" lon="-83.916" site="Knoxville (Tennessee, United States)"/>
<marker lat="42.15" lon="-83.1" site="Canard (Canada)"/>
<marker lat="39.95" lon="-76.716" site="York, Pa. (Pennsylvania, United States)"/>
<marker lat="39.83" lon="-77.65" site="Loudoun (Virginia, United States)"/>
<marker lat="42.433" lon="-76.16" site="Marathon, Cortland County, New York (New York, United States)"/>
<marker lat="39.2" lon="-76.66" site="Chestertown (Maryland, United States)"/>
<marker lat="36.583" lon="-79.383" site="Danville (Virginia, United States)"/>
<marker lat="39.833" lon="-88.95" site="Decatur (Illinois, United States)"/>
<marker lat="41.8" lon="-73.116" site="Torrington (Connecticut, United States)"/>
</markers>