<markers>
<marker lat="38.0" lon="-98.0" site="United States (United States)"/>
<marker lat="35.95" lon="-83.916" site="Knoxville (Tennessee, United States)"/>
<marker lat="32.0" lon="-84.0" site="Georgia (Georgia, United States)"/>
<marker lat="31.966" lon="-80.883" site="Tybee Island (Georgia, United States)"/>
<marker lat="38.0" lon="-98.0" site="Missouri (Missouri, United States)"/>
<marker lat="31.0" lon="-92.0" site="Louisiana (Louisiana, United States)"/>
<marker lat="34.0" lon="-80.0" site="South Carolina (South Carolina, United States)"/>
<marker lat="35.5" lon="-85.0" site="Tennessee (Tennessee, United States)"/>
<marker lat="36.983" lon="-86.433" site="Bowling Green (Kentucky, United States)"/>
<marker lat="53.7" lon="-2.666" site="Lancaster (United Kingdom)"/>
<marker lat="19.416" lon="-99.166" site="Mexico (Mexico, Mexico)"/>
<marker lat="40.0" lon="-4.0" site="Spain (Spain)"/>
<marker lat="51.583" lon="0.55" site="Essex (United Kingdom)"/>
<marker lat="38.383" lon="-82.55" site="Ceredo (West Virginia, United States)"/>
<marker lat="37.0" lon="-85.0" site="Kentucky (Kentucky, United States)"/>
<marker lat="41.95" lon="-70.666" site="Accomack (Massachusetts, United States)"/>
<marker lat="37.0" lon="-80.0" site="Virginia (Virginia, United States)"/>
<marker lat="32.366" lon="-80.683" site="Port Royal (South Carolina, United States)"/>
<marker lat="46.0" lon="2.0" site="France (France)"/>
<marker lat="41.516" lon="-90.566" site="Davenport (Iowa, United States)"/>
<marker lat="38.366" lon="-79.366" site="Highland County (Virginia, United States)"/>
<marker lat="35.766" lon="-83.516" site="Sevier (Tennessee, United States)"/>
<marker lat="42.25" lon="-71.833" site="Massachusetts (Massachusetts, United States)"/>
<marker lat="39.0" lon="-76.833" site="Maryland (Maryland, United States)"/>
<marker lat="38.983" lon="-76.15" site="Queenstown, Md. (Maryland, United States)"/>
<marker lat="35.666" lon="-80.466" site="Salisbury, N. C. (North Carolina, United States)"/>
<marker lat="36.983" lon="-89.133" site="Ohio (United States)"/>
<marker lat="51.95" lon="1.283" site="Harwich (United Kingdom)"/>
<marker lat="38.233" lon="-78.1" site="Orange Court House (Virginia, United States)"/>
<marker lat="25.0" lon="-90.0" site="Gulf of Mexico"/>
<marker lat="19.0" lon="-70.666" site="Dominican Republic (Dominican Republic)"/>
<marker lat="38.816" lon="-77.516" site="Bull Run, Va. (Virginia, United States)"/>
<marker lat="37.516" lon="-76.783" site="West Point (Virginia, United States)"/>
<marker lat="38.883" lon="-77.33" site="Washington (United States)"/>
<marker lat="39.0" lon="-80.0" site="West Virginia (West Virginia, United States)"/>
<marker lat="37.333" lon="-77.966" site="Amelia Court House (Virginia, United States)"/>
<marker lat="37.233" lon="-83.683" site="Wild Cat (Kentucky, United States)"/>
<marker lat="42.433" lon="-73.33" site="Peru, Mass. (Massachusetts, United States)"/>
<marker lat="36.166" lon="-86.75" site="Edgefield (Tennessee, United States)"/>
<marker lat="50.9" lon="-1.4" site="Southampton (United Kingdom)"/>
<marker lat="37.583" lon="-81.316" site="Guyandotte (West Virginia, United States)"/>
<marker lat="37.45" lon="-84.5" site="Crab Orchard, Ky. (Kentucky, United States)"/>
<marker lat="40.766" lon="-84.83" site="Allen (Ohio, United States)"/>
<marker lat="42.633" lon="-71.333" site="Middlesex Village (Massachusetts, United States)"/>
<marker lat="50.75" lon="-1.133" site="Spithead (United Kingdom)"/>
<marker lat="37.8" lon="-79.433" site="Rockbridge (Virginia, United States)"/>
<marker lat="39.3" lon="-77.85" site="Jefferson (West Virginia, United States)"/>
<marker lat="35.66" lon="-85.5" site="Ooltewah (Tennessee, United States)"/>
<marker lat="37.333" lon="-87.55" site="Hopkins (Kentucky, United States)"/>
<marker lat="42.483" lon="-71.266" site="Bedford, Mass. (Massachusetts, United States)"/>
<marker lat="43.116" lon="5.916" site="Toulon (France)"/>
<marker lat="53.5" lon="-2.216" site="Manchester (United Kingdom)"/>
<marker lat="-37.75" lon="144.966" site="Melbourne (Victoria, Australia)"/>
<marker lat="32.35" lon="-90.866" site="Vicksburg (Mississippi, United States)"/>
<marker lat="33.733" lon="-84.383" site="Atlanta (Georgia, United States)"/>
<marker lat="37.233" lon="-80.2" site="Roanoke (United States)"/>
<marker lat="38.816" lon="-90.183" site="Missouri (United States)"/>
<marker lat="34.783" lon="-90.983" site="Moreau (Arkansas, United States)"/>
<marker lat="36.383" lon="-78.966" site="Roxboro (North Carolina, United States)"/>
<marker lat="35.7" lon="-83.95" site="Blount (Tennessee, United States)"/>
<marker lat="40.7" lon="-74.0" site="New York (New York, United States)"/>
<marker lat="36.66" lon="-79.783" site="Greensboro (North Carolina, United States)"/>
<marker lat="33.0" lon="-87.0" site="Alabama (Alabama, United States)"/>
<marker lat="35.566" lon="-85.133" site="Roaring Creek (Tennessee, United States)"/>
<marker lat="36.966" lon="-76.35" site="Hampton Roads (Virginia, United States)"/>
<marker lat="45.7" lon="-73.616" site="Terrebonne (Canada)"/>
<marker lat="32.66" lon="-99.83" site="Red River (Texas, United States)"/>
<marker lat="40.3" lon="-90.5" site="Havana (Illinois, United States)"/>
<marker lat="51.5" lon="-0.166" site="St. Paul's church (United Kingdom)"/>
<marker lat="37.25" lon="-85.483" site="Greensburg (Kentucky, United States)"/>
<marker lat="42.783" lon="-81.2" site="Saint Thomas (Canada)"/>
<marker lat="36.833" lon="-86.883" site="Russellville (Kentucky, United States)"/>
<marker lat="42.0" lon="-80.316" site="Girard (Pennsylvania, United States)"/>
<marker lat="35.4" lon="-80.566" site="Concord (North Carolina, United States)"/>
<marker lat="37.266" lon="-79.933" site="Big Lick (Virginia, United States)"/>
<marker lat="37.0" lon="-105.5" site="Canadian (United States)"/>
<marker lat="22.5" lon="88.333" site="Calcutta (West Bengal, India)"/>
<marker lat="38.683" lon="-79.35" site="Pendleton (West Virginia, United States)"/>
<marker lat="39.15" lon="-77.966" site="Berryville (Virginia, United States)"/>
<marker lat="44.75" lon="-67.233" site="Orange River (Maine, United States)"/>
<marker lat="42.316" lon="-72.333" site="Enfield (Massachusetts, United States)"/>
<marker lat="40.383" lon="-91.383" site="Keokuk, Iowa (Iowa, United States)"/>
<marker lat="42.0" lon="-93.0" site="Iowa (Iowa, United States)"/>
<marker lat="34.983" lon="-80.1" site="Anson (North Carolina, United States)"/>
<marker lat="34.833" lon="-104.666" site="Guadalupe (New Mexico, United States)"/>
<marker lat="60.0" lon="-96.0" site="Canada (Canada)"/>
<marker lat="35.5" lon="-80.0" site="North Carolina (North Carolina, United States)"/>
<marker lat="33.633" lon="-96.6" site="Sherman, Grayson County, Texas (Texas, United States)"/>
<marker lat="35.383" lon="-94.383" site="Fort Smith (Arkansas, United States)"/>
<marker lat="32.45" lon="-80.433" site="St. Helena Sound (South Carolina, United States)"/>
<marker lat="37.55" lon="-77.45" site="Richmond (Virginia, United States)"/>
<marker lat="37.55" lon="-77.366" site="Henrico (Virginia, United States)"/>
<marker lat="34.816" lon="-81.416" site="Cotton (South Carolina, United States)"/>
<marker lat="29.566" lon="-97.95" site="Seguin, Texas (Texas, United States)"/>
<marker lat="34.0" lon="9.0" site="Tunisia (Tunisia)"/>
<marker lat="42.316" lon="-70.916" site="Fort Warren (Massachusetts, United States)"/>
<marker lat="38.9" lon="-77.25" site="Vienna (Virginia, United States)"/>
<marker lat="38.416" lon="-79.433" site="Doe Hill (Virginia, United States)"/>
<marker lat="44.633" lon="-63.583" site="Halifax (Canada)"/>
<marker lat="52.883" lon="-2.33" site="Staffordshire (United Kingdom)"/>
<marker lat="37.316" lon="-87.483" site="Madisonville (Kentucky, United States)"/>
<marker lat="32.65" lon="-80.383" site="South Edisto River (South Carolina, United States)"/>
<marker lat="44.45" lon="-68.316" site="Old Point (Maine, United States)"/>
<marker lat="37.35" lon="-77.4" site="Dutch Gap (Virginia, United States)"/>
<marker lat="37.16" lon="-76.333" site="Hampton (Virginia, United States)"/>
<marker lat="37.33" lon="-89.183" site="Cairo, Ill. (Illinois, United States)"/>
<marker lat="38.566" lon="-77.316" site="Dumfries, Va. (Virginia, United States)"/>
<marker lat="37.383" lon="-77.6" site="Chesterfield (Virginia, United States)"/>
<marker lat="51.85" lon="-8.283" site="Queenstown (Irish Republic)"/>
<marker lat="39.45" lon="-77.95" site="Martinsburg (West Virginia, United States)"/>
<marker lat="37.65" lon="-82.766" site="Prestonburg (Kentucky, United States)"/>
<marker lat="33.616" lon="-95.33" site="Red River (Texas, United States)"/>
<marker lat="23.116" lon="-82.35" site="Havana (Cuba)"/>
<marker lat="29.15" lon="-83.33" site="Cedar Keys (Florida, United States)"/>
<marker lat="37.683" lon="-84.65" site="Camp Dick Robinson (Kentucky, United States)"/>
<marker lat="40.416" lon="-3.716" site="Madrid (Spain)"/>
<marker lat="35.216" lon="-80.833" site="Charlotte (North Carolina, United States)"/>
<marker lat="32.766" lon="-79.916" site="Charleston (South Carolina, United States)"/>
<marker lat="37.8" lon="-85.466" site="Bardstown (Kentucky, United States)"/>
<marker lat="8.0" lon="-66.0" site="Venezuela (Venezuela)"/>
<marker lat="47.333" lon="13.333" site="Austria (Austria)"/>
<marker lat="-2.0" lon="-77.5" site="Quito (Ecuador)"/>
<marker lat="38.6" lon="-79.933" site="Cheat Mountain (West Virginia, United States)"/>
<marker lat="36.583" lon="-79.383" site="Danville (Virginia, United States)"/>
<marker lat="34.6" lon="-83.516" site="Clarkesville (Georgia, United States)"/>
<marker lat="34.683" lon="-91.3" site="Clarendon, Ark. (Arkansas, United States)"/>
<marker lat="32.766" lon="-97.3" site="Tarrant (Texas, United States)"/>
<marker lat="36.85" lon="-81.516" site="Smyth (Virginia, United States)"/>
<marker lat="37.833" lon="-86.616" site="Cloverport (Kentucky, United States)"/>
<marker lat="39.16" lon="-78.816" site="Hardy County (West Virginia, United States)"/>
</markers>