<markers>
<marker lat="38.0" lon="-98.0" site="United States (United States)"/>
<marker lat="35.5" lon="-80.0" site="North Carolina (North Carolina, United States)"/>
<marker lat="39.316" lon="-77.733" site="Harper's Ferry (West Virginia, United States)"/>
<marker lat="39.0" lon="-76.833" site="Maryland (Maryland, United States)"/>
<marker lat="37.516" lon="-76.783" site="York (Virginia, United States)"/>
<marker lat="38.0" lon="-98.0" site="Missouri (Missouri, United States)"/>
<marker lat="37.516" lon="-76.783" site="West Point (Virginia, United States)"/>
<marker lat="32.0" lon="-84.0" site="Georgia (Georgia, United States)"/>
<marker lat="44.633" lon="-63.583" site="Halifax (Canada)"/>
<marker lat="37.0" lon="-80.0" site="Virginia (Virginia, United States)"/>
<marker lat="35.0" lon="-93.0" site="Arkansas (Arkansas, United States)"/>
<marker lat="35.5" lon="-85.0" site="Tennessee (Tennessee, United States)"/>
<marker lat="40.5" lon="-80.716" site="Wheeling, W. Va. (West Virginia, United States)"/>
<marker lat="42.583" lon="-71.716" site="Lunenburg, Ma. (Massachusetts, United States)"/>
<marker lat="42.25" lon="-84.583" site="Parma (Michigan, United States)"/>
<marker lat="40.3" lon="-90.5" site="Havana (Illinois, United States)"/>
<marker lat="37.4" lon="-79.133" site="Lynchburg (Virginia, United States)"/>
<marker lat="31.0" lon="-92.0" site="Louisiana (Louisiana, United States)"/>
<marker lat="39.0" lon="-75.666" site="Delaware (Delaware, United States)"/>
<marker lat="39.0" lon="-80.0" site="West Virginia (West Virginia, United States)"/>
<marker lat="37.55" lon="-77.366" site="Henrico (Virginia, United States)"/>
<marker lat="38.3" lon="-77.45" site="Fredericksburg, Va. (Virginia, United States)"/>
<marker lat="30.0" lon="-100.0" site="Texas (Texas, United States)"/>
<marker lat="36.416" lon="-77.583" site="Weldon, N. C. (North Carolina, United States)"/>
<marker lat="38.716" lon="-80.7" site="Braxton (West Virginia, United States)"/>
<marker lat="36.8" lon="-76.316" site="Gosport (Virginia, United States)"/>
<marker lat="33.0" lon="-87.0" site="Alabama (Alabama, United States)"/>
<marker lat="34.25" lon="-85.15" site="Rome, Ga. (Georgia, United States)"/>
<marker lat="32.833" lon="-83.616" site="Macon (Georgia, United States)"/>
<marker lat="53.0" lon="-2.0" site="England (United Kingdom)"/>
<marker lat="35.0" lon="105.0" site="China (China)"/>
<marker lat="34.0" lon="-80.0" site="South Carolina (South Carolina, United States)"/>
<marker lat="40.833" lon="-76.0" site="Pennsylvania (Pennsylvania, United States)"/>
<marker lat="37.55" lon="-77.45" site="Richmond (Virginia, United States)"/>
<marker lat="44.0" lon="-73.0" site="Vermont (Vermont, United States)"/>
<marker lat="39.633" lon="-77.716" site="Hagerstown (Maryland, United States)"/>
<marker lat="33.466" lon="-82.16" site="Augusta (Georgia, United States)"/>
<marker lat="34.0" lon="-112.0" site="Arizona (Arizona, United States)"/>
<marker lat="35.216" lon="-80.833" site="Charlotte (North Carolina, United States)"/>
<marker lat="46.0" lon="2.0" site="France (France)"/>
<marker lat="34.5" lon="-97.116" site="Davis (Oklahoma, United States)"/>
<marker lat="44.233" lon="-76.5" site="Kingston (Canada)"/>
<marker lat="33.733" lon="-84.383" site="Atlanta (Georgia, United States)"/>
<marker lat="35.383" lon="-88.683" site="Montezuma, Tenn. (Tennessee, United States)"/>
<marker lat="38.683" lon="-76.833" site="Brandywine (Maryland, United States)"/>
<marker lat="38.766" lon="-79.966" site="Rich Mountain (West Virginia, United States)"/>
<marker lat="42.25" lon="-71.833" site="Massachusetts (Massachusetts, United States)"/>
<marker lat="45.0" lon="-69.0" site="Maine (Maine, United States)"/>
<marker lat="35.2" lon="-89.416" site="Fayette (Tennessee, United States)"/>
<marker lat="33.0" lon="-90.0" site="Mississippi (Mississippi, United States)"/>
<marker lat="44.0" lon="-71.666" site="New Hampshire (New Hampshire, United States)"/>
<marker lat="34.85" lon="-82.383" site="Greenville (South Carolina, United States)"/>
<marker lat="37.3" lon="-78.383" site="Farmville (Virginia, United States)"/>
<marker lat="37.983" lon="-81.33" site="Cunard (West Virginia, United States)"/>
<marker lat="36.966" lon="-76.35" site="Hampton Roads (Virginia, United States)"/>
<marker lat="37.75" lon="-77.466" site="Ashland (Virginia, United States)"/>
<marker lat="36.983" lon="-89.133" site="Ohio (United States)"/>
<marker lat="41.516" lon="-72.66" site="Norwich (Connecticut, United States)"/>
<marker lat="41.483" lon="-71.3" site="Newport (Rhode Island, United States)"/>
<marker lat="37.233" lon="-76.5" site="Yorktown (Virginia, United States)"/>
<marker lat="36.833" lon="-76.283" site="Portsmouth, Va. (Virginia, United States)"/>
<marker lat="53.7" lon="-2.666" site="Lancaster (United Kingdom)"/>
<marker lat="40.1" lon="-96.15" site="Pawnee City (Nebraska, United States)"/>
<marker lat="42.866" lon="-71.216" site="Howard's Grove (New Hampshire, United States)"/>
<marker lat="19.0" lon="-70.666" site="Dominican Republic (Dominican Republic)"/>
<marker lat="37.516" lon="-77.383" site="Rocketts (Virginia, United States)"/>
<marker lat="40.333" lon="-75.916" site="Reading, Pa. (Pennsylvania, United States)"/>
<marker lat="43.45" lon="-76.5" site="Oswego (New York, United States)"/>
<marker lat="39.183" lon="-78.15" site="Winchester, Va. (Virginia, United States)"/>
<marker lat="39.933" lon="-83.4" site="Lafayette (Ohio, United States)"/>
<marker lat="42.316" lon="-72.333" site="Enfield (Massachusetts, United States)"/>
<marker lat="37.33" lon="-78.483" site="Keysville (Virginia, United States)"/>
<marker lat="38.55" lon="-76.66" site="Cambridge (Maryland, United States)"/>
<marker lat="38.8" lon="-77.33" site="Alexandria (Virginia, United States)"/>
<marker lat="38.666" lon="-98.0" site="Kansas (Kansas, United States)"/>
<marker lat="40.0" lon="-86.0" site="Indiana (Indiana, United States)"/>
<marker lat="40.0" lon="-89.0" site="Illinois (Illinois, United States)"/>
<marker lat="39.766" lon="-94.833" site="St. Joseph, Mo. (Missouri, United States)"/>
<marker lat="36.616" lon="-105.383" site="Red (New Mexico, United States)"/>
<marker lat="33.65" lon="-95.55" site="Paris, Texas (Texas, United States)"/>
<marker lat="32.83" lon="-81.1" site="Savannah (Georgia, United States)"/>
<marker lat="39.933" lon="-77.65" site="Chambersburg, Pa. (Pennsylvania, United States)"/>
<marker lat="36.0" lon="138.0" site="Japan (Japan)"/>
<marker lat="40.25" lon="-76.25" site="Lancaster County (Pennsylvania, United States)"/>
<marker lat="41.883" lon="12.5" site="Roma (Italy)"/>
<marker lat="33.25" lon="-80.8" site="Branchville (South Carolina, United States)"/>
<marker lat="40.216" lon="-74.733" site="Chambersburg (New Jersey, United States)"/>
<marker lat="52.5" lon="-1.833" site="Birmingham (United Kingdom)"/>
<marker lat="41.833" lon="-72.833" site="Connecticut (Connecticut, United States)"/>
<marker lat="37.0" lon="-119.0" site="California (California, United States)"/>
<marker lat="34.1" lon="-96.533" site="Fort Washita (Oklahoma, United States)"/>
<marker lat="47.0" lon="8.0" site="Switzerland (Switzerland)"/>
<marker lat="34.183" lon="-79.75" site="Florence, S. C. (South Carolina, United States)"/>
<marker lat="42.45" lon="-71.166" site="Zion Hill (Massachusetts, United States)"/>
<marker lat="42.333" lon="-76.833" site="Havana, N. Y. (New York, United States)"/>
<marker lat="41.266" lon="-85.5" site="Tippecanoe (Indiana, United States)"/>
<marker lat="38.566" lon="-92.166" site="Jefferson City (Missouri, United States)"/>
<marker lat="40.716" lon="-74.66" site="Hudson (New Jersey, United States)"/>
<marker lat="45.5" lon="-73.6" site="Montreal (Canada)"/>
<marker lat="35.683" lon="-75.716" site="Old Point (North Carolina, United States)"/>
<marker lat="40.266" lon="-80.6" site="Charlestown, W. Va. (West Virginia, United States)"/>
<marker lat="42.716" lon="-73.683" site="Troy, N. Y. (New York, United States)"/>
<marker lat="37.16" lon="-76.333" site="Hampton (Virginia, United States)"/>
<marker lat="36.166" lon="-86.75" site="Edgefield (Tennessee, United States)"/>
<marker lat="34.216" lon="-92.0" site="Pine Bluff (Arkansas, United States)"/>
<marker lat="38.7" lon="-77.83" site="Mount Vernon (Virginia, United States)"/>
<marker lat="34.716" lon="-86.583" site="Huntsville (Alabama, United States)"/>
<marker lat="29.75" lon="-95.35" site="Harrisburg (Texas, United States)"/>
<marker lat="32.75" lon="-79.85" site="Fort Moultrie (South Carolina, United States)"/>
<marker lat="39.266" lon="-76.783" site="Ellicotts Mills (Maryland, United States)"/>
<marker lat="35.33" lon="-85.3" site="Chattanooga (Tennessee, United States)"/>
<marker lat="42.25" lon="-71.116" site="Hyde Park, Mass. (Massachusetts, United States)"/>
<marker lat="38.16" lon="-78.466" site="Charlottesville (Virginia, United States)"/>
<marker lat="19.416" lon="-99.166" site="Mexico (Mexico, Mexico)"/>
<marker lat="39.0" lon="22.0" site="Greece (Greece)"/>
<marker lat="36.583" lon="-79.383" site="Danville (Virginia, United States)"/>
<marker lat="38.516" lon="-78.883" site="Rockingham (Virginia, United States)"/>
<marker lat="38.666" lon="-78.15" site="Rappahannock (Virginia, United States)"/>
<marker lat="38.866" lon="-78.6" site="Shenandoah county (Virginia, United States)"/>
<marker lat="38.166" lon="-79.116" site="Augusta county (Virginia, United States)"/>
<marker lat="37.233" lon="-79.1" site="Campbell (Virginia, United States)"/>
</markers>