<markers>
<marker lat="19.416" lon="-99.166" site="Mexico (Mexico, Mexico)"/>
<marker lat="32.0" lon="-84.0" site="Georgia (Georgia, United States)"/>
<marker lat="38.216" lon="-78.216" site="Liberty Mills (Virginia, United States)"/>
<marker lat="38.0" lon="-98.0" site="United States (United States)"/>
<marker lat="31.0" lon="-92.0" site="Louisiana (Louisiana, United States)"/>
<marker lat="35.5" lon="-85.0" site="Tennessee (Tennessee, United States)"/>
<marker lat="46.0" lon="2.0" site="France (France)"/>
<marker lat="37.55" lon="-77.366" site="Henrico (Virginia, United States)"/>
<marker lat="37.0" lon="-80.0" site="Virginia (Virginia, United States)"/>
<marker lat="33.733" lon="-84.383" site="Atlanta (Georgia, United States)"/>
<marker lat="32.7" lon="-79.883" site="Morris Island (South Carolina, United States)"/>
<marker lat="37.316" lon="-77.266" site="City Point (Virginia, United States)"/>
<marker lat="37.4" lon="-76.516" site="Gloucester, Va. (Virginia, United States)"/>
<marker lat="35.0" lon="-93.0" site="Arkansas (Arkansas, United States)"/>
<marker lat="23.0" lon="-102.0" site="Mexico (Mexico)"/>
<marker lat="48.383" lon="-4.5" site="Brest (France)"/>
<marker lat="40.416" lon="-3.716" site="Madrid (Spain)"/>
<marker lat="33.95" lon="-84.55" site="Marietta (Georgia, United States)"/>
<marker lat="45.0" lon="-69.0" site="Maine (Maine, United States)"/>
<marker lat="38.6" lon="-78.183" site="Slaughter Mountain (Virginia, United States)"/>
<marker lat="33.5" lon="-109.283" site="Clifton, Arizona (Arizona, United States)"/>
<marker lat="30.333" lon="-87.283" site="Fort Barrancas (Florida, United States)"/>
<marker lat="32.216" lon="-80.666" site="Hilton Head (South Carolina, United States)"/>
<marker lat="34.66" lon="-86.583" site="Blountsville (Alabama, United States)"/>
<marker lat="37.333" lon="-77.66" site="Charles City (Virginia, United States)"/>
<marker lat="51.75" lon="-0.8" site="Buckingham (United Kingdom)"/>
<marker lat="38.233" lon="-78.1" site="Orange Court House (Virginia, United States)"/>
<marker lat="41.3" lon="-75.8" site="Sebastopol (Pennsylvania, United States)"/>
<marker lat="60.0" lon="47.0" site="Russia (Russia)"/>
<marker lat="34.9" lon="-85.1" site="Ringgold, Ga. (Georgia, United States)"/>
<marker lat="34.716" lon="-85.15" site="East Chickamauga Creek (Georgia, United States)"/>
<marker lat="39.833" lon="-75.35" site="Chester, Pa. (Pennsylvania, United States)"/>
<marker lat="42.116" lon="-115.25" site="Crawfish Spring (Idaho, United States)"/>
<marker lat="60.0" lon="-96.0" site="Canada (Canada)"/>
<marker lat="34.733" lon="-92.283" site="Little Rock (Arkansas, United States)"/>
<marker lat="35.5" lon="-80.0" site="North Carolina (North Carolina, United States)"/>
<marker lat="40.833" lon="-76.0" site="Pennsylvania (Pennsylvania, United States)"/>
<marker lat="30.416" lon="-87.216" site="Pensacola (Florida, United States)"/>
<marker lat="32.716" lon="-79.95" site="James Island (South Carolina, United States)"/>
<marker lat="32.75" lon="-79.833" site="Sullivan's Island (South Carolina, United States)"/>
<marker lat="32.383" lon="-91.166" site="Richmond, La. (Louisiana, United States)"/>
<marker lat="45.55" lon="-94.15" site="St. Cloud (Minnesota, United States)"/>
<marker lat="48.2" lon="5.133" site="Bologne (France)"/>
<marker lat="34.716" lon="-86.583" site="Huntsville (Alabama, United States)"/>
<marker lat="45.366" lon="10.566" site="Solferino (Italy)"/>
<marker lat="29.733" lon="-93.883" site="Sabine Pass (Texas, United States)"/>
<marker lat="36.583" lon="-79.383" site="Danville (Virginia, United States)"/>
<marker lat="40.0" lon="-4.0" site="Spain (Spain)"/>
<marker lat="37.233" lon="-79.1" site="Campbell (Virginia, United States)"/>
<marker lat="34.916" lon="-88.5" site="Waterloo, Ala. (Alabama, United States)"/>
</markers>