<markers>
<marker lat="37.216" lon="-77.4" site="Petersburg, Va. (Virginia, United States)"/>
<marker lat="33.733" lon="-84.383" site="Atlanta (Georgia, United States)"/>
<marker lat="37.55" lon="-77.45" site="Richmond (Virginia, United States)"/>
<marker lat="37.3" lon="-78.383" site="Farmville (Virginia, United States)"/>
<marker lat="31.0" lon="-92.0" site="Louisiana (Louisiana, United States)"/>
<marker lat="32.0" lon="-84.0" site="Georgia (Georgia, United States)"/>
<marker lat="40.833" lon="-76.0" site="Pennsylvania (Pennsylvania, United States)"/>
<marker lat="37.55" lon="-77.366" site="Henrico (Virginia, United States)"/>
<marker lat="32.816" lon="-88.15" site="Gainsville (Alabama, United States)"/>
<marker lat="19.416" lon="-99.166" site="Mexico (Mexico, Mexico)"/>
<marker lat="37.0" lon="-78.683" site="Charlotte county (Virginia, United States)"/>
<marker lat="39.583" lon="-75.566" site="Fort Delaware (Delaware, United States)"/>
<marker lat="36.566" lon="-86.5" site="Richland Station (Tennessee, United States)"/>
<marker lat="38.816" lon="-90.183" site="Missouri (United States)"/>
<marker lat="44.5" lon="-69.66" site="Waldo, Me. (Maine, United States)"/>
<marker lat="39.0" lon="-76.833" site="Maryland (Maryland, United States)"/>
<marker lat="38.0" lon="-98.0" site="Missouri (Missouri, United States)"/>
<marker lat="37.95" lon="-91.766" site="Rolla, Mo. (Missouri, United States)"/>
<marker lat="51.916" lon="-55.333" site="Belle Isle (Canada)"/>
<marker lat="43.166" lon="-78.766" site="Niagara County (New York, United States)"/>
<marker lat="39.33" lon="-122.9" site="Lakeport (California, United States)"/>
<marker lat="40.16" lon="-78.5" site="Fort Bedford (Pennsylvania, United States)"/>
<marker lat="37.333" lon="-77.66" site="Charles City (Virginia, United States)"/>
<marker lat="37.983" lon="-91.6" site="Saint James (Missouri, United States)"/>
<marker lat="45.3" lon="-73.25" site="Iberville (Canada)"/>
<marker lat="32.833" lon="-83.616" site="Macon (Georgia, United States)"/>
<marker lat="38.883" lon="-6.966" site="Pax Augusta (Spain)"/>
<marker lat="38.0" lon="-98.0" site="United States (United States)"/>
<marker lat="37.16" lon="-76.416" site="Newmarket, Va. (Virginia, United States)"/>
<marker lat="37.0" lon="-85.0" site="Kentucky (Kentucky, United States)"/>
<marker lat="37.766" lon="-122.416" site="San Francisco (California, United States)"/>
<marker lat="40.0" lon="-89.0" site="Illinois (Illinois, United States)"/>
<marker lat="36.7" lon="-81.966" site="Abingdon, Va. (Virginia, United States)"/>
<marker lat="60.0" lon="-96.0" site="Canada (Canada)"/>
<marker lat="34.0" lon="-80.0" site="South Carolina (South Carolina, United States)"/>
<marker lat="37.75" lon="-77.483" site="Hanover County (Virginia, United States)"/>
<marker lat="32.366" lon="-86.3" site="Montgomery (Alabama, United States)"/>
<marker lat="38.25" lon="-85.75" site="Louisville (Kentucky, United States)"/>
<marker lat="34.8" lon="-86.966" site="Athens, Ala. (Alabama, United States)"/>
<marker lat="38.766" lon="-90.733" site="St. Charles County (Missouri, United States)"/>
<marker lat="34.766" lon="-84.966" site="Dalton, Ga. (Georgia, United States)"/>
<marker lat="41.783" lon="-69.983" site="Orleans, Ma. (Massachusetts, United States)"/>
<marker lat="32.716" lon="-79.95" site="James Island (South Carolina, United States)"/>
<marker lat="50.833" lon="4.333" site="Brussels (Belgium)"/>
<marker lat="30.316" lon="-81.65" site="Jacksonville (Florida, United States)"/>
<marker lat="30.0" lon="-81.683" site="Magnolia, Fla. (Florida, United States)"/>
<marker lat="30.433" lon="-88.0" site="Mobile Bay (Alabama, United States)"/>
<marker lat="46.0" lon="2.0" site="France (France)"/>
<marker lat="37.35" lon="-78.16" site="Amelia (Virginia, United States)"/>
</markers>