<markers>
<marker lat="42.25" lon="-71.833" site="Massachusetts (Massachusetts, United States)"/>
<marker lat="38.666" lon="-98.0" site="Kansas (Kansas, United States)"/>
<marker lat="46.0" lon="2.0" site="France (France)"/>
<marker lat="38.0" lon="-98.0" site="United States (United States)"/>
<marker lat="48.866" lon="2.333" site="Department de Ville de Paris (France)"/>
<marker lat="34.0" lon="-80.0" site="South Carolina (South Carolina, United States)"/>
<marker lat="42.25" lon="-71.8" site="Worcester (Massachusetts, United States)"/>
<marker lat="37.0" lon="-119.0" site="California (California, United States)"/>
<marker lat="34.25" lon="-85.15" site="Rome, Ga. (Georgia, United States)"/>
<marker lat="19.416" lon="-99.166" site="Mexico (Mexico, Mexico)"/>
<marker lat="40.0" lon="-89.0" site="Illinois (Illinois, United States)"/>
<marker lat="51.5" lon="10.5" site="Germany (Germany)"/>
<marker lat="42.833" lon="12.833" site="Italy (Italy)"/>
<marker lat="38.0" lon="-98.0" site="Missouri (Missouri, United States)"/>
<marker lat="41.5" lon="-100.0" site="Nebraska (Nebraska, United States)"/>
<marker lat="42.1" lon="-70.8" site="Hanover (Massachusetts, United States)"/>
<marker lat="39.283" lon="-76.6" site="Baltimore, Md. (Maryland, United States)"/>
<marker lat="33.0" lon="-87.0" site="Alabama (Alabama, United States)"/>
<marker lat="33.383" lon="-86.3" site="Kings Chapel (Alabama, United States)"/>
<marker lat="51.45" lon="5.983" site="America (Netherlands)"/>
<marker lat="31.0" lon="-92.0" site="Louisiana (Louisiana, United States)"/>
<marker lat="44.25" lon="-74.266" site="Plymouth Rock (New York, United States)"/>
<marker lat="47.0" lon="8.0" site="Switzerland (Switzerland)"/>
<marker lat="39.0" lon="22.0" site="Greece (Greece)"/>
<marker lat="42.233" lon="-71.83" site="Milton, Mass. (Massachusetts, United States)"/>
<marker lat="44.0" lon="-85.0" site="Michigan (Michigan, United States)"/>
<marker lat="19.0" lon="-70.666" site="Dominican Republic (Dominican Republic)"/>
<marker lat="43.2" lon="-75.45" site="Fort Stanwix (New York, United States)"/>
<marker lat="41.883" lon="12.5" site="Roma (Italy)"/>
<marker lat="40.833" lon="-76.0" site="Pennsylvania (Pennsylvania, United States)"/>
<marker lat="42.633" lon="-71.316" site="Lowell (Massachusetts, United States)"/>
<marker lat="41.816" lon="-71.4" site="Providence, R. I. (Rhode Island, United States)"/>
<marker lat="35.5" lon="-85.0" site="Tennessee (Tennessee, United States)"/>
<marker lat="42.45" lon="-71.35" site="Concord (Massachusetts, United States)"/>
<marker lat="42.366" lon="-71.133" site="Mount Auburn (Massachusetts, United States)"/>
<marker lat="41.85" lon="-87.65" site="Chicago (Illinois, United States)"/>
<marker lat="42.283" lon="-71.66" site="Dorchester, Mass. (Massachusetts, United States)"/>
<marker lat="46.66" lon="6.583" site="Cluses (France)"/>
<marker lat="40.0" lon="-4.0" site="Spain (Spain)"/>
<marker lat="40.45" lon="-78.583" site="Cresson (Pennsylvania, United States)"/>
<marker lat="42.333" lon="-71.83" site="Suffolk County (Massachusetts, United States)"/>
<marker lat="44.0" lon="-71.666" site="New Hampshire (New Hampshire, United States)"/>
<marker lat="49.416" lon="8.7" site="Heidelberg (Baden-Wurttemberg, Germany)"/>
<marker lat="42.35" lon="-71.5" site="Boston (Massachusetts, United States)"/>
<marker lat="42.333" lon="-70.966" site="Boston Harbor (Massachusetts, United States)"/>
<marker lat="48.866" lon="2.333" site="Paris (France)"/>
<marker lat="57.0" lon="-4.0" site="Scotland (United Kingdom)"/>
<marker lat="38.8" lon="-77.33" site="Alexandria (Virginia, United States)"/>
<marker lat="37.766" lon="-122.416" site="San Francisco (California, United States)"/>
<marker lat="32.0" lon="-84.0" site="Georgia (Georgia, United States)"/>
<marker lat="39.0" lon="-75.666" site="Delaware (Delaware, United States)"/>
<marker lat="6.5" lon="-9.5" site="Liberia (Liberia)"/>
<marker lat="41.666" lon="-71.5" site="Rhode Island (Rhode Island, United States)"/>
<marker lat="43.6" lon="3.883" site="Montpellier (France)"/>
<marker lat="38.5" lon="-84.716" site="Versailles (Kentucky, United States)"/>
<marker lat="34.183" lon="-79.75" site="Florence, S. C. (South Carolina, United States)"/>
<marker lat="42.1" lon="-72.583" site="Springfield (Massachusetts, United States)"/>
<marker lat="45.0" lon="-90.0" site="Wisconsin (Wisconsin, United States)"/>
<marker lat="31.5" lon="30.0" site="Mediterranean Sea"/>
<marker lat="42.183" lon="-70.716" site="Scituate (Massachusetts, United States)"/>
<marker lat="42.316" lon="-71.83" site="Roxbury, Mass. (Massachusetts, United States)"/>
<marker lat="38.933" lon="-74.9" site="Cape May (New Jersey, United States)"/>
<marker lat="35.33" lon="-89.233" site="La Grange (Tennessee, United States)"/>
<marker lat="42.85" lon="-70.916" site="Amesbury (Massachusetts, United States)"/>
<marker lat="35.183" lon="-87.16" site="Pulaski, Tenn. (Tennessee, United States)"/>
<marker lat="43.3" lon="5.366" site="Marseilles (France)"/>
<marker lat="42.416" lon="-71.1" site="Medford (Massachusetts, United States)"/>
<marker lat="42.83" lon="-70.7" site="Marshfield (Massachusetts, United States)"/>
<marker lat="41.7" lon="-70.3" site="Barnstable, Mass. (Massachusetts, United States)"/>
<marker lat="42.466" lon="-70.95" site="Lynn (Massachusetts, United States)"/>
<marker lat="35.533" lon="-96.216" site="Oriental (Oklahoma, United States)"/>
<marker lat="49.9" lon="2.3" site="Amiens (France)"/>
<marker lat="40.9" lon="-74.5" site="Rockaway (New Jersey, United States)"/>
<marker lat="45.0" lon="-69.0" site="Maine (Maine, United States)"/>
<marker lat="39.0" lon="-76.833" site="Maryland (Maryland, United States)"/>
<marker lat="53.416" lon="-3.0" site="Liverpool (United Kingdom)"/>
<marker lat="40.0" lon="-75.0" site="New Jersey (New Jersey, United States)"/>
<marker lat="51.9" lon="-1.15" site="Bicester (United Kingdom)"/>
<marker lat="45.433" lon="12.333" site="Venice (Italy)"/>
<marker lat="39.15" lon="-82.483" site="Puritan (Ohio, United States)"/>
<marker lat="42.75" lon="-71.466" site="Nashua (New Hampshire, United States)"/>
<marker lat="43.166" lon="-78.766" site="Niagara County (New York, United States)"/>
<marker lat="30.666" lon="-91.266" site="Port Hudson (Louisiana, United States)"/>
<marker lat="42.266" lon="-72.6" site="Thermopylae (Massachusetts, United States)"/>
<marker lat="42.416" lon="-70.916" site="Nahant (Massachusetts, United States)"/>
<marker lat="42.383" lon="-71.416" site="Sudbury, Mass. (Massachusetts, United States)"/>
<marker lat="37.133" lon="-89.116" site="America (Illinois, United States)"/>
<marker lat="40.733" lon="-74.166" site="Milford (New Jersey, United States)"/>
<marker lat="41.483" lon="-71.3" site="Newport (Rhode Island, United States)"/>
<marker lat="25.0" lon="-90.0" site="Gulf of Mexico"/>
<marker lat="49.5" lon="0.1" site="Havre (France)"/>
<marker lat="39.65" lon="-122.716" site="Oriental (California, United States)"/>
<marker lat="51.75" lon="-0.333" site="Hertfordshire (United Kingdom)"/>
<marker lat="32.866" lon="-96.0" site="Finger Point (Texas, United States)"/>
<marker lat="19.25" lon="-69.45" site="Samana (Dominican Republic)"/>
<marker lat="30.616" lon="-95.716" site="San Jacinto (Texas, United States)"/>
<marker lat="51.283" lon="0.633" site="Broad Street (United Kingdom)"/>
<marker lat="35.216" lon="-88.233" site="Savannah, Tenn. (Tennessee, United States)"/>
<marker lat="34.866" lon="-88.633" site="Kossuth (Mississippi, United States)"/>
<marker lat="33.5" lon="-89.583" site="Kosciusko, Mississippi (Mississippi, United States)"/>
<marker lat="42.166" lon="-73.2" site="Monterey, Mass. (Massachusetts, United States)"/>
<marker lat="32.35" lon="-97.766" site="Neri (Texas, United States)"/>
<marker lat="60.0" lon="47.0" site="Russia (Russia)"/>
<marker lat="39.366" lon="-91.816" site="Santa Fe (Missouri, United States)"/>
<marker lat="40.0" lon="-86.0" site="Indiana (Indiana, United States)"/>
<marker lat="42.0" lon="-93.0" site="Iowa (Iowa, United States)"/>
<marker lat="42.8" lon="-73.933" site="Schenectady (New York, United States)"/>
<marker lat="36.183" lon="-86.45" site="Silver Springs (Tennessee, United States)"/>
<marker lat="52.183" lon="-2.216" site="Worcester (United Kingdom)"/>
<marker lat="60.0" lon="-96.0" site="Canada (Canada)"/>
<marker lat="38.933" lon="-81.9" site="Antiquity (Ohio, United States)"/>
<marker lat="38.966" lon="-95.233" site="Lawrence, Kansas (Kansas, United States)"/>
<marker lat="41.95" lon="-70.666" site="Accomack (Massachusetts, United States)"/>
<marker lat="47.266" lon="-122.633" site="Tanglewood Island (Washington, United States)"/>
<marker lat="43.55" lon="10.3" site="Leghorn (Italy)"/>
<marker lat="42.266" lon="-71.416" site="Framingham (Massachusetts, United States)"/>
<marker lat="39.316" lon="-77.733" site="Harper's Ferry (West Virginia, United States)"/>
<marker lat="38.883" lon="-77.33" site="Washington (United States)"/>
<marker lat="10.65" lon="-66.966" site="Caribbean Sea"/>
<marker lat="40.583" lon="-86.666" site="Delphi (Indiana, United States)"/>
<marker lat="31.866" lon="-93.883" site="Sabine (United States)"/>
<marker lat="42.316" lon="-70.916" site="Fort Warren (Massachusetts, United States)"/>
<marker lat="37.9" lon="-120.366" site="Algerine (California, United States)"/>
<marker lat="38.9" lon="-77.25" site="Vienna (Virginia, United States)"/>
<marker lat="23.0" lon="-102.0" site="Mexico (Mexico)"/>
<marker lat="40.0" lon="-110.0" site="Utah (Utah, United States)"/>
<marker lat="44.0" lon="-73.0" site="Vermont (Vermont, United States)"/>
<marker lat="37.2" lon="-93.283" site="Springfield, Mo. (Missouri, United States)"/>
<marker lat="52.5" lon="5.75" site="Holland (Netherlands)"/>
<marker lat="43.5" lon="-1.466" site="Bayonne (France)"/>
<marker lat="42.166" lon="-73.15" site="Berkshire Hills (Massachusetts, United States)"/>
<marker lat="48.216" lon="16.366" site="Vienna (Wien, Austria)"/>
<marker lat="36.383" lon="-86.3" site="Castalian Springs (Tennessee, United States)"/>
<marker lat="37.16" lon="-78.883" site="Patrick Henry (Virginia, United States)"/>
<marker lat="37.933" lon="-79.283" site="Wades Mill (Virginia, United States)"/>
<marker lat="45.283" lon="-111.933" site="Virginia City (Montana, United States)"/>
<marker lat="42.666" lon="1.0" site="Pyrenees"/>
<marker lat="40.2" lon="-93.116" site="Milan, Sullivan County, Missouri (Missouri, United States)"/>
<marker lat="38.883" lon="-90.183" site="Alton (Illinois, United States)"/>
<marker lat="39.166" lon="-91.866" site="Mexico, Mo. (Missouri, United States)"/>
<marker lat="43.0" lon="13.0" site="Apennines (Italy)"/>
<marker lat="42.533" lon="-73.316" site="Hancock (Massachusetts, United States)"/>
<marker lat="42.33" lon="-70.666" site="Duxbury (Massachusetts, United States)"/>
<marker lat="42.45" lon="-71.666" site="Lancaster, Mass. (Massachusetts, United States)"/>
<marker lat="47.0" lon="20.0" site="Hungary (Hungary)"/>
<marker lat="38.516" lon="-98.933" site="Olmutz (Kansas, United States)"/>
<marker lat="54.0" lon="-72.0" site="Quebec (Canada)"/>
<marker lat="36.9" lon="-92.483" site="Vera Cruz, Mo. (Missouri, United States)"/>
<marker lat="48.133" lon="11.583" site="Munich (Bavaria, Germany)"/>
<marker lat="37.983" lon="-87.5" site="Centreville (Indiana, United States)"/>
<marker lat="38.8" lon="-80.616" site="Dutch (West Virginia, United States)"/>
<marker lat="32.766" lon="-79.916" site="Charleston (South Carolina, United States)"/>
<marker lat="40.766" lon="-74.216" site="Orange, N. J. (New Jersey, United States)"/>
<marker lat="47.333" lon="13.333" site="Austria (Austria)"/>
<marker lat="-10.0" lon="-55.0" site="Brazil (Brazil)"/>
<marker lat="47.233" lon="-1.583" site="Nantes (France)"/>
<marker lat="41.916" lon="-88.75" site="Buena Vista (Illinois, United States)"/>
<marker lat="42.233" lon="-71.166" site="Dedham (Massachusetts, United States)"/>
<marker lat="38.366" lon="-79.366" site="Highland County (Virginia, United States)"/>
<marker lat="52.0" lon="20.0" site="Poland (Poland)"/>
</markers>