<markers>
<marker lat="38.0" lon="-98.0" site="United States (United States)"/>
<marker lat="39.0" lon="-76.833" site="Maryland (Maryland, United States)"/>
<marker lat="30.316" lon="-87.283" site="Fort Pickens (Florida, United States)"/>
<marker lat="32.83" lon="-81.1" site="Savannah (Georgia, United States)"/>
<marker lat="32.0" lon="-84.0" site="Georgia (Georgia, United States)"/>
<marker lat="37.8" lon="-79.433" site="Rockbridge (Virginia, United States)"/>
<marker lat="42.25" lon="-71.833" site="Massachusetts (Massachusetts, United States)"/>
<marker lat="42.316" lon="-72.633" site="Northampton (Massachusetts, United States)"/>
<marker lat="38.883" lon="-77.33" site="Washington (United States)"/>
<marker lat="35.1" lon="-85.133" site="Harrison, Tenn. (Tennessee, United States)"/>
<marker lat="36.833" lon="-76.283" site="Norfolk (Virginia, United States)"/>
<marker lat="51.66" lon="-1.25" site="Hampshire (United Kingdom)"/>
<marker lat="31.0" lon="-92.0" site="Louisiana (Louisiana, United States)"/>
<marker lat="34.0" lon="-80.0" site="South Carolina (South Carolina, United States)"/>
<marker lat="35.0" lon="-93.0" site="Arkansas (Arkansas, United States)"/>
<marker lat="37.55" lon="-77.45" site="Richmond (Virginia, United States)"/>
<marker lat="38.216" lon="-82.1" site="Myra (West Virginia, United States)"/>
<marker lat="33.0" lon="-87.0" site="Alabama (Alabama, United States)"/>
<marker lat="37.3" lon="-78.383" site="Farmville (Virginia, United States)"/>
<marker lat="25.9" lon="-97.483" site="Fort Taylor (Texas, United States)"/>
<marker lat="36.833" lon="-76.283" site="Portsmouth, Va. (Virginia, United States)"/>
<marker lat="42.266" lon="-89.83" site="Rockford (Illinois, United States)"/>
<marker lat="38.8" lon="-77.33" site="Alexandria (Virginia, United States)"/>
<marker lat="39.833" lon="-75.35" site="Chester, Pa. (Pennsylvania, United States)"/>
<marker lat="34.733" lon="-92.283" site="Little Rock (Arkansas, United States)"/>
<marker lat="35.0" lon="105.0" site="China (China)"/>
<marker lat="40.833" lon="-76.0" site="Pennsylvania (Pennsylvania, United States)"/>
<marker lat="38.516" lon="-116.35" site="Upper Town (Nevada, United States)"/>
<marker lat="35.5" lon="-85.0" site="Tennessee (Tennessee, United States)"/>
<marker lat="37.0" lon="-80.0" site="Virginia (Virginia, United States)"/>
<marker lat="50.9" lon="-1.4" site="Southampton (United Kingdom)"/>
<marker lat="46.0" lon="2.0" site="France (France)"/>
<marker lat="37.316" lon="-80.683" site="Giles (Virginia, United States)"/>
<marker lat="36.75" lon="-77.85" site="Brunswick County (Virginia, United States)"/>
<marker lat="40.25" lon="-79.0" site="Somerset county (Pennsylvania, United States)"/>
<marker lat="39.133" lon="117.2" site="Tientsin (China)"/>
<marker lat="38.966" lon="-76.483" site="Annapolis (Maryland, United States)"/>
<marker lat="42.466" lon="-70.95" site="Lynn (Massachusetts, United States)"/>
<marker lat="39.283" lon="-76.6" site="Baltimore, Md. (Maryland, United States)"/>
<marker lat="44.0" lon="-85.0" site="Michigan (Michigan, United States)"/>
<marker lat="46.0" lon="-94.0" site="Minnesota (Minnesota, United States)"/>
<marker lat="38.0" lon="-98.0" site="Missouri (Missouri, United States)"/>
<marker lat="40.0" lon="-75.0" site="New Jersey (New Jersey, United States)"/>
<marker lat="35.15" lon="-80.866" site="Currituck (North Carolina, United States)"/>
<marker lat="39.366" lon="-87.0" site="Bowling Green (Indiana, United States)"/>
<marker lat="35.666" lon="-80.466" site="Salisbury, N. C. (North Carolina, United States)"/>
<marker lat="35.6" lon="-77.366" site="Greenville, North Carolina (North Carolina, United States)"/>
<marker lat="30.383" lon="-88.883" site="Biloxi (Mississippi, United States)"/>
<marker lat="43.166" lon="-78.766" site="Niagara County (New York, United States)"/>
<marker lat="37.366" lon="-77.5" site="Chesterfield (Virginia, United States)"/>
<marker lat="43.883" lon="-71.633" site="Campton (New Hampshire, United States)"/>
<marker lat="38.416" lon="-77.4" site="Stafford Court House (Virginia, United States)"/>
<marker lat="30.333" lon="-87.283" site="Fort Barrancas (Florida, United States)"/>
<marker lat="31.933" lon="-85.7" site="Perote, Alabama (Alabama, United States)"/>
<marker lat="42.366" lon="-76.866" site="Salubria (New York, United States)"/>
<marker lat="41.1" lon="-72.35" site="Greenport (New York, United States)"/>
<marker lat="34.25" lon="-85.15" site="Rome, Ga. (Georgia, United States)"/>
<marker lat="40.0" lon="9.0" site="Sardinia (Italy)"/>
<marker lat="37.4" lon="-79.133" site="Lynchburg (Virginia, United States)"/>
<marker lat="42.1" lon="-71.35" site="City Mills (Massachusetts, United States)"/>
<marker lat="32.3" lon="-90.233" site="Hinds county (Mississippi, United States)"/>
<marker lat="37.683" lon="-77.83" site="King William County (Virginia, United States)"/>
<marker lat="40.0" lon="-86.0" site="Indiana (Indiana, United States)"/>
<marker lat="39.0" lon="35.0" site="Turquie (Turkey)"/>
<marker lat="40.0" lon="-80.833" site="Ohio (Ohio, United States)"/>
<marker lat="35.5" lon="-80.0" site="North Carolina (North Carolina, United States)"/>
<marker lat="37.75" lon="-77.483" site="Hanover County (Virginia, United States)"/>
<marker lat="52.5" lon="9.0" site="Hannover (Lower Saxony, Germany)"/>
<marker lat="39.0" lon="-80.0" site="West Virginia (West Virginia, United States)"/>
<marker lat="40.216" lon="-74.733" site="Chambersburg (New Jersey, United States)"/>
<marker lat="38.3" lon="-77.45" site="Fredericksburg, Va. (Virginia, United States)"/>
<marker lat="32.283" lon="-90.183" site="Jackson (Mississippi, United States)"/>
<marker lat="37.333" lon="-77.966" site="Amelia Court House (Virginia, United States)"/>
<marker lat="42.583" lon="-70.816" site="Essex (Massachusetts, United States)"/>
<marker lat="37.583" lon="-79.5" site="Amherst (Va.) (Virginia, United States)"/>
<marker lat="34.166" lon="-82.366" site="Abbeville, S. C. (South Carolina, United States)"/>
<marker lat="44.0" lon="-73.0" site="Vermont (Vermont, United States)"/>
<marker lat="42.333" lon="-76.833" site="Havana, N. Y. (New York, United States)"/>
<marker lat="38.983" lon="-77.883" site="Upperville (Virginia, United States)"/>
<marker lat="38.133" lon="-79.66" site="Staunton, Va. (Virginia, United States)"/>
<marker lat="39.65" lon="-78.75" site="Cumberland (Maryland, United States)"/>
<marker lat="37.16" lon="-78.883" site="Patrick Henry (Virginia, United States)"/>
<marker lat="32.883" lon="-86.216" site="Rockford (Alabama, United States)"/>
<marker lat="36.633" lon="-80.25" site="Stuart (Virginia, United States)"/>
<marker lat="39.166" lon="-91.866" site="Mexico, Mo. (Missouri, United States)"/>
<marker lat="38.783" lon="-77.183" site="Springfield (Virginia, United States)"/>
<marker lat="40.266" lon="-76.883" site="Harrisburg, Pa. (Pennsylvania, United States)"/>
<marker lat="38.7" lon="-77.483" site="Prince William (Virginia, United States)"/>
<marker lat="33.633" lon="-90.366" site="McNutt (Mississippi, United States)"/>
<marker lat="39.95" lon="-75.6" site="West Chester (Pennsylvania, United States)"/>
<marker lat="34.716" lon="-86.583" site="Huntsville (Alabama, United States)"/>
<marker lat="38.33" lon="-77.35" site="Caroline (Virginia, United States)"/>
<marker lat="40.66" lon="-80.9" site="St. Clairsville, Ohio (Ohio, United States)"/>
<marker lat="39.566" lon="-77.95" site="Georgetown (West Virginia, United States)"/>
<marker lat="33.466" lon="-82.16" site="Augusta (Georgia, United States)"/>
<marker lat="36.9" lon="-92.483" site="Vera Cruz, Mo. (Missouri, United States)"/>
<marker lat="40.733" lon="-73.933" site="Long Island City (New York, United States)"/>
<marker lat="40.683" lon="-73.966" site="Brooklyn (New York, United States)"/>
<marker lat="32.766" lon="-79.916" site="Charleston (South Carolina, United States)"/>
<marker lat="39.83" lon="-84.5" site="Covington (Kentucky, United States)"/>
<marker lat="39.83" lon="-77.15" site="Rockville, Md. (Maryland, United States)"/>
<marker lat="37.983" lon="-77.966" site="Louisa (Virginia, United States)"/>
<marker lat="37.2" lon="-78.45" site="Prince Edward (Virginia, United States)"/>
<marker lat="37.366" lon="-81.65" site="McDowell (West Virginia, United States)"/>
<marker lat="37.833" lon="-81.933" site="Logan County (West Virginia, United States)"/>
<marker lat="37.3" lon="-79.566" site="Bedford County (Virginia, United States)"/>
<marker lat="39.45" lon="-78.33" site="Berkeley County (West Virginia, United States)"/>
</markers>