<markers>
<marker lat="33.133" lon="-84.16" site="Socrates (Georgia, United States)"/>
<marker lat="38.883" lon="-77.33" site="Washington (United States)"/>
<marker lat="45.65" lon="-72.683" site="Upton (Canada)"/>
<marker lat="41.9" lon="12.4833" site="Rome (Italy)"/>
<marker lat="51.5" lon="-0.583" site="Upton (United Kingdom)"/>
<marker lat="43.166" lon="-76.116" site="Cicero (New York, United States)"/>
<marker lat="40.116" lon="-86.0" site="Cicero (Indiana, United States)"/>
<marker lat="41.116" lon="-83.116" site="Seneca (Ohio, United States)"/>
<marker lat="47.783" lon="-109.783" site="Iliad (Montana, United States)"/>
<marker lat="38.0" lon="23.733" site="Athens (Greece)"/>
<marker lat="39.783" lon="-81.733" site="Zeno (Ohio, United States)"/>
<marker lat="37.9667" lon="23.7333" site="Athens (Greece)"/>
<marker lat="42.783" lon="-76.85" site="Seneca (New York, United States)"/>
<marker lat="40.766" lon="-80.16" site="Zeno (Pennsylvania, United States)"/>
<marker lat="38.0417" lon="23.5583" site="Eleusis (Greece)"/>
<marker lat="31.366" lon="-102.5" site="Upton (Texas, United States)"/>
<marker lat="52.66" lon="-2.216" site="Upton (United Kingdom)"/>
<marker lat="38.166" lon="-79.216" site="Christians (Virginia, United States)"/>
<marker lat="38.616" lon="-81.983" site="Pliny (West Virginia, United States)"/>
<marker lat="41.333" lon="-84.7" site="Cicero (Ohio, United States)"/>
<marker lat="37.65" lon="21.6333" site="Olympia (Greece)"/>
<marker lat="47.33" lon="-122.883" site="Smithfield (Washington, United States)"/>
<marker lat="53.0" lon="-2.0" site="England (United Kingdom)"/>
<marker lat="41.833" lon="-87.75" site="Cicero (Illinois, United States)"/>
<marker lat="39.666" lon="20.833" site="Epirus (Greece)"/>
<marker lat="39.0" lon="22.0" site="Greece (Greece)"/>
<marker lat="36.883" lon="-87.483" site="Christian (Kentucky, United States)"/>
<marker lat="35.366" lon="-82.283" site="Horace (North Carolina, United States)"/>
<marker lat="40.766" lon="-75.266" site="Hercules (Pennsylvania, United States)"/>
<marker lat="10.166" lon="-8.666" site="Dion (Guinea)"/>
<marker lat="31.83" lon="47.5" site="Euphrates"/>
<marker lat="37.466" lon="-114.766" site="Helene (Nevada, United States)"/>
<marker lat="40.433" lon="-84.85" site="Hector (Indiana, United States)"/>
<marker lat="11.83" lon="-9.25" site="Milo (Guinea)"/>
<marker lat="41.7" lon="-71.15" site="Troy (Massachusetts, United States)"/>
<marker lat="37.9083" lon="22.9083" site="Corinth (Greece)"/>
<marker lat="40.35" lon="-75.383" site="Argus (Pennsylvania, United States)"/>
<marker lat="42.833" lon="12.833" site="Italy (Italy)"/>
<marker lat="29.6" lon="-89.866" site="Nero (Louisiana, United States)"/>
<marker lat="32.0" lon="53.0" site="Persia (Iran)"/>
<marker lat="39.95" lon="26.25" site="Ilium (Turkey)"/>
<marker lat="34.283" lon="-84.15" site="Matt (Georgia, United States)"/>
<marker lat="53.383" lon="-3.1" site="Upton (United Kingdom)"/>
<marker lat="36.5" lon="-83.883" site="Corinth (Tennessee, United States)"/>
<marker lat="30.75" lon="-97.583" site="Theon (Texas, United States)"/>
<marker lat="35.75" lon="-105.683" site="Holy Ghost (New Mexico, United States)"/>
<marker lat="36.9167" lon="34.8833" site="Tarsus (Turkey)"/>
<marker lat="39.5" lon="22.25" site="Thessaly (Greece)"/>
<marker lat="37.333" lon="-97.333" site="Cicero (Kansas, United States)"/>
<marker lat="39.0" lon="-76.966" site="Adelphi (Maryland, United States)"/>
<marker lat="35.75" lon="-80.85" site="Matthew (North Carolina, United States)"/>
<marker lat="6.4" lon="-10.8" site="St. Paul (Liberia)"/>
<marker lat="37.15" lon="-83.65" site="Hector (Kentucky, United States)"/>
<marker lat="18.333" lon="-64.75" site="St. John"/>
<marker lat="37.5" lon="22.0" site="Peloponnesus (Greece)"/>
<marker lat="39.0833" lon="17.1333" site="Croton (Italy)"/>
<marker lat="34.716" lon="-77.566" site="Cyrus (North Carolina, United States)"/>
<marker lat="35.0" lon="33.0" site="Cyprus (Cyprus)"/>
<marker lat="33.3" lon="-89.15" site="Tuscan (Mississippi, United States)"/>
<marker lat="35.0" lon="38.0" site="Syria (Syria)"/>
<marker lat="41.233" lon="-79.8" site="Cyrus (Pennsylvania, United States)"/>
<marker lat="37.933" lon="-82.666" site="Ulysses (Kentucky, United States)"/>
<marker lat="36.75" lon="34.55" site="Soli"/>
<marker lat="42.966" lon="-81.25" site="London (Canada)"/>
<marker lat="32.2" lon="48.333" site="Susa (Iran)"/>
<marker lat="32.166" lon="-89.766" site="Rufus (Mississippi, United States)"/>
<marker lat="42.5" lon="-76.866" site="Hector (New York, United States)"/>
<marker lat="35.833" lon="-95.916" site="Hector (Oklahoma, United States)"/>
<marker lat="34.766" lon="48.583" site="Ecbatana (Iran)"/>
<marker lat="48.16" lon="-100.833" site="Voltaire (North Dakota, United States)"/>
<marker lat="34.466" lon="-86.616" site="Wolff (Alabama, United States)"/>
<marker lat="38.5" lon="25.0" site="Aegean"/>
<marker lat="38.83" lon="23.5" site="Attica (Greece)"/>
<marker lat="38.8" lon="22.5583" site="Thermopylae"/>
<marker lat="42.266" lon="-72.6" site="Thermopylae (Massachusetts, United States)"/>
<marker lat="45.316" lon="7.366" site="Ceres (Italy)"/>
<marker lat="38.316" lon="23.316" site="Thebes (Greece)"/>
<marker lat="37.816" lon="-81.9" site="Macbeth (West Virginia, United States)"/>
<marker lat="37.816" lon="34.6" site="Tyana (Turkey)"/>
<marker lat="32.45" lon="-106.483" site="Tiberius (New Mexico, United States)"/>
<marker lat="36.916" lon="34.883" site="Tarsus (Turkey)"/>
<marker lat="40.2" lon="29.66" site="Prusa (Turkey)"/>
<marker lat="35.75" lon="-82.583" site="Jupiter (North Carolina, United States)"/>
<marker lat="52.5" lon="0.166" site="Cambridge (United Kingdom)"/>
<marker lat="40.166" lon="30.25" site="Bithynia (Turkey)"/>
<marker lat="41.216" lon="-93.0" site="Attica (Iowa, United States)"/>
<marker lat="43.216" lon="-79.133" site="Virgil (Canada)"/>
<marker lat="42.666" lon="-76.816" site="Ovid (New York, United States)"/>
<marker lat="44.933" lon="-93.83" site="St. Paul (Minnesota, United States)"/>
<marker lat="40.333" lon="-78.16" site="Calvin (Pennsylvania, United States)"/>
<marker lat="36.666" lon="34.333" site="Cilicia (Turkey)"/>
<marker lat="39.2833" lon="20.6667" site="Pandosia"/>
<marker lat="31.566" lon="-86.683" site="Rhodes (Alabama, United States)"/>
<marker lat="31.95" lon="-86.3" site="Argus (Alabama, United States)"/>
<marker lat="34.916" lon="33.633" site="Kition (Cyprus)"/>
<marker lat="35.3" lon="-85.433" site="Delphi (Tennessee, United States)"/>
<marker lat="36.483" lon="-83.316" site="Xenophon (Tennessee, United States)"/>
<marker lat="37.916" lon="27.316" site="Ephesus (Turkey)"/>
<marker lat="41.9" lon="-77.75" site="Ulysses (Pennsylvania, United States)"/>
<marker lat="9.9" lon="-74.766" site="Plato (Colombia)"/>
<marker lat="40.733" lon="-82.66" site="Horace (Ohio, United States)"/>
<marker lat="38.8" lon="-77.33" site="Alexandria (Virginia, United States)"/>
<marker lat="37.633" lon="-82.466" site="Piso (Kentucky, United States)"/>
<marker lat="41.833" lon="22.0" site="Macedonia (Macedonia)"/>
</markers>