<markers>
<marker lat="37.9667" lon="23.7333" site="Athens (Greece)"/>
<marker lat="39.916" lon="25.25" site="Lemnos (Greece)"/>
<marker lat="60.383" lon="19.833" site="Geta (Finland)"/>
<marker lat="35.0" lon="38.0" site="Syria (Syria)"/>
<marker lat="33.266" lon="35.183" site="Tyre (Lebanon)"/>
<marker lat="38.83" lon="23.5" site="Attica (Greece)"/>
<marker lat="37.433" lon="24.916" site="Syros (Greece)"/>
<marker lat="32.55" lon="44.4" site="Babylon (Iraq)"/>
<marker lat="51.83" lon="-3.0" site="Somerset (United Kingdom)"/>
<marker lat="41.9" lon="12.4833" site="Rome (Italy)"/>
<marker lat="42.0" lon="38.0" site="Pontus"/>
<marker lat="52.416" lon="-1.5" site="Coventry (United Kingdom)"/>
</markers>