<markers>
<marker lat="39.816" lon="-77.216" site="Gettysburg (Pennsylvania, United States)"/>
<marker lat="19.416" lon="-99.166" site="Mexico (Mexico, Mexico)"/>
<marker lat="38.0" lon="-98.0" site="United States (United States)"/>
<marker lat="38.3" lon="-77.45" site="Fredericksburg, Va. (Virginia, United States)"/>
<marker lat="25.2" lon="-99.833" site="Monterrey (Nuevo Leon, Mexico)"/>
<marker lat="25.5" lon="-101.0" site="Saltillo (Coahuila, Mexico)"/>
<marker lat="19.333" lon="-96.666" site="Vera Cruz (Veracruz, Mexico)"/>
<marker lat="22.3" lon="-97.866" site="Tampico (Tamaulipas, Mexico)"/>
<marker lat="39.816" lon="-77.216" site="Cemetery Hill (Pennsylvania, United States)"/>
<marker lat="39.65" lon="-77.166" site="Taneytown (Maryland, United States)"/>
<marker lat="40.833" lon="-76.0" site="Pennsylvania (Pennsylvania, United States)"/>
<marker lat="41.366" lon="-74.7" site="Matamoras (Pennsylvania, United States)"/>
<marker lat="38.316" lon="-77.466" site="Falmouth, Va. (Virginia, United States)"/>
<marker lat="53.0" lon="-2.0" site="England (United Kingdom)"/>
<marker lat="39.283" lon="-76.6" site="Baltimore, Md. (Maryland, United States)"/>
<marker lat="40.266" lon="-76.883" site="Harrisburg, Pa. (Pennsylvania, United States)"/>
<marker lat="39.866" lon="-77.733" site="Cashtown (Pennsylvania, United States)"/>
<marker lat="27.8" lon="-97.383" site="Corpus Christi (Texas, United States)"/>
<marker lat="39.516" lon="-81.66" site="Matamoras (Ohio, United States)"/>
<marker lat="39.9" lon="-89.933" site="Rock Creek, Menard County, Illinois (Illinois, United States)"/>
<marker lat="39.933" lon="-77.65" site="Chambersburg, Pa. (Pennsylvania, United States)"/>
<marker lat="39.316" lon="-77.733" site="Harper's Ferry (West Virginia, United States)"/>
<marker lat="39.4" lon="-77.4" site="Frederick, Md. (Maryland, United States)"/>
<marker lat="39.633" lon="-77.716" site="Hagerstown (Maryland, United States)"/>
<marker lat="39.6" lon="-77.816" site="Williamsport (Maryland, United States)"/>
<marker lat="39.0" lon="-76.833" site="Maryland (Maryland, United States)"/>
<marker lat="38.8" lon="-77.33" site="Alexandria (Virginia, United States)"/>
<marker lat="37.316" lon="-77.266" site="City Point (Virginia, United States)"/>
<marker lat="37.55" lon="-77.45" site="Richmond (Virginia, United States)"/>
<marker lat="45.766" lon="-116.8" site="Cemetery Ridge (Oregon, United States)"/>
<marker lat="39.783" lon="-77.366" site="Fairfield, Pa. (Pennsylvania, United States)"/>
<marker lat="30.0" lon="-100.0" site="Texas (Texas, United States)"/>
<marker lat="38.7" lon="-77.783" site="Warrenton (Virginia, United States)"/>
<marker lat="38.883" lon="-84.116" site="Point Isabel (Ohio, United States)"/>
<marker lat="23.0" lon="-102.0" site="Mexico (Mexico)"/>
<marker lat="38.816" lon="-77.516" site="Bull Run, Va. (Virginia, United States)"/>
<marker lat="28.0" lon="-82.0" site="Florida (Florida, United States)"/>
<marker lat="39.566" lon="-76.983" site="Westminster (Maryland, United States)"/>
<marker lat="43.4" lon="-3.866" site="Camargo (Spain)"/>
<marker lat="40.183" lon="-76.716" site="Middletown (Pennsylvania, United States)"/>
<marker lat="39.183" lon="-78.15" site="Winchester, Va. (Virginia, United States)"/>
<marker lat="39.816" lon="-77.233" site="Seminary Ridge (Pennsylvania, United States)"/>
<marker lat="38.833" lon="-77.416" site="Centreville (Virginia, United States)"/>
<marker lat="39.8" lon="-76.983" site="McAllister (Pennsylvania, United States)"/>
<marker lat="40.783" lon="-77.33" site="Middleburg (Pennsylvania, United States)"/>
<marker lat="39.816" lon="-77.216" site="Culp's Hill (Pennsylvania, United States)"/>
<marker lat="38.516" lon="-77.6" site="Aquia Creek (Virginia, United States)"/>
<marker lat="28.75" lon="-96.966" site="Hughes (Texas, United States)"/>
<marker lat="39.95" lon="-76.716" site="York, Pa. (Pennsylvania, United States)"/>
<marker lat="40.0" lon="-4.0" site="Spain (Spain)"/>
<marker lat="39.933" lon="-77.133" site="Heidlersburg (Pennsylvania, United States)"/>
<marker lat="35.5" lon="-85.0" site="Tennessee (Tennessee, United States)"/>
<marker lat="39.733" lon="-77.83" site="Littlestown (Pennsylvania, United States)"/>
<marker lat="38.133" lon="-78.183" site="Gordonsville (Virginia, United States)"/>
<marker lat="37.233" lon="-76.5" site="Yorktown (Virginia, United States)"/>
<marker lat="41.816" lon="-71.4" site="Providence, R. I. (Rhode Island, United States)"/>
<marker lat="37.0" lon="-119.0" site="California (California, United States)"/>
<marker lat="40.2" lon="-77.183" site="Carlisle, Pa. (Pennsylvania, United States)"/>
<marker lat="38.3" lon="-77.633" site="Chancellorsville (Virginia, United States)"/>
<marker lat="39.9" lon="-76.166" site="Camargo (Pennsylvania, United States)"/>
<marker lat="31.0" lon="-92.0" site="Louisiana (Louisiana, United States)"/>
<marker lat="39.0" lon="-77.333" site="Dranesville (Virginia, United States)"/>
<marker lat="39.1" lon="-77.55" site="Leesburg (Virginia, United States)"/>
<marker lat="37.516" lon="-76.783" site="West Point (Virginia, United States)"/>
<marker lat="40.0" lon="-80.833" site="Ohio (Ohio, United States)"/>
<marker lat="38.883" lon="-77.33" site="Washington (United States)"/>
<marker lat="43.16" lon="-4.15" site="Reinosa (Spain)"/>
<marker lat="39.45" lon="-77.733" site="Sharpsburg (Maryland, United States)"/>
<marker lat="36.533" lon="-6.3" site="Gades (Spain)"/>
<marker lat="39.5" lon="-77.65" site="Boonsboro (Maryland, United States)"/>
<marker lat="39.766" lon="-77.15" site="Two Taverns (Pennsylvania, United States)"/>
<marker lat="46.233" lon="-122.783" site="Headquarters (Washington, United States)"/>
<marker lat="46.0" lon="2.0" site="France (France)"/>
<marker lat="33.733" lon="-84.383" site="Atlanta (Georgia, United States)"/>
<marker lat="39.65" lon="-76.883" site="Manchester, Maryland (Maryland, United States)"/>
<marker lat="38.966" lon="-77.633" site="Aldie (Virginia, United States)"/>
<marker lat="60.0" lon="-96.0" site="Canada (Canada)"/>
<marker lat="40.133" lon="-77.716" site="New Bridge (Pennsylvania, United States)"/>
<marker lat="37.0" lon="-80.0" site="Virginia (Virginia, United States)"/>
<marker lat="28.633" lon="-106.83" site="Chihuahua (Chihuahua, Mexico)"/>
<marker lat="37.816" lon="-79.25" site="South Mountain, Va. (Virginia, United States)"/>
<marker lat="37.0" lon="-85.0" site="Kentucky (Kentucky, United States)"/>
<marker lat="35.5" lon="-80.0" site="North Carolina (North Carolina, United States)"/>
<marker lat="32.866" lon="-85.183" site="West Point (Georgia, United States)"/>
<marker lat="39.85" lon="-91.916" site="Burksville (Missouri, United States)"/>
<marker lat="38.233" lon="-77.85" site="Mine Run (Virginia, United States)"/>
<marker lat="37.516" lon="-76.783" site="York (Virginia, United States)"/>
<marker lat="38.916" lon="-78.183" site="Front Royal (Virginia, United States)"/>
<marker lat="33.0" lon="-87.0" site="Alabama (Alabama, United States)"/>
<marker lat="32.0" lon="-84.0" site="Georgia (Georgia, United States)"/>
<marker lat="34.0" lon="-80.0" site="South Carolina (South Carolina, United States)"/>
<marker lat="27.933" lon="-82.45" site="Tampa (Florida, United States)"/>
<marker lat="39.9" lon="-79.716" site="Uniontown (Pennsylvania, United States)"/>
<marker lat="39.65" lon="-78.75" site="Cumberland (Maryland, United States)"/>
<marker lat="37.583" lon="-77.1" site="Tunstall (Virginia, United States)"/>
<marker lat="39.833" lon="-77.483" site="South Mountain (Pennsylvania, United States)"/>
<marker lat="33.6" lon="-88.65" site="West Point (Mississippi, United States)"/>
<marker lat="38.983" lon="-78.35" site="Strasburg, Va. (Virginia, United States)"/>
<marker lat="22.5" lon="-100.5" site="San Luis Potosi (San Luis Potosi, Mexico)"/>
<marker lat="37.383" lon="-77.233" site="Malvern Hill (Virginia, United States)"/>
<marker lat="35.683" lon="-75.716" site="Old Point (North Carolina, United States)"/>
<marker lat="36.583" lon="-79.383" site="Danville (Virginia, United States)"/>
<marker lat="34.933" lon="-88.516" site="Corinth (Mississippi, United States)"/>
<marker lat="39.333" lon="-77.716" site="Maryland Heights (Maryland, United States)"/>
<marker lat="39.3" lon="-77.616" site="Berlin, Md. (Maryland, United States)"/>
<marker lat="46.0" lon="-94.0" site="Minnesota (Minnesota, United States)"/>
<marker lat="25.216" lon="-80.2" site="Carysfort Reef (Florida, United States)"/>
<marker lat="28.5" lon="-96.983" site="Aransas Bay (Texas, United States)"/>
<marker lat="25.916" lon="-100.0" site="Marin (Nuevo Leon, Mexico)"/>
<marker lat="39.9" lon="-77.516" site="Africa (Pennsylvania, United States)"/>
<marker lat="38.233" lon="-78.1" site="Orange Court House (Virginia, United States)"/>
<marker lat="39.766" lon="-94.833" site="St. Joseph, Mo. (Missouri, United States)"/>
<marker lat="39.883" lon="-77.233" site="Willoughby Run (Pennsylvania, United States)"/>
<marker lat="39.0" lon="-105.0" site="Colorado (Colorado, United States)"/>
<marker lat="34.0" lon="-81.33" site="Columbia (South Carolina, United States)"/>
<marker lat="32.366" lon="-80.683" site="Port Royal (South Carolina, United States)"/>
<marker lat="41.85" lon="-87.65" site="Chicago (Illinois, United States)"/>
<marker lat="39.5" lon="-75.15" site="Delaware Bay (United States)"/>
<marker lat="39.6" lon="-77.7" site="Funkstown (Maryland, United States)"/>
<marker lat="36.5" lon="-88.0" site="Fort Henry (Tennessee, United States)"/>
<marker lat="38.15" lon="-78.83" site="North Anna (Virginia, United States)"/>
<marker lat="39.16" lon="-78.266" site="Middletown (Virginia, United States)"/>
<marker lat="38.483" lon="-87.266" site="Petersburgh (Indiana, United States)"/>
<marker lat="42.25" lon="-71.833" site="Massachusetts (Massachusetts, United States)"/>
<marker lat="44.0" lon="-85.0" site="Michigan (Michigan, United States)"/>
<marker lat="38.0" lon="-98.0" site="Missouri (Missouri, United States)"/>
<marker lat="38.933" lon="-77.83" site="Tennallytown (United States)"/>
<marker lat="29.95" lon="-90.66" site="New Orleans (Louisiana, United States)"/>
<marker lat="24.9" lon="-99.633" site="Linares (Nuevo Leon, Mexico)"/>
<marker lat="35.466" lon="-86.83" site="Manchester, Tenn. (Tennessee, United States)"/>
<marker lat="36.483" lon="-87.85" site="Fort Donelson (Tennessee, United States)"/>
<marker lat="38.316" lon="-78.166" site="Twymans Mill (Virginia, United States)"/>
<marker lat="42.4" lon="-71.883" site="Brook's Station (Massachusetts, United States)"/>
<marker lat="44.0" lon="-120.0" site="Oregon (Oregon, United States)"/>
<marker lat="38.25" lon="-85.75" site="Louisville (Kentucky, United States)"/>
<marker lat="35.683" lon="-105.933" site="Pala (New Mexico, United States)"/>
<marker lat="39.866" lon="-77.15" site="Hunterstown (Pennsylvania, United States)"/>
<marker lat="41.666" lon="-74.866" site="Lake Superior (New York, United States)"/>
<marker lat="39.566" lon="-77.166" site="Union Bridge (Maryland, United States)"/>
<marker lat="40.5" lon="-80.716" site="Wheeling, W. Va. (West Virginia, United States)"/>
<marker lat="39.45" lon="-77.95" site="Martinsburg (West Virginia, United States)"/>
<marker lat="37.3" lon="-77.166" site="Harrison's Landing (Virginia, United States)"/>
<marker lat="38.5" lon="-77.883" site="Brandy Station (Virginia, United States)"/>
<marker lat="45.0" lon="-69.0" site="Maine (Maine, United States)"/>
<marker lat="41.933" lon="-75.6" site="Susquehanna, Pa. (Pennsylvania, United States)"/>
<marker lat="40.0" lon="-75.0" site="New Jersey (New Jersey, United States)"/>
<marker lat="37.5" lon="-77.3" site="White Oak Swamp (Virginia, United States)"/>
<marker lat="44.466" lon="-73.2" site="Burlington (Vermont, United States)"/>
<marker lat="28.0" lon="-96.933" site="St. Joseph's Island (Texas, United States)"/>
<marker lat="13.166" lon="-59.533" site="Barbados (Barbados)"/>
<marker lat="36.833" lon="-76.283" site="Norfolk (Virginia, United States)"/>
<marker lat="38.66" lon="-78.883" site="Waynesboro, Va. (Virginia, United States)"/>
<marker lat="37.4" lon="-79.133" site="Lynchburg (Virginia, United States)"/>
<marker lat="42.983" lon="-71.45" site="Manchester (New Hampshire, United States)"/>
<marker lat="35.866" lon="-75.65" site="Roanoke Island (North Carolina, United States)"/>
<marker lat="27.683" lon="-82.566" site="Tampa Bay (Florida, United States)"/>
<marker lat="40.5" lon="-77.516" site="Shippensburg (Pennsylvania, United States)"/>
<marker lat="40.583" lon="-77.566" site="Lewistown (Pennsylvania, United States)"/>
<marker lat="41.666" lon="-71.5" site="Rhode Island (Rhode Island, United States)"/>
<marker lat="40.433" lon="-79.983" site="Pittsburgh (Pennsylvania, United States)"/>
<marker lat="37.433" lon="-77.233" site="Glendale, Va. (Virginia, United States)"/>
<marker lat="17.75" lon="-92.8" site="Jalapa (Tabasco, Mexico)"/>
<marker lat="44.0" lon="-73.0" site="Vermont (Vermont, United States)"/>
<marker lat="42.333" lon="-76.833" site="Havana, N. Y. (New York, United States)"/>
<marker lat="45.5" lon="-73.6" site="Montreal (Canada)"/>
<marker lat="39.666" lon="-77.16" site="Union Mills (Maryland, United States)"/>
<marker lat="28.683" lon="-95.966" site="Matagorda, Texas (Texas, United States)"/>
<marker lat="35.3" lon="-83.4" site="Devil Den Ridge (North Carolina, United States)"/>
<marker lat="36.716" lon="-76.583" site="Suffolk, Va. (Virginia, United States)"/>
<marker lat="43.1" lon="-75.216" site="Utica (New York, United States)"/>
<marker lat="41.433" lon="-74.383" site="Mechanicstown (New York, United States)"/>
<marker lat="34.216" lon="-77.933" site="Wilmington, N. C. (North Carolina, United States)"/>
<marker lat="39.566" lon="-80.433" site="Seven Pines (West Virginia, United States)"/>
<marker lat="37.266" lon="-76.7" site="Williamsburg (Virginia, United States)"/>
<marker lat="40.116" lon="-75.866" site="Chester County (Pennsylvania, United States)"/>
<marker lat="37.75" lon="-77.366" site="Hanover Court House (Virginia, United States)"/>
<marker lat="54.0" lon="-72.0" site="Quebec (Canada)"/>
<marker lat="34.883" lon="-88.1" site="Eastport (Mississippi, United States)"/>
<marker lat="38.16" lon="-78.466" site="Charlottesville (Virginia, United States)"/>
<marker lat="38.383" lon="-75.333" site="Willards (Maryland, United States)"/>
<marker lat="39.216" lon="-78.25" site="Frederick (Virginia, United States)"/>
<marker lat="46.7" lon="-122.916" site="Seminary hill (Washington, United States)"/>
<marker lat="38.366" lon="-78.66" site="Cedar Mountain (Virginia, United States)"/>
<marker lat="39.433" lon="-77.533" site="Middletown (Maryland, United States)"/>
<marker lat="37.8" lon="-77.4" site="Pamunkey (Virginia, United States)"/>
<marker lat="39.366" lon="-77.15" site="Mount Airy (Maryland, United States)"/>
<marker lat="28.1" lon="-96.983" site="Aransas (Texas, United States)"/>
<marker lat="40.266" lon="-80.983" site="Cadiz, Harrison County, Ohio (Ohio, United States)"/>
<marker lat="39.666" lon="-78.233" site="Roundtop Hill (Maryland, United States)"/>
<marker lat="39.916" lon="-77.983" site="McConnellsburg (Pennsylvania, United States)"/>
<marker lat="26.916" lon="-101.416" site="Monclova (Coahuila, Mexico)"/>
<marker lat="25.2" lon="-99.833" site="Montemorelos (Nuevo Leon, Mexico)"/>
<marker lat="37.483" lon="-77.316" site="White Oak Swamp Creek (Virginia, United States)"/>
<marker lat="37.83" lon="-78.25" site="Laurel Hill, Va. (Virginia, United States)"/>
<marker lat="34.66" lon="-88.633" site="Camargo (Mississippi, United States)"/>
<marker lat="38.716" lon="-77.533" site="Bristoe (Virginia, United States)"/>
<marker lat="32.66" lon="-99.83" site="Red River (Texas, United States)"/>
<marker lat="39.733" lon="-92.66" site="Walkersville (Missouri, United States)"/>
<marker lat="44.683" lon="-75.483" site="Ogdensburg (New York, United States)"/>
<marker lat="56.25" lon="-3.33" site="Fife (United Kingdom)"/>
</markers>