<markers>
<marker lat="38.0" lon="-98.0" site="United States (United States)"/>
<marker lat="38.316" lon="-78.166" site="Twymans Mill (Virginia, United States)"/>
<marker lat="37.5" lon="-77.3" site="White Oak Swamp (Virginia, United States)"/>
<marker lat="30.566" lon="-81.683" site="Nassau River (Florida, United States)"/>
<marker lat="34.0" lon="-80.0" site="South Carolina (South Carolina, United States)"/>
<marker lat="37.383" lon="-77.233" site="Malvern Hill (Virginia, United States)"/>
<marker lat="32.25" lon="-90.416" site="Raymond (Mississippi, United States)"/>
<marker lat="33.95" lon="-84.55" site="Marietta (Georgia, United States)"/>
<marker lat="34.233" lon="-84.933" site="Kingston, Ga. (Georgia, United States)"/>
<marker lat="38.416" lon="-77.4" site="Stafford Court House (Virginia, United States)"/>
<marker lat="34.25" lon="-85.15" site="Rome, Ga. (Georgia, United States)"/>
<marker lat="31.983" lon="-81.1" site="Vernon River, Ga. (Georgia, United States)"/>
<marker lat="37.416" lon="-77.45" site="Drewry's Bluff (Virginia, United States)"/>
<marker lat="37.55" lon="-77.45" site="Richmond (Virginia, United States)"/>
<marker lat="33.916" lon="-84.833" site="Dallas, Ga. (Georgia, United States)"/>
<marker lat="39.583" lon="-75.566" site="Fort Delaware (Delaware, United States)"/>
<marker lat="35.83" lon="-89.8" site="Germantown (Tennessee, United States)"/>
<marker lat="34.766" lon="-89.433" site="Holly Springs (Mississippi, United States)"/>
<marker lat="33.733" lon="-84.383" site="Atlanta (Georgia, United States)"/>
<marker lat="36.1" lon="-84.116" site="Clinton (Tennessee, United States)"/>
<marker lat="32.816" lon="-91.2" site="Lake Providence (Louisiana, United States)"/>
<marker lat="43.0" lon="-75.0" site="New York State (New York, United States)"/>
<marker lat="34.85" lon="-82.383" site="Greenville (South Carolina, United States)"/>
<marker lat="37.183" lon="-78.2" site="Burkeville (Virginia, United States)"/>
<marker lat="41.366" lon="-83.65" site="Bowling Green, Wood County, Ohio (Ohio, United States)"/>
<marker lat="38.2" lon="-77.583" site="Spottsylvania (Virginia, United States)"/>
<marker lat="31.933" lon="-80.95" site="Warsaw Sound (Georgia, United States)"/>
<marker lat="38.283" lon="-78.8" site="Port Republic (Virginia, United States)"/>
<marker lat="43.65" lon="-70.25" site="Portland (Maine, United States)"/>
<marker lat="43.45" lon="-88.833" site="Beaver Dam (Wisconsin, United States)"/>
<marker lat="34.316" lon="-85.816" site="Portersville (Alabama, United States)"/>
<marker lat="33.95" lon="-91.66" site="White River (Arkansas, United States)"/>
<marker lat="37.516" lon="-77.383" site="Rocketts (Virginia, United States)"/>
<marker lat="30.3" lon="-81.966" site="Baldwin, Fla. (Florida, United States)"/>
<marker lat="37.333" lon="-77.266" site="Bermuda Hundred (Virginia, United States)"/>
<marker lat="37.683" lon="-77.83" site="King William County (Virginia, United States)"/>
<marker lat="31.0" lon="-92.0" site="Louisiana (Louisiana, United States)"/>
<marker lat="40.0" lon="-86.0" site="Indiana (Indiana, United States)"/>
<marker lat="32.0" lon="-84.0" site="Georgia (Georgia, United States)"/>
<marker lat="32.65" lon="-84.166" site="Fickling (Georgia, United States)"/>
<marker lat="60.0" lon="-96.0" site="Canada (Canada)"/>
<marker lat="38.883" lon="-77.33" site="Washington (United States)"/>
<marker lat="38.733" lon="-77.816" site="Fauquier (Virginia, United States)"/>
<marker lat="32.866" lon="-85.183" site="West Point (Georgia, United States)"/>
<marker lat="37.0" lon="-80.0" site="Virginia (Virginia, United States)"/>
<marker lat="45.366" lon="10.566" site="Solferino (Italy)"/>
<marker lat="47.0" lon="20.0" site="Hungary (Hungary)"/>
<marker lat="35.216" lon="-80.833" site="Charlotte (North Carolina, United States)"/>
<marker lat="46.0" lon="2.0" site="France (France)"/>
<marker lat="37.2" lon="-78.45" site="Prince Edward (Virginia, United States)"/>
<marker lat="35.15" lon="-90.66" site="Hopefield, Ark. (Arkansas, United States)"/>
<marker lat="38.866" lon="-78.6" site="Shenandoah county (Virginia, United States)"/>
<marker lat="42.566" lon="-74.483" site="Fulton Hill (New York, United States)"/>
</markers>