<markers>
<marker lat="46.0" lon="2.0" site="France (France)"/>
<marker lat="60.0" lon="-96.0" site="Canada (Canada)"/>
<marker lat="40.833" lon="-76.0" site="Pennsylvania (Pennsylvania, United States)"/>
<marker lat="44.633" lon="-63.583" site="Halifax (Canada)"/>
<marker lat="38.433" lon="-85.166" site="New Castle, Ky. (Kentucky, United States)"/>
<marker lat="53.0" lon="-2.0" site="England (United Kingdom)"/>
<marker lat="42.25" lon="-71.833" site="Massachusetts (Massachusetts, United States)"/>
<marker lat="40.0" lon="-4.0" site="Spain (Spain)"/>
<marker lat="54.0" lon="-72.0" site="Quebec (Canada)"/>
<marker lat="39.0" lon="-76.833" site="Maryland (Maryland, United States)"/>
<marker lat="47.16" lon="-65.6" site="Newcastle (Canada)"/>
<marker lat="34.0" lon="-80.0" site="South Carolina (South Carolina, United States)"/>
<marker lat="40.16" lon="-78.5" site="Fort Bedford (Pennsylvania, United States)"/>
<marker lat="41.833" lon="-72.833" site="Connecticut (Connecticut, United States)"/>
<marker lat="39.83" lon="-77.65" site="Loudoun (Virginia, United States)"/>
<marker lat="40.0" lon="-75.0" site="New Jersey (New Jersey, United States)"/>
<marker lat="45.5" lon="-73.6" site="Montreal (Canada)"/>
<marker lat="45.0" lon="-63.0" site="Nova Scotia (Canada)"/>
<marker lat="52.133" lon="-0.483" site="Bedford (United Kingdom)"/>
<marker lat="40.433" lon="-79.983" site="Pittsburgh (Pennsylvania, United States)"/>
<marker lat="53.733" lon="-1.866" site="Halifax (United Kingdom)"/>
<marker lat="47.333" lon="13.333" site="Austria (Austria)"/>
<marker lat="44.0" lon="-71.666" site="New Hampshire (New Hampshire, United States)"/>
<marker lat="60.0" lon="47.0" site="Russia (Russia)"/>
<marker lat="43.833" lon="-73.416" site="Ticonderoga (New York, United States)"/>
<marker lat="43.45" lon="-76.5" site="Oswego (New York, United States)"/>
<marker lat="36.83" lon="-78.3" site="Louisburg (North Carolina, United States)"/>
<marker lat="51.5" lon="10.5" site="Germany (Germany)"/>
<marker lat="29.3" lon="-81.583" site="Lake George, Fla. (Florida, United States)"/>
<marker lat="41.2" lon="-73.633" site="Bedford, N. Y. (New York, United States)"/>
<marker lat="37.866" lon="-80.133" site="Alleghany Mountains (United States)"/>
<marker lat="32.0" lon="-84.0" site="Georgia (Georgia, United States)"/>
<marker lat="41.666" lon="-71.5" site="Rhode Island (Rhode Island, United States)"/>
<marker lat="43.166" lon="-78.766" site="Niagara County (New York, United States)"/>
<marker lat="35.5" lon="-80.0" site="North Carolina (North Carolina, United States)"/>
<marker lat="34.716" lon="-76.733" site="Carolina City (North Carolina, United States)"/>
<marker lat="48.866" lon="2.333" site="Department de Ville de Paris (France)"/>
<marker lat="43.33" lon="-75.366" site="Clinton, N. Y. (New York, United States)"/>
<marker lat="42.116" lon="-80.83" site="Erie (Pennsylvania, United States)"/>
<marker lat="38.966" lon="-76.483" site="Annapolis (Maryland, United States)"/>
<marker lat="42.0" lon="-81.0" site="Lake Erie (United States)"/>
<marker lat="31.0" lon="-92.0" site="Louisiana (Louisiana, United States)"/>
<marker lat="43.5" lon="-78.0" site="Lake Ontario"/>
<marker lat="43.266" lon="-73.583" site="Fort Edward (New York, United States)"/>
<marker lat="41.816" lon="-71.4" site="Providence, R. I. (Rhode Island, United States)"/>
<marker lat="43.5" lon="-76.15" site="Onondaga, N. Y. (New York, United States)"/>
<marker lat="39.0" lon="-75.666" site="Delaware (Delaware, United States)"/>
<marker lat="43.416" lon="-73.7" site="Fort William Henry, New York (New York, United States)"/>
<marker lat="40.416" lon="-79.85" site="Braddock (Pennsylvania, United States)"/>
<marker lat="52.833" lon="10.0" site="Saxony (Saxony, Germany)"/>
<marker lat="23.116" lon="-82.35" site="Havana (Cuba)"/>
<marker lat="30.85" lon="-91.0" site="Clinton, La. (Louisiana, United States)"/>
<marker lat="35.583" lon="-84.2" site="Fort Loudoun (Tennessee, United States)"/>
<marker lat="34.25" lon="-85.15" site="Rome, Ga. (Georgia, United States)"/>
<marker lat="38.8" lon="-77.33" site="Alexandria (Virginia, United States)"/>
<marker lat="35.9" lon="-82.116" site="Estatoe (North Carolina, United States)"/>
<marker lat="39.8" lon="-76.983" site="McAllister (Pennsylvania, United States)"/>
<marker lat="34.316" lon="-85.816" site="Portersville (Alabama, United States)"/>
<marker lat="52.1" lon="5.116" site="Trajectum (Netherlands)"/>
<marker lat="41.366" lon="-79.8" site="Venango (Pennsylvania, United States)"/>
<marker lat="51.25" lon="11.866" site="Rossbach (Saxony-Anhalt, Germany)"/>
<marker lat="51.383" lon="0.533" site="Chatham (United Kingdom)"/>
<marker lat="15.8" lon="-16.533" site="Senegal"/>
<marker lat="50.1" lon="14.433" site="Prague (Czech Republic)"/>
<marker lat="39.0" lon="22.0" site="Greece (Greece)"/>
<marker lat="52.0" lon="20.0" site="Poland (Poland)"/>
<marker lat="44.233" lon="-76.5" site="Kingston (Canada)"/>
<marker lat="51.1" lon="17.0" site="Breslau (Poland)"/>
<marker lat="44.0" lon="-85.0" site="Michigan (Michigan, United States)"/>
<marker lat="43.3" lon="-71.616" site="Boscawen, N. H. (New Hampshire, United States)"/>
<marker lat="52.516" lon="-3.5" site="Cambria (United Kingdom)"/>
<marker lat="57.0" lon="-4.0" site="Scotland (United Kingdom)"/>
<marker lat="39.65" lon="-78.75" site="Cumberland (Maryland, United States)"/>
<marker lat="21.5" lon="-77.633" site="Minas (Cuba)"/>
<marker lat="42.466" lon="-79.333" site="Dunkirk (New York, United States)"/>
<marker lat="40.683" lon="-73.8" site="Jamaica, L. I. (New York, United States)"/>
<marker lat="39.5" lon="-8.0" site="Portugal (Portugal)"/>
<marker lat="62.0" lon="15.0" site="Sweden (Sweden)"/>
<marker lat="43.25" lon="-79.5" site="Fort Niagara (New York, United States)"/>
<marker lat="51.133" lon="16.8" site="Leuthen (Poland)"/>
<marker lat="42.483" lon="-71.266" site="Bedford, Mass. (Massachusetts, United States)"/>
<marker lat="42.366" lon="-70.75" site="Massachusetts Bay (Massachusetts, United States)"/>
<marker lat="45.0" lon="-69.0" site="Maine (Maine, United States)"/>
<marker lat="43.0" lon="-75.0" site="New York State (New York, United States)"/>
<marker lat="41.433" lon="-82.7" site="Sandusky, Ohio (Ohio, United States)"/>
<marker lat="44.683" lon="-75.483" site="Ogdensburg (New York, United States)"/>
<marker lat="51.283" lon="1.83" site="Canterbury (United Kingdom)"/>
<marker lat="25.0" lon="-90.0" site="Gulf of Mexico"/>
<marker lat="42.783" lon="-73.666" site="Waterford, N. Y. (New York, United States)"/>
<marker lat="40.8" lon="-79.516" site="Kittanning (Pennsylvania, United States)"/>
<marker lat="38.0" lon="-98.0" site="United States (United States)"/>
<marker lat="52.5" lon="9.0" site="Hannover (Lower Saxony, Germany)"/>
<marker lat="46.866" lon="-71.2" site="Montmorency (Canada)"/>
<marker lat="37.66" lon="-77.583" site="Dinwiddie Court House (Virginia, United States)"/>
<marker lat="38.733" lon="-77.816" site="Fauquier (Virginia, United States)"/>
<marker lat="43.0" lon="-75.0" site="Mohawk (New York, United States)"/>
<marker lat="42.25" lon="-71.8" site="Worcester (Massachusetts, United States)"/>
<marker lat="37.266" lon="-76.7" site="Williamsburg (Virginia, United States)"/>
<marker lat="43.9" lon="-69.95" site="Brunswick, Me. (Maine, United States)"/>
<marker lat="52.25" lon="10.5" site="Braunschweig (Lower Saxony, Germany)"/>
<marker lat="42.833" lon="12.833" site="Italy (Italy)"/>
<marker lat="36.283" lon="-88.7" site="Dresden, Tenn. (Tennessee, United States)"/>
<marker lat="43.25" lon="-79.66" site="Fort George (Canada)"/>
<marker lat="43.66" lon="-78.966" site="La Salle, Niagara county (New York, United States)"/>
<marker lat="34.933" lon="-79.766" site="Rockingham, N. C. (North Carolina, United States)"/>
<marker lat="41.933" lon="-85.616" site="Moab (Michigan, United States)"/>
<marker lat="32.33" lon="-91.816" site="Fort Necessity (Louisiana, United States)"/>
<marker lat="41.7" lon="-70.3" site="Barnstable, Mass. (Massachusetts, United States)"/>
<marker lat="41.933" lon="-75.266" site="South river (United States)"/>
<marker lat="25.916" lon="-100.0" site="Marin (Nuevo Leon, Mexico)"/>
<marker lat="32.6" lon="-93.283" site="Minden (La.) (Louisiana, United States)"/>
<marker lat="13.883" lon="-60.966" site="St. Lucia (Saint Lucia)"/>
<marker lat="36.983" lon="-89.133" site="Ohio (United States)"/>
<marker lat="48.8" lon="2.133" site="Versailles (France)"/>
<marker lat="42.516" lon="-78.983" site="Iroquois (New York, United States)"/>
<marker lat="18.233" lon="-66.55" site="Porto Rico"/>
<marker lat="43.2" lon="-75.45" site="Fort Stanwix (New York, United States)"/>
<marker lat="44.25" lon="-76.5" site="Frontenac (New York, United States)"/>
<marker lat="40.283" lon="-75.866" site="Gibraltar (Pennsylvania, United States)"/>
<marker lat="43.7" lon="-79.416" site="York (Canada)"/>
<marker lat="41.75" lon="-70.483" site="Sandwich, Mass. (Massachusetts, United States)"/>
<marker lat="40.0" lon="-89.0" site="Illinois (Illinois, United States)"/>
<marker lat="39.55" lon="-81.216" site="Muskingum, O. (Ohio, United States)"/>
<marker lat="50.966" lon="13.933" site="Pirna (Saxony, Germany)"/>
<marker lat="35.15" lon="-84.33" site="Cherokee (North Carolina, United States)"/>
<marker lat="40.33" lon="-76.3" site="Lancaster (Pennsylvania, United States)"/>
<marker lat="41.883" lon="12.5" site="Roma (Italy)"/>
<marker lat="40.5" lon="-74.25" site="Amboy (New Jersey, United States)"/>
<marker lat="39.0" lon="-80.0" site="West Virginia (West Virginia, United States)"/>
<marker lat="42.633" lon="-83.283" site="Pontiac (Michigan, United States)"/>
<marker lat="43.66" lon="-72.416" site="Walpole (New Hampshire, United States)"/>
<marker lat="60.35" lon="-149.883" site="Russian River (Alaska, United States)"/>
<marker lat="41.666" lon="-74.866" site="Lake Superior (New York, United States)"/>
<marker lat="35.5" lon="-85.0" site="Tennessee (Tennessee, United States)"/>
<marker lat="42.333" lon="-76.833" site="Havana, N. Y. (New York, United States)"/>
<marker lat="34.0" lon="-81.5" site="Congaree (South Carolina, United States)"/>
<marker lat="42.816" lon="-82.483" site="St. Clair, Mich. (Michigan, United States)"/>
<marker lat="47.0" lon="20.0" site="Hungary (Hungary)"/>
<marker lat="59.883" lon="30.25" site="St. Petersburg (Russia)"/>
<marker lat="40.416" lon="-3.716" site="Madrid (Spain)"/>
<marker lat="40.733" lon="-73.933" site="Long Island City (New York, United States)"/>
<marker lat="42.533" lon="-71.65" site="Shirley (Massachusetts, United States)"/>
<marker lat="19.416" lon="-99.166" site="Mexico (Mexico, Mexico)"/>
<marker lat="56.0" lon="10.0" site="Denmark (Denmark)"/>
<marker lat="51.283" lon="1.333" site="Sandwich (United Kingdom)"/>
<marker lat="41.533" lon="-72.7" site="Miramichi (Connecticut, United States)"/>
<marker lat="43.3" lon="5.366" site="Marseilles (France)"/>
<marker lat="37.733" lon="-83.483" site="Wolfe County (Kentucky, United States)"/>
<marker lat="56.233" lon="-120.916" site="Fort Saint John (Canada)"/>
<marker lat="40.783" lon="-81.516" site="Massillon (Ohio, United States)"/>
<marker lat="35.16" lon="-76.683" site="Oriental (North Carolina, United States)"/>
<marker lat="44.35" lon="-75.9" site="St. John's Island (New York, United States)"/>
<marker lat="42.233" lon="-71.83" site="Milton, Mass. (Massachusetts, United States)"/>
<marker lat="37.233" lon="-80.2" site="Roanoke (United States)"/>
<marker lat="40.7" lon="-73.8" site="Queens County (New York, United States)"/>
<marker lat="39.283" lon="-76.6" site="Baltimore, Md. (Maryland, United States)"/>
<marker lat="47.85" lon="8.85" site="Aach (Baden-Wurttemberg, Germany)"/>
<marker lat="34.7" lon="-85.65" site="Crow Creek, Ala. (Alabama, United States)"/>
<marker lat="36.533" lon="-6.3" site="Gades (Spain)"/>
<marker lat="42.16" lon="-71.533" site="Blackstone (Massachusetts, United States)"/>
<marker lat="50.383" lon="-4.166" site="Plymouth (United Kingdom)"/>
<marker lat="33.983" lon="-82.633" site="Huguenot (Georgia, United States)"/>
<marker lat="32.833" lon="-80.5" site="Fort Bull (South Carolina, United States)"/>
<marker lat="37.55" lon="-90.283" site="Fredericktown (Missouri, United States)"/>
<marker lat="39.816" lon="-83.566" site="Riviere Blanche (Ohio, United States)"/>
<marker lat="41.416" lon="-74.316" site="Orange County (New York, United States)"/>
<marker lat="40.766" lon="-80.9" site="Sandy Creek (Ohio, United States)"/>
<marker lat="41.8" lon="-80.6" site="Ashtabula (Ohio, United States)"/>
<marker lat="40.366" lon="-79.566" site="Bushy Run (Pennsylvania, United States)"/>
<marker lat="40.66" lon="-74.85" site="Burlington (New Jersey, United States)"/>
<marker lat="45.0" lon="-85.0" site="Great Lakes"/>
<marker lat="11.25" lon="-60.666" site="Tobago (Trinidad and Tobago)"/>
<marker lat="43.383" lon="-65.616" site="Cape Sable (Canada)"/>
<marker lat="35.15" lon="-88.316" site="Pittsburg Landing (Tennessee, United States)"/>
<marker lat="52.83" lon="4.266" site="The Hague (Netherlands)"/>
<marker lat="53.666" lon="11.416" site="Schwerin (Mecklenburg-Vorpommern, Germany)"/>
<marker lat="48.433" lon="-122.783" site="Cape Saint Mary (Washington, United States)"/>
<marker lat="37.566" lon="-83.7" site="Kentucky River (Kentucky, United States)"/>
<marker lat="25.0" lon="45.0" site="Arabia"/>
<marker lat="37.983" lon="-91.6" site="Saint James (Missouri, United States)"/>
<marker lat="37.566" lon="-81.333" site="Iroquois, Wyoming (West Virginia, United States)"/>
<marker lat="37.983" lon="-86.166" site="Brandenburg (Kentucky, United States)"/>
<marker lat="37.466" lon="-77.783" site="Turkey Creek (Virginia, United States)"/>
<marker lat="41.916" lon="-73.983" site="Kingston, N. Y. (New York, United States)"/>
<marker lat="40.0" lon="9.0" site="Sardinia (Italy)"/>
<marker lat="19.0" lon="-70.666" site="Dominican Republic (Dominican Republic)"/>
<marker lat="42.25" lon="-71.0" site="Quincy (Massachusetts, United States)"/>
<marker lat="46.666" lon="-53.66" site="Cape Race (Canada)"/>
<marker lat="53.966" lon="-1.83" site="York (United Kingdom)"/>
<marker lat="41.33" lon="28.95" site="Constantinople (Turkey)"/>
<marker lat="40.266" lon="-81.866" site="Muskingum River (Ohio, United States)"/>
<marker lat="43.933" lon="-76.116" site="Sackett's Harbor (New York, United States)"/>
<marker lat="38.966" lon="-95.233" site="Lawrence, Kansas (Kansas, United States)"/>
<marker lat="13.0" lon="122.0" site="Philippines (Philippines)"/>
<marker lat="40.0" lon="-80.833" site="Ohio (Ohio, United States)"/>
<marker lat="40.866" lon="-72.933" site="Carmans River (New York, United States)"/>
<marker lat="38.2" lon="-84.866" site="Frankfort (Kentucky, United States)"/>
<marker lat="43.433" lon="-70.983" site="Town House (New Hampshire, United States)"/>
<marker lat="32.366" lon="-86.3" site="Montgomery (Alabama, United States)"/>
<marker lat="38.25" lon="-85.75" site="Louisville (Kentucky, United States)"/>
</markers>