<markers>
<marker lat="38.0" lon="-98.0" site="United States (United States)"/>
<marker lat="36.716" lon="-76.583" site="Suffolk, Va. (Virginia, United States)"/>
<marker lat="39.0" lon="-76.833" site="Maryland (Maryland, United States)"/>
<marker lat="36.583" lon="-79.383" site="Danville (Virginia, United States)"/>
<marker lat="38.7" lon="-77.783" site="Warrenton (Virginia, United States)"/>
<marker lat="53.0" lon="-2.0" site="England (United Kingdom)"/>
<marker lat="44.0" lon="-120.0" site="Oregon (Oregon, United States)"/>
<marker lat="37.0" lon="-119.0" site="California (California, United States)"/>
<marker lat="46.0" lon="2.0" site="France (France)"/>
<marker lat="42.25" lon="-71.833" site="Massachusetts (Massachusetts, United States)"/>
<marker lat="47.233" lon="-95.2" site="Mississippi (United States)"/>
<marker lat="36.983" lon="-89.133" site="Ohio (United States)"/>
<marker lat="34.25" lon="-85.15" site="Rome, Ga. (Georgia, United States)"/>
<marker lat="37.0" lon="-85.0" site="Kentucky (Kentucky, United States)"/>
<marker lat="32.0" lon="-84.0" site="Georgia (Georgia, United States)"/>
<marker lat="35.5" lon="-80.0" site="North Carolina (North Carolina, United States)"/>
<marker lat="41.833" lon="-72.833" site="Connecticut (Connecticut, United States)"/>
<marker lat="54.0" lon="-4.5" site="Britannia (United Kingdom)"/>
<marker lat="42.833" lon="12.833" site="Italy (Italy)"/>
<marker lat="37.1" lon="-82.716" site="Cumberland River (Kentucky, United States)"/>
<marker lat="36.8" lon="-87.866" site="Trigg (Kentucky, United States)"/>
<marker lat="37.8" lon="-77.4" site="Pamunkey (Virginia, United States)"/>
<marker lat="38.183" lon="-77.65" site="Spotsylvania county (Virginia, United States)"/>
<marker lat="36.733" lon="-77.1" site="Southampton county (Virginia, United States)"/>
<marker lat="38.683" lon="-77.483" site="Brentsville (Virginia, United States)"/>
<marker lat="36.833" lon="-76.3" site="Naval Hospital Point (Virginia, United States)"/>
<marker lat="45.0" lon="-69.0" site="Maine (Maine, United States)"/>
<marker lat="44.0" lon="-85.0" site="Michigan (Michigan, United States)"/>
<marker lat="46.0" lon="-94.0" site="Minnesota (Minnesota, United States)"/>
<marker lat="38.0" lon="-98.0" site="Missouri (Missouri, United States)"/>
<marker lat="40.0" lon="-75.0" site="New Jersey (New Jersey, United States)"/>
<marker lat="44.0" lon="-71.666" site="New Hampshire (New Hampshire, United States)"/>
<marker lat="34.85" lon="-82.383" site="Greenville (South Carolina, United States)"/>
<marker lat="33.0" lon="-87.0" site="Alabama (Alabama, United States)"/>
<marker lat="37.3" lon="-78.383" site="Farmville (Virginia, United States)"/>
<marker lat="39.15" lon="-82.483" site="Puritan (Ohio, United States)"/>
<marker lat="30.666" lon="-91.266" site="Port Hudson (Louisiana, United States)"/>
<marker lat="37.983" lon="-85.7" site="Shepherdsville (Kentucky, United States)"/>
<marker lat="37.35" lon="-75.933" site="Northampton County (Virginia, United States)"/>
<marker lat="36.966" lon="-76.35" site="Hampton Roads (Virginia, United States)"/>
<marker lat="36.616" lon="-76.1" site="Blackwater Creek (Virginia, United States)"/>
<marker lat="30.633" lon="-88.83" site="Dog River (Alabama, United States)"/>
<marker lat="33.2" lon="-87.566" site="Shelbyville (Alabama, United States)"/>
<marker lat="37.75" lon="-77.466" site="Ashland (Virginia, United States)"/>
<marker lat="41.516" lon="-72.66" site="Norwich (Connecticut, United States)"/>
<marker lat="42.8" lon="-70.866" site="Newburyport (Massachusetts, United States)"/>
<marker lat="51.583" lon="0.55" site="Essex (United Kingdom)"/>
<marker lat="38.233" lon="-78.1" site="Orange Court House (Virginia, United States)"/>
<marker lat="30.6" lon="-81.716" site="Italia (Florida, United States)"/>
<marker lat="19.0" lon="-70.666" site="Dominican Republic (Dominican Republic)"/>
<marker lat="39.65" lon="-94.0" site="Caldwell (Missouri, United States)"/>
<marker lat="37.3" lon="-77.15" site="Westover (Virginia, United States)"/>
<marker lat="37.516" lon="-77.383" site="Rocketts (Virginia, United States)"/>
<marker lat="22.5" lon="88.333" site="Calcutta (West Bengal, India)"/>
<marker lat="57.0" lon="-4.0" site="Scotland (United Kingdom)"/>
<marker lat="33.366" lon="-85.8" site="Concord (Alabama, United States)"/>
<marker lat="-25.0" lon="135.0" site="Australia (Australia)"/>
<marker lat="38.666" lon="-98.0" site="Kansas (Kansas, United States)"/>
<marker lat="31.0" lon="-92.0" site="Louisiana (Louisiana, United States)"/>
<marker lat="40.0" lon="-86.0" site="Indiana (Indiana, United States)"/>
<marker lat="42.0" lon="-93.0" site="Iowa (Iowa, United States)"/>
<marker lat="40.0" lon="-89.0" site="Illinois (Illinois, United States)"/>
<marker lat="39.0" lon="-75.666" site="Delaware (Delaware, United States)"/>
<marker lat="36.15" lon="-76.65" site="Chowan (North Carolina, United States)"/>
<marker lat="30.566" lon="-81.683" site="Nassau River (Florida, United States)"/>
<marker lat="36.0" lon="138.0" site="Japan (Japan)"/>
<marker lat="60.0" lon="-96.0" site="Canada (Canada)"/>
<marker lat="45.66" lon="7.666" site="Turin (Italy)"/>
<marker lat="35.0" lon="105.0" site="China (China)"/>
<marker lat="41.666" lon="-71.5" site="Rhode Island (Rhode Island, United States)"/>
<marker lat="34.0" lon="-80.0" site="South Carolina (South Carolina, United States)"/>
<marker lat="40.833" lon="-76.0" site="Pennsylvania (Pennsylvania, United States)"/>
<marker lat="37.75" lon="-77.483" site="Hanover County (Virginia, United States)"/>
<marker lat="35.0" lon="-93.0" site="Arkansas (Arkansas, United States)"/>
<marker lat="37.416" lon="-76.55" site="Gloucester county (Virginia, United States)"/>
<marker lat="37.55" lon="-77.45" site="Richmond (Virginia, United States)"/>
<marker lat="39.0" lon="-80.0" site="West Virginia (West Virginia, United States)"/>
<marker lat="36.25" lon="-77.65" site="Halifax County (North Carolina, United States)"/>
<marker lat="36.433" lon="-76.7" site="Gates county (North Carolina, United States)"/>
<marker lat="40.833" lon="14.25" site="Naples (Italy)"/>
<marker lat="39.45" lon="-77.733" site="Sharpsburg (Maryland, United States)"/>
<marker lat="44.0" lon="-73.0" site="Vermont (Vermont, United States)"/>
<marker lat="35.5" lon="-85.0" site="Tennessee (Tennessee, United States)"/>
<marker lat="51.2" lon="-0.5" site="Surrey (United Kingdom)"/>
<marker lat="40.2" lon="-93.116" site="Milan, Sullivan County, Missouri (Missouri, United States)"/>
<marker lat="38.766" lon="-84.0" site="Augusta (Kentucky, United States)"/>
<marker lat="44.416" lon="8.95" site="Genoa (Italy)"/>
<marker lat="31.133" lon="-87.933" site="Alabama river (Alabama, United States)"/>
<marker lat="-0.5" lon="-91.0" site="Pacific Ocean"/>
<marker lat="45.0" lon="-90.0" site="Wisconsin (Wisconsin, United States)"/>
<marker lat="38.33" lon="-77.35" site="Caroline (Virginia, United States)"/>
<marker lat="37.75" lon="-77.366" site="Hanover Court House (Virginia, United States)"/>
<marker lat="32.766" lon="-79.916" site="Charleston (South Carolina, United States)"/>
<marker lat="37.8" lon="-85.466" site="Bardstown (Kentucky, United States)"/>
<marker lat="36.783" lon="-87.95" site="Canton, Ky. (Kentucky, United States)"/>
<marker lat="37.95" lon="-80.416" site="Greenbrier (West Virginia, United States)"/>
<marker lat="37.0" lon="-78.683" site="Charlotte county (Virginia, United States)"/>
<marker lat="39.45" lon="-78.33" site="Berkeley County (West Virginia, United States)"/>
</markers>