<markers>
<marker lat="38.0" lon="-98.0" site="United States (United States)"/>
<marker lat="34.0" lon="-80.0" site="South Carolina (South Carolina, United States)"/>
<marker lat="39.0" lon="-76.833" site="Maryland (Maryland, United States)"/>
<marker lat="40.833" lon="-76.0" site="Pennsylvania (Pennsylvania, United States)"/>
<marker lat="32.0" lon="-84.0" site="Georgia (Georgia, United States)"/>
<marker lat="37.0" lon="-80.0" site="Virginia (Virginia, United States)"/>
<marker lat="35.3" lon="-86.95" site="Odd Fellows Hall (Tennessee, United States)"/>
<marker lat="53.5" lon="-2.216" site="Manchester (United Kingdom)"/>
<marker lat="60.0" lon="47.0" site="Russia (Russia)"/>
<marker lat="53.0" lon="-2.0" site="England (United Kingdom)"/>
<marker lat="37.55" lon="-77.366" site="Henrico (Virginia, United States)"/>
<marker lat="38.3" lon="-77.45" site="Fredericksburg, Va. (Virginia, United States)"/>
<marker lat="37.0" lon="-119.0" site="California (California, United States)"/>
<marker lat="40.833" lon="14.25" site="Naples (Italy)"/>
<marker lat="40.5" lon="-80.716" site="Wheeling, W. Va. (West Virginia, United States)"/>
<marker lat="33.0" lon="-87.0" site="Alabama (Alabama, United States)"/>
<marker lat="37.116" lon="-80.4" site="Christiansburg (Virginia, United States)"/>
<marker lat="41.566" lon="-77.233" site="Plank (Pennsylvania, United States)"/>
<marker lat="-25.0" lon="135.0" site="Australia (Australia)"/>
<marker lat="40.0" lon="-86.0" site="Indiana (Indiana, United States)"/>
<marker lat="40.0" lon="-89.0" site="Illinois (Illinois, United States)"/>
<marker lat="44.0" lon="-120.0" site="Oregon (Oregon, United States)"/>
<marker lat="35.5" lon="-80.0" site="North Carolina (North Carolina, United States)"/>
<marker lat="37.55" lon="-77.45" site="Richmond (Virginia, United States)"/>
<marker lat="40.0" lon="-110.0" site="Utah (Utah, United States)"/>
<marker lat="41.983" lon="-70.85" site="Halifax (Massachusetts, United States)"/>
<marker lat="19.416" lon="-99.166" site="Mexico (Mexico, Mexico)"/>
<marker lat="36.583" lon="-79.383" site="Danville (Virginia, United States)"/>
<marker lat="37.483" lon="-79.866" site="Fincastle (Virginia, United States)"/>
<marker lat="37.5" lon="-78.25" site="Cumberland County (Virginia, United States)"/>
<marker lat="35.15" lon="-84.866" site="Cleveland, Tenn. (Tennessee, United States)"/>
<marker lat="35.183" lon="-87.16" site="Pulaski, Tenn. (Tennessee, United States)"/>
<marker lat="33.733" lon="-84.383" site="Atlanta (Georgia, United States)"/>
<marker lat="37.733" lon="-78.633" site="Howardsville (Virginia, United States)"/>
<marker lat="38.916" lon="-78.183" site="Front Royal (Virginia, United States)"/>
<marker lat="44.0" lon="-85.0" site="Michigan (Michigan, United States)"/>
<marker lat="46.0" lon="-94.0" site="Minnesota (Minnesota, United States)"/>
<marker lat="38.0" lon="-98.0" site="Missouri (Missouri, United States)"/>
<marker lat="40.0" lon="-75.0" site="New Jersey (New Jersey, United States)"/>
<marker lat="44.0" lon="-71.666" site="New Hampshire (New Hampshire, United States)"/>
<marker lat="37.483" lon="-77.0" site="New Kent (Virginia, United States)"/>
<marker lat="30.45" lon="-91.15" site="Baton Rouge (Louisiana, United States)"/>
<marker lat="40.3" lon="-90.5" site="Havana (Illinois, United States)"/>
<marker lat="29.95" lon="-90.66" site="New Orleans (Louisiana, United States)"/>
<marker lat="38.1" lon="-82.6" site="Louisa, Ky. (Kentucky, United States)"/>
<marker lat="50.483" lon="-4.666" site="Cornwall (United Kingdom)"/>
<marker lat="51.783" lon="-2.25" site="Gloucestershire (United Kingdom)"/>
<marker lat="43.433" lon="-71.65" site="Merrimack (United States)"/>
<marker lat="34.25" lon="-85.15" site="Rome, Ga. (Georgia, United States)"/>
<marker lat="37.316" lon="-80.733" site="Pearisburg (Virginia, United States)"/>
<marker lat="35.0" lon="-83.833" site="Shewbird (North Carolina, United States)"/>
<marker lat="18.233" lon="-66.55" site="Porto Rico"/>
<marker lat="37.5" lon="14.0" site="Sicily (Italy)"/>
<marker lat="37.783" lon="-78.483" site="Scottsville (Virginia, United States)"/>
<marker lat="38.7" lon="-77.783" site="Warrenton (Virginia, United States)"/>
<marker lat="42.983" lon="-71.45" site="Manchester (New Hampshire, United States)"/>
<marker lat="37.516" lon="-76.783" site="West Point (Virginia, United States)"/>
<marker lat="37.516" lon="-77.383" site="Rocketts (Virginia, United States)"/>
<marker lat="42.1" lon="-71.35" site="City Mills (Massachusetts, United States)"/>
<marker lat="37.95" lon="-76.733" site="Richmond county (Virginia, United States)"/>
<marker lat="37.3" lon="-76.766" site="James City (Virginia, United States)"/>
<marker lat="41.33" lon="28.95" site="Constantinople (Turkey)"/>
<marker lat="37.33" lon="-78.483" site="Keysville (Virginia, United States)"/>
<marker lat="38.266" lon="-77.15" site="King George county (Virginia, United States)"/>
<marker lat="37.683" lon="-77.83" site="King William County (Virginia, United States)"/>
<marker lat="38.666" lon="-98.0" site="Kansas (Kansas, United States)"/>
<marker lat="31.0" lon="-92.0" site="Louisiana (Louisiana, United States)"/>
<marker lat="42.0" lon="-93.0" site="Iowa (Iowa, United States)"/>
<marker lat="33.666" lon="-84.433" site="South River, Ga. (Georgia, United States)"/>
<marker lat="32.83" lon="-81.1" site="Savannah (Georgia, United States)"/>
<marker lat="40.616" lon="-79.616" site="Westmoreland (Pennsylvania, United States)"/>
<marker lat="39.483" lon="-80.133" site="Palatine (West Virginia, United States)"/>
<marker lat="39.0" lon="35.0" site="Turquie (Turkey)"/>
<marker lat="6.5" lon="-9.5" site="Liberia (Liberia)"/>
<marker lat="37.683" lon="-78.933" site="Kingswood (Virginia, United States)"/>
<marker lat="41.666" lon="-71.5" site="Rhode Island (Rhode Island, United States)"/>
<marker lat="35.0" lon="-93.0" site="Arkansas (Arkansas, United States)"/>
<marker lat="37.416" lon="-76.55" site="Gloucester county (Virginia, United States)"/>
<marker lat="40.75" lon="-111.883" site="Salt Lake City (Utah, United States)"/>
<marker lat="41.833" lon="-72.833" site="Connecticut (Connecticut, United States)"/>
<marker lat="38.9" lon="-77.25" site="Vienna (Virginia, United States)"/>
<marker lat="44.0" lon="-73.0" site="Vermont (Vermont, United States)"/>
<marker lat="35.5" lon="-85.0" site="Tennessee (Tennessee, United States)"/>
<marker lat="39.83" lon="-94.4" site="Independence, Mo. (Missouri, United States)"/>
<marker lat="44.633" lon="-63.583" site="Halifax (Canada)"/>
<marker lat="27.0" lon="30.0" site="Egypt (Egypt)"/>
<marker lat="36.9" lon="-82.66" site="Lebanon (Virginia, United States)"/>
<marker lat="38.733" lon="-77.816" site="Fauquier (Virginia, United States)"/>
<marker lat="37.95" lon="-76.95" site="Essex County (Virginia, United States)"/>
<marker lat="35.6" lon="-88.8" site="Jackson (Tennessee, United States)"/>
<marker lat="40.566" lon="-89.633" site="Pekin (Illinois, United States)"/>
<marker lat="36.45" lon="-83.566" site="Tazewell, Tenn. (Tennessee, United States)"/>
<marker lat="6.333" lon="-10.8" site="Monrovia (Liberia)"/>
<marker lat="38.7" lon="-77.483" site="Prince William (Virginia, United States)"/>
<marker lat="34.266" lon="-82.316" site="Brick House (South Carolina, United States)"/>
<marker lat="32.45" lon="-84.983" site="Columbus (Georgia, United States)"/>
<marker lat="45.0" lon="-90.0" site="Wisconsin (Wisconsin, United States)"/>
<marker lat="39.566" lon="-75.95" site="Cecil (Maryland, United States)"/>
<marker lat="38.33" lon="-77.35" site="Caroline (Virginia, United States)"/>
<marker lat="39.45" lon="-77.95" site="Martinsburg (West Virginia, United States)"/>
<marker lat="59.883" lon="30.25" site="St. Petersburg (Russia)"/>
<marker lat="38.16" lon="-78.466" site="Charlottesville (Virginia, United States)"/>
<marker lat="32.766" lon="-79.916" site="Charleston (South Carolina, United States)"/>
<marker lat="46.0" lon="2.0" site="France (France)"/>
<marker lat="47.333" lon="13.333" site="Austria (Austria)"/>
<marker lat="31.883" lon="-85.45" site="Barbour (Alabama, United States)"/>
<marker lat="62.0" lon="15.0" site="Sweden (Sweden)"/>
<marker lat="38.5" lon="-77.966" site="Culpeper (Virginia, United States)"/>
<marker lat="37.983" lon="-77.966" site="Louisa (Virginia, United States)"/>
<marker lat="36.95" lon="-78.25" site="Lunenburg (Virginia, United States)"/>
<marker lat="38.966" lon="-80.516" site="Lewis County (West Virginia, United States)"/>
</markers>