<markers>
<marker lat="30.666" lon="-91.266" site="Port Hudson (Louisiana, United States)"/>
<marker lat="39.0" lon="-76.833" site="Maryland (Maryland, United States)"/>
<marker lat="39.45" lon="-77.95" site="Martinsburg (West Virginia, United States)"/>
<marker lat="39.633" lon="-77.716" site="Hagerstown (Maryland, United States)"/>
<marker lat="40.833" lon="-76.0" site="Pennsylvania (Pennsylvania, United States)"/>
<marker lat="39.783" lon="-77.716" site="Greencastle (Pennsylvania, United States)"/>
<marker lat="38.416" lon="-77.466" site="Stafford (Virginia, United States)"/>
<marker lat="32.816" lon="-91.2" site="Lake Providence (Louisiana, United States)"/>
<marker lat="38.416" lon="-77.4" site="Stafford Court House (Virginia, United States)"/>
<marker lat="42.983" lon="-71.45" site="Manchester (New Hampshire, United States)"/>
<marker lat="30.566" lon="-81.683" site="Nassau River (Florida, United States)"/>
<marker lat="39.316" lon="-77.733" site="Harper's Ferry (West Virginia, United States)"/>
<marker lat="39.566" lon="-77.35" site="Creagerstown (Maryland, United States)"/>
<marker lat="19.416" lon="-99.166" site="Mexico (Mexico, Mexico)"/>
<marker lat="37.516" lon="-76.783" site="York (Virginia, United States)"/>
<marker lat="37.8" lon="-77.4" site="Pamunkey (Virginia, United States)"/>
<marker lat="38.0" lon="-98.0" site="Missouri (Missouri, United States)"/>
<marker lat="18.35" lon="-64.933" site="Saint Thomas"/>
<marker lat="33.0" lon="-87.0" site="Alabama (Alabama, United States)"/>
<marker lat="40.3" lon="-90.5" site="Havana (Illinois, United States)"/>
<marker lat="39.816" lon="-77.9" site="Mercersburg (Pennsylvania, United States)"/>
<marker lat="31.0" lon="-92.0" site="Louisiana (Louisiana, United States)"/>
<marker lat="39.933" lon="-77.65" site="Chambersburg, Pa. (Pennsylvania, United States)"/>
<marker lat="34.733" lon="-92.283" site="Little Rock (Arkansas, United States)"/>
<marker lat="37.216" lon="-77.4" site="Petersburg, Va. (Virginia, United States)"/>
<marker lat="37.55" lon="-77.45" site="Richmond (Virginia, United States)"/>
<marker lat="38.883" lon="-77.33" site="Washington (United States)"/>
<marker lat="39.466" lon="-77.4" site="Frederick (Maryland, United States)"/>
<marker lat="39.15" lon="-77.2" site="Montgomery County (Maryland, United States)"/>
<marker lat="32.333" lon="-90.316" site="Clinton (Mississippi, United States)"/>
<marker lat="34.483" lon="-90.6" site="Helena, Ark. (Arkansas, United States)"/>
<marker lat="19.333" lon="-96.666" site="Vera Cruz (Veracruz, Mexico)"/>
<marker lat="22.5" lon="-100.5" site="San Luis Potosi (San Luis Potosi, Mexico)"/>
<marker lat="23.0" lon="-102.0" site="Mexico (Mexico)"/>
<marker lat="39.65" lon="-77.566" site="Smithsburg (Maryland, United States)"/>
<marker lat="39.95" lon="-76.716" site="York, Pa. (Pennsylvania, United States)"/>
<marker lat="39.566" lon="-76.983" site="Westminster (Maryland, United States)"/>
<marker lat="34.0" lon="-81.33" site="Columbia (South Carolina, United States)"/>
<marker lat="38.33" lon="-77.35" site="Caroline (Virginia, United States)"/>
<marker lat="46.0" lon="2.0" site="France (France)"/>
<marker lat="39.516" lon="-78.583" site="Potomac River (United States)"/>
<marker lat="36.8" lon="-79.3" site="Shockoe Creek (Virginia, United States)"/>
<marker lat="37.35" lon="-78.16" site="Amelia (Virginia, United States)"/>
</markers>