<markers>
<marker lat="35.5" lon="-85.0" site="Tennessee (Tennessee, United States)"/>
<marker lat="53.0" lon="-2.0" site="England (United Kingdom)"/>
<marker lat="37.55" lon="-77.366" site="Henrico (Virginia, United States)"/>
<marker lat="34.983" lon="-85.333" site="Lookout Mountain, Tenn. (Tennessee, United States)"/>
<marker lat="35.683" lon="-85.766" site="McMinnville (Tennessee, United States)"/>
<marker lat="60.0" lon="47.0" site="Russia (Russia)"/>
<marker lat="33.733" lon="-84.383" site="Atlanta (Georgia, United States)"/>
<marker lat="34.816" lon="-85.4" site="Chattanooga Creek (United States)"/>
<marker lat="36.7" lon="-81.966" site="Abingdon, Va. (Virginia, United States)"/>
<marker lat="37.75" lon="-77.483" site="Hanover County (Virginia, United States)"/>
<marker lat="36.25" lon="-83.83" site="Bull's Gap (Tennessee, United States)"/>
<marker lat="32.4" lon="-87.16" site="Selma (Alabama, United States)"/>
<marker lat="38.733" lon="-77.816" site="Fauquier (Virginia, United States)"/>
<marker lat="35.5" lon="-84.783" site="Decatur (Tennessee, United States)"/>
<marker lat="56.0" lon="10.0" site="Denmark (Denmark)"/>
<marker lat="46.0" lon="2.0" site="France (France)"/>
<marker lat="37.85" lon="-78.266" site="Fluvanna (Virginia, United States)"/>
<marker lat="56.6" lon="-3.35" site="Blairgowrie (United Kingdom)"/>
<marker lat="38.3" lon="-77.633" site="Chancellorsville (Virginia, United States)"/>
<marker lat="35.266" lon="-80.85" site="Mecklenburg (North Carolina, United States)"/>
<marker lat="33.95" lon="-84.55" site="Marietta (Georgia, United States)"/>
<marker lat="35.95" lon="-87.366" site="Missionary Ridge, Tenn. (Tennessee, United States)"/>
<marker lat="35.6" lon="-87.33" site="Columbia, Tenn. (Tennessee, United States)"/>
<marker lat="36.2" lon="-83.283" site="Morristown, Tenn. (Tennessee, United States)"/>
<marker lat="35.4" lon="-87.733" site="Moccasin (Tennessee, United States)"/>
<marker lat="34.8" lon="-83.733" site="Hiawassee River (United States)"/>
<marker lat="36.216" lon="-82.683" site="Rheatown (Tennessee, United States)"/>
<marker lat="40.55" lon="-76.2" site="Summit Station (Pennsylvania, United States)"/>
<marker lat="34.75" lon="-85.4" site="Chattanooga Valley (United States)"/>
<marker lat="33.0" lon="-87.0" site="Alabama (Alabama, United States)"/>
<marker lat="33.33" lon="111.333" site="Dan (China)"/>
<marker lat="39.733" lon="-75.8" site="Christiana creek (United States)"/>
<marker lat="34.666" lon="-87.3" site="Courtland, Ala. (Alabama, United States)"/>
<marker lat="35.483" lon="-86.45" site="Shelbyville, Tenn. (Tennessee, United States)"/>
<marker lat="42.316" lon="-73.6" site="Ghent, N. Y. (New York, United States)"/>
<marker lat="32.7" lon="-80.183" site="Stono River (South Carolina, United States)"/>
<marker lat="31.0" lon="-92.0" site="Louisiana (Louisiana, United States)"/>
<marker lat="38.16" lon="-77.75" site="Harris, Va. (Virginia, United States)"/>
<marker lat="35.5" lon="-80.0" site="North Carolina (North Carolina, United States)"/>
<marker lat="34.0" lon="-80.0" site="South Carolina (South Carolina, United States)"/>
<marker lat="40.833" lon="-76.0" site="Pennsylvania (Pennsylvania, United States)"/>
<marker lat="40.716" lon="-80.283" site="Marion Hill (Pennsylvania, United States)"/>
<marker lat="38.16" lon="-78.0" site="Louisa Court House (Virginia, United States)"/>
<marker lat="55.716" lon="12.566" site="Copenhagen (Denmark)"/>
<marker lat="34.766" lon="-84.966" site="Dalton, Ga. (Georgia, United States)"/>
<marker lat="36.283" lon="-82.466" site="Jonesboro (Tennessee, United States)"/>
<marker lat="45.65" lon="13.783" site="Trieste (Italy)"/>
<marker lat="32.35" lon="-88.7" site="Meridian (Mississippi, United States)"/>
<marker lat="51.5" lon="10.5" site="Germany (Germany)"/>
<marker lat="40.5" lon="-80.716" site="Wheeling, W. Va. (West Virginia, United States)"/>
<marker lat="37.0" lon="-80.0" site="Virginia (Virginia, United States)"/>
<marker lat="47.0" lon="20.0" site="Hungary (Hungary)"/>
<marker lat="32.716" lon="-79.866" site="Cumming's Point (South Carolina, United States)"/>
<marker lat="37.66" lon="-88.55" site="Tennessee River (United States)"/>
<marker lat="41.5" lon="-71.616" site="Washington county (Rhode Island, United States)"/>
<marker lat="38.416" lon="-78.266" site="Madison County (Virginia, United States)"/>
<marker lat="32.7" lon="-87.583" site="Greensboro, Alabama (Alabama, United States)"/>
<marker lat="36.75" lon="-78.933" site="Halifax county (Virginia, United States)"/>
<marker lat="36.516" lon="-82.316" site="Blountville (Tennessee, United States)"/>
<marker lat="36.466" lon="-82.25" site="Zollicoffer (Tennessee, United States)"/>
<marker lat="52.0" lon="20.0" site="Poland (Poland)"/>
<marker lat="35.716" lon="-87.266" site="Duck River (Tennessee, United States)"/>
<marker lat="37.55" lon="-78.566" site="Buckingham county (Virginia, United States)"/>
</markers>