<markers>
<marker lat="55.883" lon="-4.25" site="Glasgow (United Kingdom)"/>
<marker lat="43.383" lon="-87.866" site="Port Washington (Wisconsin, United States)"/>
<marker lat="30.566" lon="-81.683" site="Nassau River (Florida, United States)"/>
<marker lat="38.416" lon="-77.4" site="Stafford Court House (Virginia, United States)"/>
<marker lat="38.516" lon="-77.6" site="Aquia Creek (Virginia, United States)"/>
<marker lat="37.316" lon="-77.266" site="City Point (Virginia, United States)"/>
<marker lat="38.166" lon="-77.183" site="Port Royal, Va. (Virginia, United States)"/>
<marker lat="38.7" lon="-77.783" site="Warrenton (Virginia, United States)"/>
<marker lat="38.0" lon="-98.0" site="United States (United States)"/>
<marker lat="38.8" lon="-77.33" site="Alexandria (Virginia, United States)"/>
<marker lat="35.5" lon="-80.0" site="North Carolina (North Carolina, United States)"/>
<marker lat="41.666" lon="-71.5" site="Rhode Island (Rhode Island, United States)"/>
<marker lat="46.0" lon="2.0" site="France (France)"/>
<marker lat="38.316" lon="-77.466" site="Falmouth, Va. (Virginia, United States)"/>
<marker lat="51.5" lon="-3.216" site="Cardiff (United Kingdom)"/>
<marker lat="41.633" lon="-85.416" site="La Grange (Indiana, United States)"/>
<marker lat="35.33" lon="-89.183" site="Grand Junction (Tennessee, United States)"/>
<marker lat="36.633" lon="-77.95" site="White Plains (Virginia, United States)"/>
<marker lat="43.383" lon="-87.95" site="Ozaukee (Wisconsin, United States)"/>
<marker lat="33.466" lon="-81.95" site="Hamburg, S. C. (South Carolina, United States)"/>
<marker lat="43.8" lon="-91.233" site="La Crosse (Wisconsin, United States)"/>
<marker lat="30.666" lon="-81.45" site="Fernandina, Fla. (Florida, United States)"/>
<marker lat="40.1" lon="-96.15" site="Pawnee City (Nebraska, United States)"/>
<marker lat="35.466" lon="-86.83" site="Manchester, Tenn. (Tennessee, United States)"/>
<marker lat="37.516" lon="-77.383" site="Rocketts (Virginia, United States)"/>
<marker lat="32.616" lon="-79.983" site="Stono Inlet (South Carolina, United States)"/>
<marker lat="60.0" lon="47.0" site="Russia (Russia)"/>
<marker lat="53.0" lon="-2.0" site="England (United Kingdom)"/>
<marker lat="38.383" lon="-77.533" site="Potomac Creek (Virginia, United States)"/>
<marker lat="60.0" lon="-96.0" site="Canada (Canada)"/>
<marker lat="39.483" lon="-80.133" site="Palatine (West Virginia, United States)"/>
<marker lat="34.0" lon="-80.0" site="South Carolina (South Carolina, United States)"/>
<marker lat="33.516" lon="-82.9" site="Ogeechee (Georgia, United States)"/>
<marker lat="32.716" lon="-79.95" site="James Island (South Carolina, United States)"/>
<marker lat="32.516" lon="-80.833" site="Broad River (South Carolina, United States)"/>
<marker lat="34.166" lon="-82.366" site="Abbeville, S. C. (South Carolina, United States)"/>
<marker lat="36.716" lon="-76.583" site="Suffolk, Va. (Virginia, United States)"/>
<marker lat="47.0" lon="-120.0" site="Washington (Washington, United States)"/>
<marker lat="45.0" lon="-90.0" site="Wisconsin (Wisconsin, United States)"/>
<marker lat="51.85" lon="-8.283" site="Queenstown (Irish Republic)"/>
<marker lat="35.25" lon="-77.566" site="Kinston (North Carolina, United States)"/>
<marker lat="56.0" lon="10.0" site="Denmark (Denmark)"/>
<marker lat="35.25" lon="-88.983" site="Bolivar, Tenn. (Tennessee, United States)"/>
</markers>