<markers>
<marker lat="32.0" lon="-84.0" site="Georgia (Georgia, United States)"/>
<marker lat="38.0" lon="-98.0" site="United States (United States)"/>
<marker lat="42.833" lon="12.833" site="Italy (Italy)"/>
<marker lat="36.85" lon="-81.733" site="Saltville (Virginia, United States)"/>
<marker lat="31.0" lon="-92.0" site="Louisiana (Louisiana, United States)"/>
<marker lat="37.55" lon="-77.45" site="Richmond (Virginia, United States)"/>
<marker lat="42.333" lon="-76.833" site="Havana, N. Y. (New York, United States)"/>
<marker lat="42.816" lon="-82.483" site="St. Clair, Mich. (Michigan, United States)"/>
<marker lat="46.0" lon="2.0" site="France (France)"/>
<marker lat="38.816" lon="-90.183" site="Missouri (United States)"/>
<marker lat="38.0" lon="-98.0" site="Missouri (Missouri, United States)"/>
<marker lat="37.95" lon="-91.766" site="Rolla, Mo. (Missouri, United States)"/>
<marker lat="45.66" lon="7.666" site="Turin (Italy)"/>
<marker lat="34.766" lon="-84.966" site="Dalton, Ga. (Georgia, United States)"/>
<marker lat="35.183" lon="-87.16" site="Pulaski, Tenn. (Tennessee, United States)"/>
<marker lat="38.3" lon="-84.566" site="Scott (Kentucky, United States)"/>
<marker lat="37.3" lon="-78.383" site="Farmville (Virginia, United States)"/>
<marker lat="38.66" lon="-78.883" site="Waynesboro, Va. (Virginia, United States)"/>
<marker lat="35.483" lon="-86.45" site="Shelbyville, Tenn. (Tennessee, United States)"/>
<marker lat="40.533" lon="-89.55" site="Tazewell (Illinois, United States)"/>
<marker lat="37.616" lon="-90.633" site=", Mo. (Missouri, United States)"/>
<marker lat="42.516" lon="-70.883" site="Salem (Massachusetts, United States)"/>
<marker lat="35.0" lon="-93.0" site="Arkansas (Arkansas, United States)"/>
<marker lat="35.5" lon="-85.0" site="Tennessee (Tennessee, United States)"/>
<marker lat="40.766" lon="-111.883" site="Capitol (Utah, United States)"/>
<marker lat="34.216" lon="-77.933" site="Wilmington, N. C. (North Carolina, United States)"/>
<marker lat="36.85" lon="-81.516" site="Smyth (Virginia, United States)"/>
<marker lat="36.933" lon="-82.83" site="Russell County (Virginia, United States)"/>
<marker lat="37.0" lon="-78.683" site="Charlotte county (Virginia, United States)"/>
<marker lat="37.933" lon="-90.783" site="Potosi, Mo. (Missouri, United States)"/>
<marker lat="36.16" lon="-87.966" site="Johnsonville, Tenn. (Tennessee, United States)"/>
<marker lat="39.8" lon="-76.983" site="McAllister (Pennsylvania, United States)"/>
<marker lat="35.583" lon="-78.8" site="Varina (North Carolina, United States)"/>
<marker lat="33.0" lon="-87.0" site="Alabama (Alabama, United States)"/>
<marker lat="39.15" lon="-82.483" site="Puritan (Ohio, United States)"/>
<marker lat="47.233" lon="-95.2" site="Mississippi (United States)"/>
<marker lat="33.516" lon="-84.35" site="Jonesboro (Georgia, United States)"/>
<marker lat="40.16" lon="-78.5" site="Fort Bedford (Pennsylvania, United States)"/>
<marker lat="34.116" lon="-93.5" site="Arkadelphia (Arkansas, United States)"/>
<marker lat="34.25" lon="-85.15" site="Rome, Ga. (Georgia, United States)"/>
<marker lat="33.95" lon="-91.66" site="White River (Arkansas, United States)"/>
<marker lat="38.916" lon="-77.85" site="Rectortown (Virginia, United States)"/>
<marker lat="43.15" lon="-77.6" site="Rochester (New York, United States)"/>
<marker lat="53.0" lon="-2.0" site="England (United Kingdom)"/>
<marker lat="20.666" lon="-98.666" site="Zacualtipan (Veracruz, Mexico)"/>
<marker lat="38.733" lon="-78.633" site="Mount Jackson (Virginia, United States)"/>
<marker lat="37.216" lon="-77.4" site="Petersburg, Va. (Virginia, United States)"/>
<marker lat="34.0" lon="-80.0" site="South Carolina (South Carolina, United States)"/>
<marker lat="40.833" lon="-76.0" site="Pennsylvania (Pennsylvania, United States)"/>
<marker lat="34.65" lon="-84.116" site="Etowah (Georgia, United States)"/>
<marker lat="34.783" lon="-87.666" site="Florence, Ala. (Alabama, United States)"/>
<marker lat="37.933" lon="-90.716" site="Mineral Point (Missouri, United States)"/>
<marker lat="44.3" lon="-70.116" site="Leeds, Me. (Maine, United States)"/>
<marker lat="36.816" lon="-76.85" site="Horse Swamp (Virginia, United States)"/>
<marker lat="38.816" lon="-78.55" site="Edinburg (Virginia, United States)"/>
<marker lat="38.75" lon="-93.733" site="Warrensburg (Missouri, United States)"/>
<marker lat="36.533" lon="-82.55" site="Kingsport (Tennessee, United States)"/>
<marker lat="37.66" lon="-88.55" site="Tennessee River (United States)"/>
<marker lat="33.466" lon="-82.16" site="Augusta (Georgia, United States)"/>
<marker lat="37.616" lon="-112.15" site="Two Bridges (Utah, United States)"/>
<marker lat="31.2" lon="-81.333" site="Sea Island (Georgia, United States)"/>
<marker lat="47.333" lon="13.333" site="Austria (Austria)"/>
<marker lat="34.15" lon="-84.8" site="Cartersville (Georgia, United States)"/>
<marker lat="31.85" lon="-91.183" site="Rodney (Mississippi, United States)"/>
<marker lat="37.35" lon="-78.16" site="Amelia (Virginia, United States)"/>
</markers>