<markers>
<marker lat="46.0" lon="2.0" site="France (France)"/>
<marker lat="60.0" lon="-96.0" site="Canada (Canada)"/>
<marker lat="40.0" lon="-4.0" site="Spain (Spain)"/>
<marker lat="42.25" lon="-71.833" site="Massachusetts (Massachusetts, United States)"/>
<marker lat="31.0" lon="-92.0" site="Louisiana (Louisiana, United States)"/>
<marker lat="54.0" lon="-72.0" site="Quebec (Canada)"/>
<marker lat="32.0" lon="-84.0" site="Georgia (Georgia, United States)"/>
<marker lat="34.716" lon="-76.733" site="Carolina City (North Carolina, United States)"/>
<marker lat="41.333" lon="-89.83" site="La Salle, Ill. (Illinois, United States)"/>
<marker lat="40.833" lon="-76.0" site="Pennsylvania (Pennsylvania, United States)"/>
<marker lat="45.5" lon="-73.6" site="Montreal (Canada)"/>
<marker lat="40.0" lon="-89.0" site="Illinois (Illinois, United States)"/>
<marker lat="41.833" lon="-72.833" site="Connecticut (Connecticut, United States)"/>
<marker lat="40.0" lon="-75.0" site="New Jersey (New Jersey, United States)"/>
<marker lat="34.0" lon="-80.0" site="South Carolina (South Carolina, United States)"/>
<marker lat="39.0" lon="-76.833" site="Maryland (Maryland, United States)"/>
<marker lat="45.0" lon="-63.0" site="Nova Scotia (Canada)"/>
<marker lat="52.1" lon="5.116" site="Trajectum (Netherlands)"/>
<marker lat="45.0" lon="-69.0" site="Maine (Maine, United States)"/>
<marker lat="53.0" lon="-2.0" site="England (United Kingdom)"/>
<marker lat="25.0" lon="-90.0" site="Gulf of Mexico"/>
<marker lat="41.666" lon="-74.866" site="Lake Superior (New York, United States)"/>
<marker lat="47.333" lon="13.333" site="Austria (Austria)"/>
<marker lat="42.516" lon="-70.883" site="Salem (Massachusetts, United States)"/>
<marker lat="44.0" lon="-85.0" site="Michigan (Michigan, United States)"/>
<marker lat="44.233" lon="-76.5" site="Kingston (Canada)"/>
<marker lat="44.516" lon="-88.16" site="Green Bay (Wisconsin, United States)"/>
<marker lat="44.0" lon="-71.666" site="New Hampshire (New Hampshire, United States)"/>
<marker lat="35.5" lon="-80.0" site="North Carolina (North Carolina, United States)"/>
<marker lat="41.666" lon="-71.5" site="Rhode Island (Rhode Island, United States)"/>
<marker lat="41.816" lon="-71.4" site="Providence, R. I. (Rhode Island, United States)"/>
<marker lat="42.0" lon="-81.0" site="Lake Erie (United States)"/>
<marker lat="32.83" lon="-81.1" site="Savannah (Georgia, United States)"/>
<marker lat="44.633" lon="-63.583" site="Halifax (Canada)"/>
<marker lat="37.916" lon="-89.9" site="Kaskaskia (Illinois, United States)"/>
<marker lat="19.416" lon="-99.166" site="Mexico (Mexico, Mexico)"/>
<marker lat="30.383" lon="-88.883" site="Biloxi (Mississippi, United States)"/>
<marker lat="60.0" lon="47.0" site="Russia (Russia)"/>
<marker lat="36.83" lon="-78.3" site="Louisburg (North Carolina, United States)"/>
<marker lat="37.566" lon="-81.333" site="Iroquois, Wyoming (West Virginia, United States)"/>
<marker lat="39.0" lon="-75.666" site="Delaware (Delaware, United States)"/>
<marker lat="35.0" lon="105.0" site="China (China)"/>
<marker lat="42.866" lon="-92.3" site="Frederica (Iowa, United States)"/>
<marker lat="52.5" lon="4.333" site="Ryswick (Netherlands)"/>
<marker lat="44.7" lon="-69.783" site="Norridgewock (Maine, United States)"/>
<marker lat="44.0" lon="-87.0" site="Lake Michigan (United States)"/>
<marker lat="35.583" lon="-79.5" site="Cape Fear (North Carolina, United States)"/>
<marker lat="32.366" lon="-80.683" site="Port Royal (South Carolina, United States)"/>
<marker lat="41.85" lon="-87.65" site="Chicago (Illinois, United States)"/>
<marker lat="48.866" lon="2.333" site="Department de Ville de Paris (France)"/>
<marker lat="39.5" lon="-8.0" site="Portugal (Portugal)"/>
<marker lat="38.966" lon="-76.483" site="Annapolis (Maryland, United States)"/>
<marker lat="43.5" lon="-76.15" site="Onondaga, N. Y. (New York, United States)"/>
<marker lat="43.45" lon="-76.5" site="Oswego (New York, United States)"/>
<marker lat="43.5" lon="-78.0" site="Lake Ontario"/>
<marker lat="44.0" lon="-73.0" site="Vermont (Vermont, United States)"/>
<marker lat="37.766" lon="-91.0" site="Quaker (Missouri, United States)"/>
<marker lat="40.766" lon="-74.216" site="Orange, N. J. (New Jersey, United States)"/>
<marker lat="40.683" lon="-73.8" site="Jamaica, L. I. (New York, United States)"/>
<marker lat="43.9" lon="-69.5" site="Pemaquid (Maine, United States)"/>
<marker lat="42.516" lon="-78.983" site="Iroquois (New York, United States)"/>
<marker lat="38.0" lon="-98.0" site="United States (United States)"/>
<marker lat="38.716" lon="-86.666" site="Huron, Ind. (Indiana, United States)"/>
<marker lat="38.133" lon="-90.55" site="De Soto, Jefferson County, Missouri (Missouri, United States)"/>
<marker lat="42.533" lon="-72.6" site="Deerfield, Mass. (Massachusetts, United States)"/>
<marker lat="38.666" lon="-87.516" site="Vincennes (Indiana, United States)"/>
<marker lat="41.933" lon="-85.616" site="Moab (Michigan, United States)"/>
<marker lat="33.0" lon="-87.0" site="Alabama (Alabama, United States)"/>
<marker lat="43.166" lon="-78.766" site="Niagara County (New York, United States)"/>
<marker lat="40.0" lon="-86.0" site="Indiana (Indiana, United States)"/>
<marker lat="44.5" lon="-93.866" site="Le Sueur, Le Sueur County, Minnesota (Minnesota, United States)"/>
<marker lat="42.766" lon="-71.66" site="Haverhill (Massachusetts, United States)"/>
<marker lat="41.75" lon="-72.683" site="Hartford (Connecticut, United States)"/>
<marker lat="50.833" lon="4.0" site="Belgium (Belgium)"/>
<marker lat="45.583" lon="-69.7" site="Kennebec (Maine, United States)"/>
<marker lat="36.83" lon="-78.8" site="Neuse (North Carolina, United States)"/>
<marker lat="39.766" lon="-94.833" site="St. Joseph, Mo. (Missouri, United States)"/>
<marker lat="45.6" lon="-68.516" site="Penobscot (Maine, United States)"/>
<marker lat="41.95" lon="-70.666" site="Accomack (Massachusetts, United States)"/>
<marker lat="41.616" lon="-71.616" site="Big River (Rhode Island, United States)"/>
<marker lat="52.5" lon="5.75" site="Holland (Netherlands)"/>
<marker lat="45.0" lon="-90.0" site="Wisconsin (Wisconsin, United States)"/>
<marker lat="38.433" lon="-85.166" site="New Castle, Ky. (Kentucky, United States)"/>
<marker lat="56.0" lon="10.0" site="Denmark (Denmark)"/>
<marker lat="41.833" lon="-70.0" site="Cape Cod (Massachusetts, United States)"/>
<marker lat="46.66" lon="6.583" site="Cluses (France)"/>
<marker lat="36.383" lon="-86.433" site="Gallatin, Tenn. (Tennessee, United States)"/>
<marker lat="42.333" lon="-71.55" site="Marlboro, Mass. (Massachusetts, United States)"/>
<marker lat="38.0" lon="-98.0" site="Missouri (Missouri, United States)"/>
<marker lat="30.183" lon="-82.633" site="Lake City (Florida, United States)"/>
<marker lat="38.566" lon="-90.183" site="Cahokia (Illinois, United States)"/>
<marker lat="19.0" lon="-70.666" site="Dominican Republic (Dominican Republic)"/>
<marker lat="57.0" lon="-4.0" site="Scotland (United Kingdom)"/>
<marker lat="42.0" lon="-93.0" site="Iowa (Iowa, United States)"/>
<marker lat="42.8" lon="-73.933" site="Schenectady (New York, United States)"/>
<marker lat="57.66" lon="-92.583" site="Port Nelson (Canada)"/>
<marker lat="35.3" lon="-75.933" site="Pamlico Sound (North Carolina, United States)"/>
<marker lat="35.0" lon="-93.0" site="Arkansas (Arkansas, United States)"/>
<marker lat="41.783" lon="-69.983" site="Orleans, Ma. (Massachusetts, United States)"/>
<marker lat="37.0" lon="-119.0" site="California (California, United States)"/>
<marker lat="44.0" lon="-82.0" site="Lake Huron"/>
<marker lat="46.866" lon="-71.2" site="Montmorency (Canada)"/>
<marker lat="54.0" lon="-60.0" site="Labrador (Canada)"/>
<marker lat="31.366" lon="-81.433" site="Darien, Ga. (Georgia, United States)"/>
<marker lat="41.516" lon="-88.66" site="Joliet (Illinois, United States)"/>
<marker lat="18.25" lon="-77.5" site="Jamaica (Jamaica)"/>
<marker lat="44.183" lon="-89.416" site="Lake Huron (Wisconsin, United States)"/>
<marker lat="31.133" lon="-87.933" site="Alabama river (Alabama, United States)"/>
<marker lat="42.883" lon="-78.9" site="Niagara River (New York, United States)"/>
<marker lat="39.95" lon="-76.716" site="York, Pa. (Pennsylvania, United States)"/>
<marker lat="51.5" lon="10.5" site="Germany (Germany)"/>
<marker lat="33.466" lon="-82.16" site="Augusta (Georgia, United States)"/>
<marker lat="34.683" lon="-91.3" site="Clarendon, Ark. (Arkansas, United States)"/>
<marker lat="30.216" lon="-88.916" site="Ship Island (Mississippi, United States)"/>
<marker lat="62.0" lon="15.0" site="Sweden (Sweden)"/>
<marker lat="49.216" lon="-2.116" site="Jersey"/>
<marker lat="46.533" lon="-87.383" site="Marquette, Mich. (Michigan, United States)"/>
<marker lat="40.75" lon="-86.66" site="Peru, Ind. (Indiana, United States)"/>
<marker lat="5.55" lon="-0.25" site="Fort James (Ghana)"/>
<marker lat="33.0" lon="-90.0" site="Mississippi (Mississippi, United States)"/>
<marker lat="39.8" lon="-76.983" site="McAllister (Pennsylvania, United States)"/>
<marker lat="31.75" lon="-93.83" site="Natchitoches (Louisiana, United States)"/>
<marker lat="42.116" lon="-80.83" site="Erie (Pennsylvania, United States)"/>
<marker lat="42.333" lon="-70.966" site="Boston Harbor (Massachusetts, United States)"/>
<marker lat="13.166" lon="-59.533" site="Barbados (Barbados)"/>
<marker lat="17.333" lon="-62.75" site="St. Christopher (Saint Kitts and Nevis)"/>
<marker lat="41.483" lon="-71.3" site="Newport (Rhode Island, United States)"/>
<marker lat="35.866" lon="-76.733" site="Plymouth, N. C. (North Carolina, United States)"/>
<marker lat="44.583" lon="-92.5" site="Wisconsin (Wisconsin, United States)"/>
<marker lat="44.366" lon="-73.83" site="Lake Iroquois (Vermont, United States)"/>
<marker lat="49.916" lon="1.83" site="Dieppe (France)"/>
<marker lat="34.25" lon="-85.15" site="Rome, Ga. (Georgia, United States)"/>
<marker lat="36.833" lon="-76.283" site="Portsmouth, Va. (Virginia, United States)"/>
<marker lat="43.66" lon="-70.75" site="Portsmouth (New Hampshire, United States)"/>
<marker lat="43.65" lon="-70.25" site="Portland (Maine, United States)"/>
<marker lat="55.983" lon="-93.416" site="Fox (Canada)"/>
<marker lat="37.5" lon="14.0" site="Sicily (Italy)"/>
<marker lat="37.55" lon="-78.65" site="North River (Virginia, United States)"/>
<marker lat="42.916" lon="-78.933" site="Fort Erie (Canada)"/>
<marker lat="13.83" lon="80.3" site="Fort St. George (Tamil Nadu, India)"/>
<marker lat="52.516" lon="-3.5" site="Cambria (United Kingdom)"/>
<marker lat="40.866" lon="-72.933" site="Carmans River (New York, United States)"/>
<marker lat="32.366" lon="-86.3" site="Montgomery (Alabama, United States)"/>
<marker lat="39.0" lon="-80.0" site="West Virginia (West Virginia, United States)"/>
<marker lat="39.866" lon="-79.85" site="Puritan (Pennsylvania, United States)"/>
<marker lat="34.416" lon="-88.416" site="Tombigbee River (United States)"/>
<marker lat="52.45" lon="6.916" site="Halle (Saxony-Anhalt, Germany)"/>
<marker lat="43.0" lon="-75.0" site="Mohawk (New York, United States)"/>
<marker lat="42.45" lon="-71.35" site="Concord (Massachusetts, United States)"/>
<marker lat="42.666" lon="1.0" site="Pyrenees"/>
<marker lat="51.916" lon="4.483" site="Rotterdam (Netherlands)"/>
<marker lat="35.266" lon="-90.583" site="Saint Francis (Arkansas, United States)"/>
<marker lat="39.166" lon="-91.866" site="Mexico, Mo. (Missouri, United States)"/>
<marker lat="32.283" lon="-84.5" site="Oglethorpe (Georgia, United States)"/>
<marker lat="27.0" lon="80.0" site="Hindustan (Uttar Pradesh, India)"/>
<marker lat="56.816" lon="-5.116" site="Fort William (United Kingdom)"/>
<marker lat="14.666" lon="-61.0" site="Martinique"/>
<marker lat="65.0" lon="-153.0" site="Alaska (Alaska, United States)"/>
<marker lat="52.833" lon="10.0" site="Saxony (Saxony, Germany)"/>
<marker lat="37.866" lon="-80.133" site="Alleghany Mountains (United States)"/>
<marker lat="36.9" lon="-92.483" site="Vera Cruz, Mo. (Missouri, United States)"/>
<marker lat="48.5" lon="11.5" site="Bavaria (Bavaria, Germany)"/>
<marker lat="8.95" lon="-79.5" site="Panama City (Panama)"/>
<marker lat="40.416" lon="-3.716" site="Madrid (Spain)"/>
<marker lat="40.733" lon="-73.933" site="Long Island City (New York, United States)"/>
<marker lat="38.8" lon="-80.616" site="Dutch (West Virginia, United States)"/>
<marker lat="41.333" lon="-88.833" site="Ottawa, Ill. (Illinois, United States)"/>
<marker lat="39.0" lon="22.0" site="Greece (Greece)"/>
<marker lat="-10.0" lon="-76.0" site="Peru (Peru)"/>
<marker lat="38.316" lon="-77.466" site="Falmouth, Va. (Virginia, United States)"/>
<marker lat="40.433" lon="-84.55" site="Carthagena (Ohio, United States)"/>
<marker lat="43.25" lon="-79.5" site="Fort Niagara (New York, United States)"/>
<marker lat="30.35" lon="-88.55" site="Pascagoula (Mississippi, United States)"/>
<marker lat="43.45" lon="-71.1" site="Cocheco River (New Hampshire, United States)"/>
<marker lat="30.85" lon="-81.433" site="Cumberland Island (Georgia, United States)"/>
<marker lat="43.66" lon="-78.966" site="La Salle, Niagara county (New York, United States)"/>
<marker lat="46.533" lon="-86.5" site="Fox River (Michigan, United States)"/>
<marker lat="39.116" lon="-88.533" site="Effingham (Ill.) (Illinois, United States)"/>
<marker lat="42.566" lon="-78.33" site="Portage, N. Y. (New York, United States)"/>
<marker lat="37.233" lon="-80.2" site="Roanoke (United States)"/>
<marker lat="38.816" lon="-90.183" site="Missouri (United States)"/>
<marker lat="41.933" lon="-75.266" site="South river (United States)"/>
<marker lat="37.83" lon="-84.6" site="Somerset, Ky. (Kentucky, United States)"/>
<marker lat="37.9" lon="-78.483" site="Blenheim, Va. (Virginia, United States)"/>
<marker lat="32.416" lon="-80.666" site="Beaufort, S. C. (South Carolina, United States)"/>
<marker lat="40.333" lon="-78.766" site="Saint Michael (Pennsylvania, United States)"/>
<marker lat="44.8" lon="-68.766" site="Bangor (Maine, United States)"/>
<marker lat="39.283" lon="-76.6" site="Baltimore, Md. (Maryland, United States)"/>
<marker lat="42.366" lon="-70.75" site="Massachusetts Bay (Massachusetts, United States)"/>
<marker lat="36.533" lon="-6.3" site="Gades (Spain)"/>
<marker lat="41.283" lon="-72.366" site="Saybrook, Conn. (Connecticut, United States)"/>
<marker lat="40.633" lon="-79.833" site="Benjamin (Pennsylvania, United States)"/>
<marker lat="35.216" lon="-75.516" site="Cape Hatteras (North Carolina, United States)"/>
<marker lat="33.983" lon="-82.633" site="Huguenot (Georgia, United States)"/>
<marker lat="9.933" lon="76.25" site="Cochin (Kerala, India)"/>
<marker lat="33.4" lon="-91.5" site="Greenville (Mississippi, United States)"/>
<marker lat="40.683" lon="-89.583" site="Peoria (Illinois, United States)"/>
<marker lat="42.333" lon="-81.983" site="Blenheim (Canada)"/>
<marker lat="34.233" lon="-84.933" site="Kingston, Ga. (Georgia, United States)"/>
<marker lat="35.233" lon="-106.183" site="Puritan (New Mexico, United States)"/>
</markers>