<markers>
<marker lat="38.0" lon="-98.0" site="United States (United States)"/>
<marker lat="35.0" lon="105.0" site="China (China)"/>
<marker lat="40.0" lon="-86.0" site="Indiana (Indiana, United States)"/>
<marker lat="30.566" lon="-81.683" site="Nassau River (Florida, United States)"/>
<marker lat="40.0" lon="-89.0" site="Illinois (Illinois, United States)"/>
<marker lat="37.75" lon="-77.466" site="Ashland (Virginia, United States)"/>
<marker lat="37.75" lon="-77.483" site="Hanover County (Virginia, United States)"/>
<marker lat="35.9" lon="-86.9" site="Williamson (Tennessee, United States)"/>
<marker lat="39.0" lon="-76.833" site="Maryland (Maryland, United States)"/>
<marker lat="30.666" lon="-91.266" site="Port Hudson (Louisiana, United States)"/>
<marker lat="36.483" lon="-87.85" site="Fort Donelson (Tennessee, United States)"/>
<marker lat="37.33" lon="-78.483" site="Keysville (Virginia, United States)"/>
<marker lat="39.0" lon="-75.666" site="Delaware (Delaware, United States)"/>
<marker lat="37.55" lon="-77.366" site="Henrico (Virginia, United States)"/>
<marker lat="41.833" lon="-72.833" site="Connecticut (Connecticut, United States)"/>
<marker lat="23.66" lon="-81.583" site="Matanzas (Cuba)"/>
<marker lat="37.75" lon="-77.366" site="Hanover Court House (Virginia, United States)"/>
<marker lat="32.716" lon="-79.866" site="Cumming's Point (South Carolina, United States)"/>
<marker lat="35.8" lon="-86.9" site="Thompson's Station (Tennessee, United States)"/>
<marker lat="37.8" lon="-79.433" site="Rockbridge (Virginia, United States)"/>
<marker lat="37.35" lon="-78.16" site="Amelia (Virginia, United States)"/>
<marker lat="32.75" lon="-79.883" site="Charleston Harbor (South Carolina, United States)"/>
<marker lat="44.0" lon="-85.0" site="Michigan (Michigan, United States)"/>
<marker lat="37.65" lon="-84.95" site="Perryville (Kentucky, United States)"/>
<marker lat="36.883" lon="-77.933" site="Tobacco (Virginia, United States)"/>
<marker lat="37.366" lon="-77.5" site="Chesterfield (Virginia, United States)"/>
<marker lat="47.233" lon="-95.2" site="Mississippi (United States)"/>
<marker lat="31.883" lon="-81.183" site="Fort McAllister (Georgia, United States)"/>
<marker lat="42.616" lon="-78.5" site="Castile, N. Y. (New York, United States)"/>
<marker lat="36.85" lon="-78.583" site="Wylliesburg (Virginia, United States)"/>
<marker lat="53.4" lon="-3.33" site="Birkenhead (United Kingdom)"/>
<marker lat="43.65" lon="-70.25" site="Portland (Maine, United States)"/>
<marker lat="35.133" lon="-90.33" site="Memphis (Tennessee, United States)"/>
<marker lat="39.766" lon="-86.15" site="Indianapolis (Indiana, United States)"/>
<marker lat="60.0" lon="-96.0" site="Canada (Canada)"/>
<marker lat="37.233" lon="-76.55" site="York county (Virginia, United States)"/>
<marker lat="35.5" lon="-80.0" site="North Carolina (North Carolina, United States)"/>
<marker lat="37.216" lon="-77.4" site="Petersburg, Va. (Virginia, United States)"/>
<marker lat="23.66" lon="-82.483" site="Santa Cruz (Cuba)"/>
<marker lat="35.5" lon="-85.0" site="Tennessee (Tennessee, United States)"/>
<marker lat="51.5" lon="-0.166" site="London (United Kingdom)"/>
<marker lat="37.95" lon="-121.283" site="Stockton (California, United States)"/>
<marker lat="55.933" lon="-4.7" site="Port Glasgow (United Kingdom)"/>
<marker lat="38.566" lon="-92.166" site="Jefferson City (Missouri, United States)"/>
<marker lat="-0.5" lon="-91.0" site="Pacific Ocean"/>
<marker lat="37.383" lon="-77.6" site="Chesterfield (Virginia, United States)"/>
<marker lat="32.366" lon="-80.683" site="Port Royal (South Carolina, United States)"/>
<marker lat="35.35" lon="-86.2" site="Tullahoma (Tennessee, United States)"/>
<marker lat="19.416" lon="-99.166" site="Mexico (Mexico, Mexico)"/>
<marker lat="46.0" lon="2.0" site="France (France)"/>
<marker lat="36.583" lon="-79.383" site="Danville (Virginia, United States)"/>
<marker lat="37.833" lon="-76.416" site="Oak Grove (Virginia, United States)"/>
<marker lat="55.95" lon="-4.75" site="Greenock (United Kingdom)"/>
<marker lat="39.15" lon="-84.45" site="Cincinnati (Ohio, United States)"/>
<marker lat="39.783" lon="-85.516" site="La Fayette (Indiana, United States)"/>
<marker lat="37.0" lon="-78.683" site="Charlotte county (Virginia, United States)"/>
</markers>