<markers>
<marker lat="38.0" lon="-98.0" site="United States (United States)"/>
<marker lat="36.583" lon="-79.383" site="Danville (Virginia, United States)"/>
<marker lat="35.5" lon="-80.0" site="North Carolina (North Carolina, United States)"/>
<marker lat="34.0" lon="-80.0" site="South Carolina (South Carolina, United States)"/>
<marker lat="32.366" lon="-80.683" site="Port Royal (South Carolina, United States)"/>
<marker lat="35.5" lon="-85.0" site="Tennessee (Tennessee, United States)"/>
<marker lat="35.95" lon="-83.916" site="Knoxville (Tennessee, United States)"/>
<marker lat="36.66" lon="-79.783" site="Greensboro (North Carolina, United States)"/>
<marker lat="32.0" lon="-84.0" site="Georgia (Georgia, United States)"/>
<marker lat="39.0" lon="22.0" site="Greece (Greece)"/>
<marker lat="38.0" lon="-98.0" site="Missouri (Missouri, United States)"/>
<marker lat="37.83" lon="-88.6" site="Paducah (Kentucky, United States)"/>
<marker lat="37.55" lon="-77.45" site="Richmond (Virginia, United States)"/>
<marker lat="37.0" lon="-119.0" site="California (California, United States)"/>
<marker lat="37.33" lon="-89.183" site="Cairo, Ill. (Illinois, United States)"/>
<marker lat="40.5" lon="-80.716" site="Wheeling, W. Va. (West Virginia, United States)"/>
<marker lat="39.0" lon="-76.833" site="Maryland (Maryland, United States)"/>
<marker lat="36.3" lon="-82.133" site="Carter County (Tennessee, United States)"/>
<marker lat="38.983" lon="-76.15" site="Queenstown, Md. (Maryland, United States)"/>
<marker lat="41.366" lon="-83.65" site="Bowling Green, Wood County, Ohio (Ohio, United States)"/>
<marker lat="37.35" lon="-75.933" site="Northampton County (Virginia, United States)"/>
<marker lat="36.966" lon="-76.35" site="Hampton Roads (Virginia, United States)"/>
<marker lat="32.216" lon="-80.666" site="Hilton Head (South Carolina, United States)"/>
<marker lat="38.7" lon="-93.216" site="Sedalia, Mo. (Missouri, United States)"/>
<marker lat="37.0" lon="-85.0" site="Kentucky (Kentucky, United States)"/>
<marker lat="37.716" lon="-75.65" site="Accomac (Virginia, United States)"/>
<marker lat="39.0" lon="-80.0" site="West Virginia (West Virginia, United States)"/>
<marker lat="36.733" lon="-88.633" site="Mayfield (Kentucky, United States)"/>
<marker lat="39.166" lon="-91.866" site="Mexico, Mo. (Missouri, United States)"/>
<marker lat="37.0" lon="-80.0" site="Virginia (Virginia, United States)"/>
<marker lat="8.95" lon="-79.5" site="Panama City (Panama)"/>
<marker lat="46.0" lon="2.0" site="France (France)"/>
<marker lat="33.6" lon="-96.116" site="Fannin (Texas, United States)"/>
<marker lat="37.833" lon="-84.866" site="Mercer (Kentucky, United States)"/>
<marker lat="36.983" lon="-85.616" site="Metcalfe (Kentucky, United States)"/>
<marker lat="37.783" lon="-83.416" site="Hazel Green (Kentucky, United States)"/>
<marker lat="53.5" lon="-2.216" site="Manchester (United Kingdom)"/>
<marker lat="36.283" lon="-82.483" site="Washington County, Tennessee (Tennessee, United States)"/>
<marker lat="39.5" lon="-78.966" site="Moorefield (West Virginia, United States)"/>
<marker lat="41.75" lon="-124.2" site="Crescent City (California, United States)"/>
<marker lat="38.766" lon="-79.966" site="Rich Mountain (West Virginia, United States)"/>
<marker lat="36.383" lon="-78.966" site="Roxboro (North Carolina, United States)"/>
<marker lat="39.366" lon="-87.0" site="Bowling Green (Indiana, United States)"/>
<marker lat="37.433" lon="-76.416" site="Hampton Creek (Virginia, United States)"/>
<marker lat="33.0" lon="-87.0" site="Alabama (Alabama, United States)"/>
<marker lat="36.966" lon="-82.65" site="Laurel Grove (Virginia, United States)"/>
<marker lat="33.516" lon="-84.35" site="Jonesboro (Georgia, United States)"/>
<marker lat="38.983" lon="-77.283" site="Great Falls, Va. (Virginia, United States)"/>
<marker lat="46.566" lon="10.783" site="Martello (Italy)"/>
<marker lat="1.0" lon="-40.0" site="Atlantic Ocean"/>
<marker lat="51.66" lon="-1.25" site="Hampshire (United Kingdom)"/>
<marker lat="53.7" lon="-2.666" site="Lancaster (United Kingdom)"/>
<marker lat="30.666" lon="-81.45" site="Fernandina, Fla. (Florida, United States)"/>
<marker lat="35.816" lon="-83.2" site="Greasy Cove (Tennessee, United States)"/>
<marker lat="32.166" lon="-80.833" site="Bull Island, S. C. (South Carolina, United States)"/>
<marker lat="18.233" lon="-66.55" site="Porto Rico"/>
<marker lat="37.516" lon="-76.783" site="West Point (Virginia, United States)"/>
<marker lat="35.133" lon="-90.33" site="Memphis (Tennessee, United States)"/>
<marker lat="33.516" lon="-88.4" site="Lowndes (Mississippi, United States)"/>
<marker lat="37.266" lon="-79.933" site="Big Lick (Virginia, United States)"/>
<marker lat="57.0" lon="-4.0" site="Scotland (United Kingdom)"/>
<marker lat="37.766" lon="-122.416" site="San Francisco (California, United States)"/>
<marker lat="38.966" lon="-77.633" site="Aldie (Virginia, United States)"/>
<marker lat="30.566" lon="-81.683" site="Nassau River (Florida, United States)"/>
<marker lat="38.33" lon="-84.5" site="Lexington (Kentucky, United States)"/>
<marker lat="34.266" lon="-85.15" site="Floyd (Georgia, United States)"/>
<marker lat="32.233" lon="-80.85" site="Bluffton (South Carolina, United States)"/>
<marker lat="32.366" lon="-86.3" site="Montgomery (Alabama, United States)"/>
<marker lat="37.416" lon="-77.45" site="Drewry's Bluff (Virginia, United States)"/>
<marker lat="39.316" lon="-77.733" site="Harper's Ferry (West Virginia, United States)"/>
<marker lat="35.0" lon="-93.0" site="Arkansas (Arkansas, United States)"/>
<marker lat="37.55" lon="-77.366" site="Henrico (Virginia, United States)"/>
<marker lat="41.166" lon="-8.583" site="Porto (Portugal)"/>
<marker lat="54.166" lon="-8.666" site="Sligo (Irish Republic)"/>
<marker lat="30.0" lon="-100.0" site="Texas (Texas, United States)"/>
<marker lat="37.66" lon="-77.583" site="Dinwiddie Court House (Virginia, United States)"/>
<marker lat="35.683" lon="-75.716" site="Old Point (North Carolina, United States)"/>
<marker lat="36.666" lon="-93.866" site="Cassville (Missouri, United States)"/>
<marker lat="38.5" lon="-83.933" site="Mount Sterling, Ky. (Kentucky, United States)"/>
<marker lat="37.266" lon="-76.16" site="Cape Charles (Virginia, United States)"/>
<marker lat="37.35" lon="-77.4" site="Dutch Gap (Virginia, United States)"/>
<marker lat="37.16" lon="-76.333" site="Hampton (Virginia, United States)"/>
<marker lat="33.883" lon="-78.16" site="Fort Caswell (North Carolina, United States)"/>
<marker lat="37.35" lon="-75.933" site="Eastville (Virginia, United States)"/>
<marker lat="37.383" lon="-77.6" site="Chesterfield (Virginia, United States)"/>
<marker lat="41.416" lon="-73.95" site="Cold Spring, N. Y. (New York, United States)"/>
<marker lat="42.9" lon="-77.733" site="Avon, N. Y. (New York, United States)"/>
<marker lat="31.966" lon="-80.883" site="Tybee Island (Georgia, United States)"/>
<marker lat="36.75" lon="-78.916" site="Halifax, Va. (Virginia, United States)"/>
<marker lat="36.4" lon="-79.35" site="Caswell (North Carolina, United States)"/>
<marker lat="8.0" lon="-66.0" site="Venezuela (Venezuela)"/>
<marker lat="30.333" lon="-97.8" site="Travis (Texas, United States)"/>
<marker lat="37.433" lon="-84.633" site="Green (Kentucky, United States)"/>
<marker lat="39.5" lon="-8.0" site="Portugal (Portugal)"/>
<marker lat="38.866" lon="-77.166" site="Fall's Church (Virginia, United States)"/>
<marker lat="37.733" lon="-77.916" site="Goochland (Virginia, United States)"/>
<marker lat="37.8" lon="-79.433" site="Rockbridge (Virginia, United States)"/>
<marker lat="38.633" lon="-78.466" site="Page county (Virginia, United States)"/>
<marker lat="37.1" lon="-81.566" site="Tazewell (Virginia, United States)"/>
<marker lat="13.533" lon="105.966" site="San"/>
<marker lat="39.16" lon="-78.816" site="Hardy County (West Virginia, United States)"/>
<marker lat="37.3" lon="-79.566" site="Bedford County (Virginia, United States)"/>
</markers>