<markers>
<marker lat="38.883" lon="-77.33" site="Washington (United States)"/>
<marker lat="39.95" lon="-75.15" site="Philadelphia (Pennsylvania, United States)"/>
<marker lat="40.833" lon="-76.0" site="Pennsylvania (Pennsylvania, United States)"/>
<marker lat="38.0" lon="-98.0" site="United States (United States)"/>
<marker lat="60.0" lon="-96.0" site="Canada (Canada)"/>
<marker lat="39.15" lon="-84.45" site="Cincinnati (Ohio, United States)"/>
<marker lat="39.216" lon="-81.116" site="Cornwallis (West Virginia, United States)"/>
<marker lat="39.75" lon="-84.183" site="Venice (Ohio, United States)"/>
<marker lat="25.766" lon="-80.183" site="Miami (Florida, United States)"/>
<marker lat="23.25" lon="-75.116" site="Long Island (Bahamas)"/>
<marker lat="36.483" lon="-87.483" site="Montgomery county (Tennessee, United States)"/>
<marker lat="38.75" lon="-76.55" site="Leitch (Maryland, United States)"/>
<marker lat="39.0" lon="-75.666" site="Delaware (Delaware, United States)"/>
<marker lat="40.75" lon="-74.566" site="Passaic (New Jersey, United States)"/>
<marker lat="35.75" lon="-91.85" site="York Island (Arkansas, United States)"/>
<marker lat="52.166" lon="4.5" site="Leyden (Netherlands)"/>
<marker lat="38.333" lon="-81.616" site="Charleston, W. Va. (West Virginia, United States)"/>
<marker lat="44.2" lon="-87.666" site="Kingsbridge (Wisconsin, United States)"/>
<marker lat="39.116" lon="-78.833" site="North River (West Virginia, United States)"/>
<marker lat="39.0" lon="22.0" site="Greece (Greece)"/>
<marker lat="33.833" lon="35.833" site="Lebanon (Lebanon)"/>
<marker lat="35.916" lon="-91.933" site="Louis (Arkansas, United States)"/>
<marker lat="35.683" lon="-85.783" site="Warren (Tennessee, United States)"/>
<marker lat="40.783" lon="-74.466" site="Morristown (New Jersey, United States)"/>
<marker lat="32.45" lon="-84.983" site="Columbus (Georgia, United States)"/>
<marker lat="40.733" lon="-74.166" site="Milford (New Jersey, United States)"/>
<marker lat="40.0" lon="-80.833" site="Ohio (Ohio, United States)"/>
<marker lat="41.666" lon="-71.5" site="Rhode Island (Rhode Island, United States)"/>
<marker lat="43.166" lon="-76.116" site="Cicero (New York, United States)"/>
<marker lat="32.366" lon="-86.3" site="Montgomery (Alabama, United States)"/>
<marker lat="41.433" lon="-73.733" site="Putnam (New York, United States)"/>
<marker lat="41.183" lon="-73.983" site="Hackensack (United States)"/>
<marker lat="45.5" lon="-73.6" site="Montreal (Canada)"/>
<marker lat="38.966" lon="-76.483" site="Annapolis (Maryland, United States)"/>
<marker lat="42.35" lon="-71.5" site="Boston (Massachusetts, United States)"/>
<marker lat="40.866" lon="-76.25" site="Schuylkill (Pennsylvania, United States)"/>
<marker lat="39.766" lon="-77.133" site="Germantown (Pennsylvania, United States)"/>
<marker lat="45.166" lon="-75.466" site="Vernon (Canada)"/>
<marker lat="43.216" lon="-79.133" site="Virgil (Canada)"/>
<marker lat="53.0" lon="-2.0" site="England (United Kingdom)"/>
<marker lat="35.883" lon="-85.183" site="Erasmus (Tennessee, United States)"/>
<marker lat="52.533" lon="13.416" site="Berlin (Berlin, Germany)"/>
<marker lat="52.25" lon="10.5" site="Brunswick (Lower Saxony, Germany)"/>
<marker lat="44.5" lon="-73.116" site="Addison (Vermont, United States)"/>
<marker lat="40.733" lon="-82.66" site="Horace (Ohio, United States)"/>
<marker lat="37.266" lon="-81.166" site="East River (United States)"/>
<marker lat="43.833" lon="-73.416" site="Lake George (New York, United States)"/>
</markers>