<markers>
<marker lat="38.483" lon="-76.983" site="Charles county (Maryland, United States)"/>
<marker lat="38.0" lon="-98.0" site="United States (United States)"/>
<marker lat="39.0" lon="22.0" site="Greece (Greece)"/>
<marker lat="39.366" lon="-91.166" site="Pike County (Missouri, United States)"/>
<marker lat="37.55" lon="-77.45" site="Richmond (Virginia, United States)"/>
<marker lat="38.466" lon="-76.0" site="Dorchester (Maryland, United States)"/>
<marker lat="39.4" lon="-77.4" site="Frederick, Md. (Maryland, United States)"/>
<marker lat="33.733" lon="-84.383" site="Atlanta (Georgia, United States)"/>
<marker lat="38.183" lon="-85.65" site="Jefferson (Kentucky, United States)"/>
<marker lat="39.3" lon="-76.33" site="Kent County (Maryland, United States)"/>
<marker lat="37.9" lon="-81.0" site="Ephraim (West Virginia, United States)"/>
<marker lat="39.25" lon="-76.933" site="Howard (Maryland, United States)"/>
<marker lat="39.15" lon="-77.2" site="Montgomery County (Maryland, United States)"/>
<marker lat="37.383" lon="-77.6" site="Chesterfield (Virginia, United States)"/>
<marker lat="40.283" lon="-87.233" site="Attica (Indiana, United States)"/>
<marker lat="36.583" lon="-79.383" site="Danville (Virginia, United States)"/>
<marker lat="38.683" lon="-92.35" site="Marion (Missouri, United States)"/>
<marker lat="37.516" lon="-77.45" site="Belle Isle, Va. (Virginia, United States)"/>
<marker lat="37.516" lon="-76.783" site="York (Virginia, United States)"/>
<marker lat="36.733" lon="-77.1" site="Southampton county (Virginia, United States)"/>
<marker lat="38.966" lon="-76.483" site="Annapolis (Maryland, United States)"/>
<marker lat="42.583" lon="-71.716" site="Lunenburg, Ma. (Massachusetts, United States)"/>
<marker lat="39.0" lon="-76.833" site="Maryland (Maryland, United States)"/>
<marker lat="37.2" lon="-77.233" site="county, Va. (Virginia, United States)"/>
<marker lat="32.2" lon="48.333" site="Susa (Iran)"/>
<marker lat="38.833" lon="-77.3" site="Fairfax, Va. (Virginia, United States)"/>
<marker lat="37.116" lon="-80.4" site="Christiansburg (Virginia, United States)"/>
<marker lat="32.0" lon="53.0" site="Persia (Iran)"/>
<marker lat="37.4" lon="-76.516" site="Gloucester, Va. (Virginia, United States)"/>
<marker lat="37.25" lon="-76.483" site="Gloucester Point (Virginia, United States)"/>
<marker lat="42.266" lon="-72.966" site="Chester Station (Massachusetts, United States)"/>
<marker lat="39.266" lon="-81.55" site="Parkersburg (West Virginia, United States)"/>
<marker lat="39.816" lon="-91.6" site="Marion County, Mo. (Missouri, United States)"/>
<marker lat="38.233" lon="-78.1" site="Orange Court House (Virginia, United States)"/>
<marker lat="37.783" lon="-78.483" site="Scottsville (Virginia, United States)"/>
<marker lat="37.333" lon="-77.266" site="Bermuda Hundred (Virginia, United States)"/>
<marker lat="32.0" lon="-84.0" site="Georgia (Georgia, United States)"/>
<marker lat="38.183" lon="-76.433" site="St. Mary (Maryland, United States)"/>
<marker lat="38.466" lon="-77.983" site="Culpeper, Va. (Virginia, United States)"/>
<marker lat="37.783" lon="-79.433" site="Lexington, Va. (Virginia, United States)"/>
<marker lat="35.5" lon="-80.0" site="North Carolina (North Carolina, United States)"/>
<marker lat="38.2" lon="-75.383" site="Worcester County (Maryland, United States)"/>
<marker lat="38.883" lon="-76.666" site="Queen Anne (Maryland, United States)"/>
<marker lat="35.766" lon="-78.633" site="Raleigh (North Carolina, United States)"/>
<marker lat="37.116" lon="-89.583" site="Hamburg, Mo. (Missouri, United States)"/>
<marker lat="37.716" lon="-83.5" site="Mason (Kentucky, United States)"/>
<marker lat="38.733" lon="-77.816" site="Fauquier (Virginia, United States)"/>
<marker lat="38.3" lon="-76.616" site="St. Marys county (Maryland, United States)"/>
<marker lat="41.7" lon="-70.216" site="Yarmouth (Massachusetts, United States)"/>
<marker lat="36.166" lon="-86.75" site="Edgefield (Tennessee, United States)"/>
<marker lat="33.6" lon="-91.716" site="Drew County (Arkansas, United States)"/>
<marker lat="37.0" lon="-80.0" site="Virginia (Virginia, United States)"/>
<marker lat="38.866" lon="-75.833" site="Caroline (Maryland, United States)"/>
<marker lat="35.316" lon="-82.45" site="Hendersonville (North Carolina, United States)"/>
<marker lat="37.75" lon="-77.366" site="Hanover Court House (Virginia, United States)"/>
<marker lat="43.9" lon="-69.95" site="Brunswick, Me. (Maine, United States)"/>
<marker lat="32.366" lon="-80.683" site="Port Royal (South Carolina, United States)"/>
<marker lat="40.766" lon="-74.216" site="Orange, N. J. (New Jersey, United States)"/>
<marker lat="38.33" lon="-75.766" site="Marion Station (Maryland, United States)"/>
<marker lat="39.833" lon="-88.95" site="Decatur (Illinois, United States)"/>
<marker lat="39.75" lon="-84.183" site="Venice (Ohio, United States)"/>
<marker lat="39.83" lon="-77.15" site="Rockville, Md. (Maryland, United States)"/>
<marker lat="36.816" lon="-79.4" site="Pittsylvania (Virginia, United States)"/>
<marker lat="37.566" lon="-77.916" site="Powhatan (Virginia, United States)"/>
<marker lat="39.116" lon="-77.966" site="Clarke (Virginia, United States)"/>
</markers>