<markers>
<marker lat="38.0" lon="-98.0" site="United States (United States)"/>
<marker lat="33.733" lon="-84.383" site="Atlanta (Georgia, United States)"/>
<marker lat="35.5" lon="-80.0" site="North Carolina (North Carolina, United States)"/>
<marker lat="32.0" lon="-84.0" site="Georgia (Georgia, United States)"/>
<marker lat="60.0" lon="-96.0" site="Canada (Canada)"/>
<marker lat="35.5" lon="-85.0" site="Tennessee (Tennessee, United States)"/>
<marker lat="42.66" lon="-71.666" site="William Hill (Massachusetts, United States)"/>
<marker lat="53.0" lon="-2.0" site="England (United Kingdom)"/>
<marker lat="43.25" lon="-73.216" site="Rupert (Vermont, United States)"/>
<marker lat="33.666" lon="-84.433" site="South River, Ga. (Georgia, United States)"/>
<marker lat="30.266" lon="-97.733" site="Austin (Texas, United States)"/>
<marker lat="33.0" lon="-90.0" site="Mississippi (Mississippi, United States)"/>
<marker lat="38.0" lon="-98.0" site="Missouri (Missouri, United States)"/>
<marker lat="44.0" lon="-71.666" site="New Hampshire (New Hampshire, United States)"/>
<marker lat="37.366" lon="-77.5" site="Chesterfield (Virginia, United States)"/>
<marker lat="37.316" lon="-77.266" site="City Point (Virginia, United States)"/>
<marker lat="38.683" lon="-77.483" site="Occoquan River (Virginia, United States)"/>
<marker lat="43.83" lon="-79.5" site="Manchester (New York, United States)"/>
<marker lat="33.95" lon="-77.933" site="Federal Point (North Carolina, United States)"/>
<marker lat="57.0" lon="-4.0" site="Scotland (United Kingdom)"/>
<marker lat="40.983" lon="-102.25" site="Julesburg (Colorado, United States)"/>
<marker lat="35.0" lon="105.0" site="China (China)"/>
<marker lat="35.0" lon="-98.0" site="Oklahoma (Oklahoma, United States)"/>
<marker lat="35.0" lon="-93.0" site="Arkansas (Arkansas, United States)"/>
<marker lat="42.633" lon="-71.316" site="Lowell (Massachusetts, United States)"/>
<marker lat="37.55" lon="-77.45" site="Richmond (Virginia, United States)"/>
<marker lat="37.0" lon="-119.0" site="California (California, United States)"/>
<marker lat="44.0" lon="-73.0" site="Vermont (Vermont, United States)"/>
<marker lat="37.35" lon="-77.4" site="Dutch Gap (Virginia, United States)"/>
<marker lat="38.7" lon="-77.483" site="Prince William (Virginia, United States)"/>
<marker lat="37.0" lon="-80.0" site="Virginia (Virginia, United States)"/>
<marker lat="42.466" lon="-79.333" site="Dunkirk (New York, United States)"/>
<marker lat="37.66" lon="-88.55" site="Tennessee River (United States)"/>
<marker lat="34.883" lon="-88.1" site="Eastport (Mississippi, United States)"/>
<marker lat="35.216" lon="-80.833" site="Charlotte (North Carolina, United States)"/>
<marker lat="19.416" lon="-99.166" site="Mexico (Mexico, Mexico)"/>
<marker lat="46.0" lon="2.0" site="France (France)"/>
<marker lat="30.733" lon="-89.483" site="Savannah (Mississippi, United States)"/>
<marker lat="30.216" lon="-88.916" site="Ship Island (Mississippi, United States)"/>
<marker lat="36.816" lon="-79.4" site="Pittsylvania (Virginia, United States)"/>
<marker lat="37.0" lon="-78.683" site="Charlotte county (Virginia, United States)"/>
</markers>