<markers>
<marker lat="42.416" lon="-71.1" site="Medford (Massachusetts, United States)"/>
<marker lat="42.4" lon="-71.15" site="Menotomy (Massachusetts, United States)"/>
<marker lat="42.366" lon="-71.183" site="Watertown (Massachusetts, United States)"/>
<marker lat="42.45" lon="-71.35" site="Concord (Massachusetts, United States)"/>
<marker lat="42.366" lon="-71.233" site="Waltham (Massachusetts, United States)"/>
<marker lat="42.25" lon="-71.833" site="Massachusetts (Massachusetts, United States)"/>
<marker lat="42.566" lon="-70.916" site="Danvers (Massachusetts, United States)"/>
<marker lat="42.25" lon="-71.8" site="Worcester (Massachusetts, United States)"/>
<marker lat="42.83" lon="-76.8" site="Newtown (New York, United States)"/>
<marker lat="42.66" lon="-71.666" site="William Hill (Massachusetts, United States)"/>
<marker lat="42.216" lon="-70.816" site="James Hill (Massachusetts, United States)"/>
<marker lat="42.316" lon="-71.83" site="Roxbury, Mass. (Massachusetts, United States)"/>
<marker lat="38.0" lon="-98.0" site="United States (United States)"/>
<marker lat="42.516" lon="-70.883" site="Salem (Massachusetts, United States)"/>
<marker lat="42.633" lon="-71.9" site="Ashburnham (Massachusetts, United States)"/>
<marker lat="42.4" lon="-71.15" site="Spy Pond (Massachusetts, United States)"/>
<marker lat="42.483" lon="-71.266" site="Bedford, Mass. (Massachusetts, United States)"/>
<marker lat="42.55" lon="-71.266" site="Billerica (Massachusetts, United States)"/>
<marker lat="42.416" lon="-71.133" site="Mystick River (Massachusetts, United States)"/>
<marker lat="44.0" lon="-71.666" site="New Hampshire (New Hampshire, United States)"/>
<marker lat="38.1" lon="-82.6" site="Louisa, Ky. (Kentucky, United States)"/>
<marker lat="42.333" lon="-72.583" site="Hadley, Ma. (Massachusetts, United States)"/>
<marker lat="42.466" lon="-70.95" site="Lynn (Massachusetts, United States)"/>
<marker lat="42.383" lon="-71.416" site="Sudbury, Mass. (Massachusetts, United States)"/>
<marker lat="42.733" lon="-71.766" site="Mason, N. H. (New Hampshire, United States)"/>
<marker lat="42.533" lon="-71.33" site="Lynnfield (Massachusetts, United States)"/>
<marker lat="42.583" lon="-71.716" site="Lunenburg, Ma. (Massachusetts, United States)"/>
<marker lat="45.55" lon="-123.166" site="David Hill (Oregon, United States)"/>
<marker lat="42.466" lon="-71.1" site="Stoneham (Massachusetts, United States)"/>
<marker lat="42.1" lon="-72.583" site="Springfield (Massachusetts, United States)"/>
<marker lat="42.35" lon="-71.15" site="Brighton, Mass. (Massachusetts, United States)"/>
<marker lat="42.316" lon="-72.633" site="Northampton (Massachusetts, United States)"/>
<marker lat="42.7" lon="-71.2" site="Meeting House (Massachusetts, United States)"/>
<marker lat="42.283" lon="-71.7" site="Shrewsbury, Mass. (Massachusetts, United States)"/>
<marker lat="42.283" lon="-71.66" site="Dorchester, Mass. (Massachusetts, United States)"/>
<marker lat="42.85" lon="-70.916" site="Amesbury (Massachusetts, United States)"/>
<marker lat="42.316" lon="-71.116" site="Brookline (Massachusetts, United States)"/>
<marker lat="44.466" lon="-73.2" site="Burlington (Vermont, United States)"/>
<marker lat="42.716" lon="-71.2" site="Mystic Pond (Massachusetts, United States)"/>
<marker lat="38.883" lon="-77.33" site="Washington (United States)"/>
<marker lat="42.6" lon="-71.566" site="Groton (Massachusetts, United States)"/>
<marker lat="38.5" lon="-85.8" site="Samuel Hill (Kentucky, United States)"/>
<marker lat="42.233" lon="-71.166" site="Dedham (Massachusetts, United States)"/>
<marker lat="42.816" lon="-72.5" site="Jaffrey (New Hampshire, United States)"/>
<marker lat="42.566" lon="-71.433" site="Westford (Massachusetts, United States)"/>
<marker lat="39.283" lon="-76.6" site="Baltimore, Md. (Maryland, United States)"/>
<marker lat="42.5" lon="-71.66" site="The Common (Massachusetts, United States)"/>
<marker lat="42.766" lon="-70.883" site="Newbury, Mass. (Massachusetts, United States)"/>
<marker lat="42.8" lon="-70.866" site="Newburyport (Massachusetts, United States)"/>
<marker lat="42.5" lon="-70.85" site="Marblehead (Massachusetts, United States)"/>
<marker lat="35.5" lon="-80.0" site="North Carolina (North Carolina, United States)"/>
<marker lat="42.366" lon="-71.5" site="Charles (Massachusetts, United States)"/>
<marker lat="42.583" lon="-71.8" site="Fitchburg (Massachusetts, United States)"/>
<marker lat="41.75" lon="-72.683" site="Hartford (Connecticut, United States)"/>
<marker lat="40.95" lon="-77.833" site="School House (Pennsylvania, United States)"/>
<marker lat="41.766" lon="-75.7" site="Harford (Pennsylvania, United States)"/>
<marker lat="42.333" lon="-70.966" site="Boston Harbor (Massachusetts, United States)"/>
<marker lat="42.5" lon="-71.183" site="Burlington (Massachusetts, United States)"/>
<marker lat="42.35" lon="-71.1" site="Cambridgeport (Massachusetts, United States)"/>
<marker lat="35.983" lon="-83.766" site="Mary Hill (Tennessee, United States)"/>
<marker lat="57.0" lon="-4.0" site="Scotland (United Kingdom)"/>
<marker lat="37.216" lon="-77.4" site="Petersburg, Va. (Virginia, United States)"/>
<marker lat="40.833" lon="-76.0" site="Pennsylvania (Pennsylvania, United States)"/>
<marker lat="29.683" lon="-91.216" site="Berwick City (Louisiana, United States)"/>
<marker lat="42.75" lon="-72.0" site="Rindge (New Hampshire, United States)"/>
<marker lat="42.383" lon="-71.33" site="Chelsea (Massachusetts, United States)"/>
<marker lat="32.766" lon="-79.916" site="Charleston (South Carolina, United States)"/>
<marker lat="42.333" lon="-71.55" site="Marlboro, Mass. (Massachusetts, United States)"/>
<marker lat="38.966" lon="-76.483" site="Annapolis (Maryland, United States)"/>
<marker lat="42.266" lon="-71.616" site="Westborough (Massachusetts, United States)"/>
<marker lat="42.16" lon="-77.316" site="Addison Hill (New York, United States)"/>
<marker lat="43.816" lon="-70.233" site="North Yarmouth (Maine, United States)"/>
<marker lat="45.0" lon="-69.0" site="Maine (Maine, United States)"/>
<marker lat="42.55" lon="-71.633" site="Benjamin Hill (Massachusetts, United States)"/>
<marker lat="36.833" lon="-76.283" site="Norfolk (Virginia, United States)"/>
<marker lat="41.283" lon="-70.83" site="Nantucket (Massachusetts, United States)"/>
<marker lat="41.65" lon="-72.33" site="John Brook (Connecticut, United States)"/>
<marker lat="41.75" lon="-70.483" site="Sandwich, Mass. (Massachusetts, United States)"/>
<marker lat="36.83" lon="-78.3" site="Louisburg (North Carolina, United States)"/>
<marker lat="60.0" lon="-96.0" site="Canada (Canada)"/>
<marker lat="42.866" lon="-71.95" site="Peterboro (New Hampshire, United States)"/>
<marker lat="42.333" lon="-71.833" site="Worcester County (Massachusetts, United States)"/>
<marker lat="34.0" lon="-80.0" site="South Carolina (South Carolina, United States)"/>
<marker lat="41.9" lon="-71.83" site="Taunton (Massachusetts, United States)"/>
<marker lat="42.333" lon="-71.33" site="Dorchester Heights (Massachusetts, United States)"/>
<marker lat="42.583" lon="-72.216" site="Athol (Massachusetts, United States)"/>
<marker lat="41.1" lon="-74.33" site="Spring Valley, N. Y. (New York, United States)"/>
<marker lat="41.983" lon="-70.85" site="Halifax (Massachusetts, United States)"/>
<marker lat="43.2" lon="-71.533" site="Concord, N. H. (New Hampshire, United States)"/>
<marker lat="42.366" lon="-71.3" site="Weston (Massachusetts, United States)"/>
<marker lat="42.366" lon="-71.33" site="Noddle's Island (Massachusetts, United States)"/>
<marker lat="35.216" lon="-80.833" site="Charlotte (North Carolina, United States)"/>
<marker lat="42.666" lon="-72.183" site="Royalston (Massachusetts, United States)"/>
<marker lat="43.183" lon="-70.866" site="Dover, N. H. (New Hampshire, United States)"/>
<marker lat="42.516" lon="-71.75" site="Leominster (Massachusetts, United States)"/>
<marker lat="42.533" lon="-72.383" site="Wendell (Massachusetts, United States)"/>
<marker lat="42.583" lon="-70.8" site="Alewife Brook (Massachusetts, United States)"/>
<marker lat="42.35" lon="-71.35" site="Wayland (Massachusetts, United States)"/>
<marker lat="42.533" lon="-71.5" site="Littleton (Massachusetts, United States)"/>
<marker lat="33.85" lon="-94.33" site="Cornhill (Arkansas, United States)"/>
<marker lat="39.0" lon="-76.833" site="Maryland (Maryland, United States)"/>
<marker lat="41.933" lon="-75.6" site="Susquehanna, Pa. (Pennsylvania, United States)"/>
<marker lat="42.733" lon="-72.516" site="Charles Hill (Vermont, United States)"/>
<marker lat="40.0" lon="-75.0" site="New Jersey (New Jersey, United States)"/>
<marker lat="51.5" lon="-0.166" site="St. John's church (United Kingdom)"/>
<marker lat="42.75" lon="-71.466" site="Nashua (New Hampshire, United States)"/>
<marker lat="42.933" lon="-70.833" site="Hampton, N. H. (New Hampshire, United States)"/>
<marker lat="42.433" lon="-71.5" site="Stowe, Mass. (Massachusetts, United States)"/>
<marker lat="35.1" lon="-77.33" site="New Bern (North Carolina, United States)"/>
<marker lat="42.2" lon="-72.1" site="Brookfield, Mass. (Massachusetts, United States)"/>
<marker lat="41.516" lon="-72.66" site="Norwich (Connecticut, United States)"/>
<marker lat="41.483" lon="-71.3" site="Newport (Rhode Island, United States)"/>
<marker lat="37.233" lon="-76.5" site="Yorktown (Virginia, United States)"/>
<marker lat="40.883" lon="-76.783" site="Northumberland, Pa. (Pennsylvania, United States)"/>
<marker lat="34.25" lon="-85.15" site="Rome, Ga. (Georgia, United States)"/>
<marker lat="43.65" lon="-70.25" site="Portland (Maine, United States)"/>
<marker lat="42.5" lon="-71.333" site="Middlesex County (Massachusetts, United States)"/>
<marker lat="44.266" lon="-90.55" site="Circle Hill (Wisconsin, United States)"/>
<marker lat="38.816" lon="-77.516" site="Bull Run, Va. (Virginia, United States)"/>
<marker lat="36.483" lon="-87.85" site="Fort Donelson (Tennessee, United States)"/>
<marker lat="42.1" lon="-72.316" site="Monson (Massachusetts, United States)"/>
<marker lat="53.0" lon="-2.0" site="England (United Kingdom)"/>
<marker lat="39.66" lon="-81.4" site="Elizabeth Hill (West Virginia, United States)"/>
<marker lat="31.5" lon="34.75" site="Israel (Israel)"/>
<marker lat="41.666" lon="-71.5" site="Rhode Island (Rhode Island, United States)"/>
<marker lat="42.266" lon="-71.416" site="Framingham (Massachusetts, United States)"/>
<marker lat="38.2" lon="-84.866" site="Frankfort (Kentucky, United States)"/>
<marker lat="39.333" lon="-78.5" site="Bunker Hill (West Virginia, United States)"/>
<marker lat="41.833" lon="-72.833" site="Connecticut (Connecticut, United States)"/>
<marker lat="41.85" lon="-72.633" site="Windsor, Conn. (Connecticut, United States)"/>
<marker lat="43.416" lon="-73.7" site="Fort William Henry, New York (New York, United States)"/>
<marker lat="52.45" lon="6.916" site="Halle (Saxony-Anhalt, Germany)"/>
<marker lat="42.216" lon="-71.433" site="Vine Brook (Massachusetts, United States)"/>
<marker lat="42.666" lon="-70.833" site="Essex County (Massachusetts, United States)"/>
<marker lat="43.466" lon="-72.383" site="Windsor, Vt. (Vermont, United States)"/>
<marker lat="35.416" lon="-86.3" site="Daniel Hill (Tennessee, United States)"/>
<marker lat="42.66" lon="-71.316" site="Wrentham (Massachusetts, United States)"/>
<marker lat="40.916" lon="-73.883" site="Yonkers (New York, United States)"/>
<marker lat="42.683" lon="-72.33" site="Winchendon (Massachusetts, United States)"/>
<marker lat="36.983" lon="-93.66" site="Bull Creek (Missouri, United States)"/>
<marker lat="42.333" lon="-71.5" site="South Boston (Massachusetts, United States)"/>
<marker lat="42.533" lon="-71.9" site="Westminster (Massachusetts, United States)"/>
<marker lat="40.483" lon="-74.383" site="New Market (New Jersey, United States)"/>
<marker lat="42.483" lon="-71.433" site="Acton, Mass. (Massachusetts, United States)"/>
<marker lat="52.0" lon="20.0" site="Poland (Poland)"/>
<marker lat="42.616" lon="-73.116" site="Adams (Massachusetts, United States)"/>
<marker lat="41.933" lon="-71.283" site="Attleboro, Mass. (Massachusetts, United States)"/>
<marker lat="42.233" lon="-71.9" site="Leicester, Mass. (Massachusetts, United States)"/>
<marker lat="42.75" lon="-71.433" site="Hudson (New Hampshire, United States)"/>
<marker lat="43.183" lon="-71.666" site="Hopkinton (New Hampshire, United States)"/>
<marker lat="51.5" lon="-0.166" site="St. Peter's church (United Kingdom)"/>
<marker lat="44.2" lon="-71.9" site="Lisbon, Grafton County, New Hampshire (New Hampshire, United States)"/>
<marker lat="38.633" lon="-83.733" site="Maysville, Ky. (Kentucky, United States)"/>
<marker lat="28.983" lon="50.833" site="Bushire (Iran)"/>
<marker lat="45.466" lon="-92.433" site="Boston Bay (Wisconsin, United States)"/>
<marker lat="42.6" lon="-70.65" site="Glocester (Massachusetts, United States)"/>
<marker lat="42.233" lon="-71.83" site="Milton, Mass. (Massachusetts, United States)"/>
<marker lat="41.416" lon="-71.5" site="Alewife Brook (Rhode Island, United States)"/>
<marker lat="32.183" lon="-84.133" site="Andersonville, Ga. (Georgia, United States)"/>
<marker lat="37.233" lon="-80.2" site="Roanoke (United States)"/>
<marker lat="42.65" lon="-71.416" site="Abrams Hill (Massachusetts, United States)"/>
<marker lat="42.566" lon="-70.766" site="Manchester (Massachusetts, United States)"/>
<marker lat="43.1" lon="-73.85" site="Saratoga (New York, United States)"/>
<marker lat="42.2" lon="-71.683" site="Grafton (Massachusetts, United States)"/>
<marker lat="40.883" lon="-73.966" site="Englewood (New Jersey, United States)"/>
<marker lat="41.85" lon="-88.3" site="Batavia (Illinois, United States)"/>
<marker lat="44.116" lon="-69.233" site="Warren, Me. (Maine, United States)"/>
<marker lat="43.0" lon="-75.0" site="New York State (New York, United States)"/>
<marker lat="18.35" lon="-64.933" site="Saint Thomas"/>
<marker lat="42.583" lon="-71.2" site="Chelmsford, Mass. (Massachusetts, United States)"/>
<marker lat="44.2" lon="-71.4" site="Saco River (United States)"/>
<marker lat="42.283" lon="-71.35" site="Natick (Massachusetts, United States)"/>
<marker lat="42.85" lon="-72.55" site="Brattleboro (Vermont, United States)"/>
<marker lat="42.35" lon="-71.5" site="Boston (Massachusetts, United States)"/>
<marker lat="33.416" lon="-87.233" site="Betty Hill (Alabama, United States)"/>
<marker lat="37.316" lon="-77.266" site="City Point (Virginia, United States)"/>
<marker lat="31.883" lon="-81.183" site="Fort McAllister (Georgia, United States)"/>
<marker lat="42.0" lon="-81.0" site="Lake Erie (United States)"/>
<marker lat="42.883" lon="-78.866" site="Buffalo, N. Y. (New York, United States)"/>
<marker lat="33.383" lon="-86.3" site="Kings Chapel (Alabama, United States)"/>
<marker lat="42.316" lon="-70.933" site="Gallop's Island (Massachusetts, United States)"/>
<marker lat="42.133" lon="-71.966" site="Charlton, Mass. (Massachusetts, United States)"/>
<marker lat="42.2" lon="-71.216" site="West Dedham, Mass. (Massachusetts, United States)"/>
<marker lat="39.6" lon="-77.816" site="Williamsport (Maryland, United States)"/>
<marker lat="42.116" lon="-72.2" site="Brimfield (Massachusetts, United States)"/>
<marker lat="42.216" lon="-71.0" site="Braintree (Massachusetts, United States)"/>
<marker lat="42.683" lon="-71.133" site="North Andover (Massachusetts, United States)"/>
<marker lat="39.816" lon="-77.283" site="Black Horse Tavern (Pennsylvania, United States)"/>
<marker lat="29.95" lon="-90.66" site="New Orleans (Louisiana, United States)"/>
<marker lat="43.83" lon="-79.5" site="Manchester (New York, United States)"/>
<marker lat="1.0" lon="-40.0" site="Atlantic Ocean"/>
<marker lat="39.416" lon="-86.416" site="Martinsville, Morgan County, Indiana (Indiana, United States)"/>
<marker lat="39.333" lon="-80.16" site="Grafton, W. Va. (West Virginia, United States)"/>
<marker lat="51.75" lon="-0.8" site="Buckingham (United Kingdom)"/>
<marker lat="51.583" lon="0.55" site="Essex (United Kingdom)"/>
<marker lat="38.883" lon="-77.416" site="Chantilly (Virginia, United States)"/>
<marker lat="54.983" lon="-1.583" site="Newcastle (United Kingdom)"/>
<marker lat="51.66" lon="-1.25" site="Hampshire (United Kingdom)"/>
<marker lat="34.266" lon="-81.616" site="Newberry, S. C. (South Carolina, United States)"/>
<marker lat="43.66" lon="-70.75" site="Portsmouth (New Hampshire, United States)"/>
</markers>