<markers>
<marker lat="32.0" lon="-84.0" site="Georgia (Georgia, United States)"/>
<marker lat="34.566" lon="-84.933" site="Resaca (Georgia, United States)"/>
<marker lat="41.833" lon="-72.833" site="Connecticut (Connecticut, United States)"/>
<marker lat="37.0" lon="-80.0" site="Virginia (Virginia, United States)"/>
<marker lat="35.5" lon="-80.0" site="North Carolina (North Carolina, United States)"/>
<marker lat="38.0" lon="-98.0" site="United States (United States)"/>
<marker lat="37.55" lon="-77.45" site="Richmond (Virginia, United States)"/>
<marker lat="33.733" lon="-84.383" site="Atlanta (Georgia, United States)"/>
<marker lat="42.25" lon="-71.833" site="Massachusetts (Massachusetts, United States)"/>
<marker lat="35.866" lon="-76.733" site="Plymouth, N. C. (North Carolina, United States)"/>
<marker lat="37.516" lon="-76.783" site="West Point (Virginia, United States)"/>
<marker lat="38.16" lon="-77.366" site="Milford, Va. (Virginia, United States)"/>
<marker lat="37.333" lon="-77.266" site="Bermuda Hundred (Virginia, United States)"/>
<marker lat="31.0" lon="-92.0" site="Louisiana (Louisiana, United States)"/>
<marker lat="34.766" lon="-84.966" site="Dalton, Ga. (Georgia, United States)"/>
<marker lat="34.633" lon="-77.95" site="Washington, N. C. (North Carolina, United States)"/>
<marker lat="42.333" lon="-76.833" site="Havana, N. Y. (New York, United States)"/>
<marker lat="39.583" lon="-75.566" site="Fort Delaware (Delaware, United States)"/>
<marker lat="33.95" lon="-84.55" site="Marietta (Georgia, United States)"/>
<marker lat="37.233" lon="-80.2" site="Roanoke (United States)"/>
<marker lat="39.0" lon="-76.833" site="Maryland (Maryland, United States)"/>
<marker lat="35.333" lon="-83.133" site="Rocky Face Ridge (North Carolina, United States)"/>
<marker lat="39.366" lon="-87.0" site="Bowling Green (Indiana, United States)"/>
<marker lat="33.0" lon="-87.0" site="Alabama (Alabama, United States)"/>
<marker lat="37.366" lon="-77.5" site="Chesterfield (Virginia, United States)"/>
<marker lat="38.6" lon="-78.783" site="Broadway (Virginia, United States)"/>
<marker lat="38.2" lon="-77.583" site="Spottsylvania (Virginia, United States)"/>
<marker lat="29.566" lon="-94.933" site="Galveston Bay (Texas, United States)"/>
<marker lat="37.516" lon="-77.383" site="Rocketts (Virginia, United States)"/>
<marker lat="36.16" lon="-76.45" site="Bluff Point (North Carolina, United States)"/>
<marker lat="53.0" lon="-2.0" site="England (United Kingdom)"/>
<marker lat="37.766" lon="-122.416" site="San Francisco (California, United States)"/>
<marker lat="38.483" lon="-78.416" site="Rapidan (Virginia, United States)"/>
<marker lat="42.633" lon="-71.316" site="Lowell (Massachusetts, United States)"/>
<marker lat="34.65" lon="-84.116" site="Etowah (Georgia, United States)"/>
<marker lat="37.0" lon="-119.0" site="California (California, United States)"/>
<marker lat="35.5" lon="-85.0" site="Tennessee (Tennessee, United States)"/>
<marker lat="38.216" lon="-77.733" site="Po River (Virginia, United States)"/>
<marker lat="32.866" lon="-85.183" site="West Point (Georgia, United States)"/>
<marker lat="38.266" lon="-77.633" site="Ny River (Virginia, United States)"/>
<marker lat="41.75" lon="-72.683" site="Hartford (Connecticut, United States)"/>
<marker lat="45.0" lon="-90.0" site="Wisconsin (Wisconsin, United States)"/>
<marker lat="34.5" lon="-84.95" site="Calhoun, Ga. (Georgia, United States)"/>
<marker lat="37.383" lon="-77.6" site="Chesterfield (Virginia, United States)"/>
<marker lat="37.75" lon="-77.366" site="Hanover Court House (Virginia, United States)"/>
<marker lat="42.83" lon="-77.916" site="Stannard (New York, United States)"/>
<marker lat="32.366" lon="-80.683" site="Port Royal (South Carolina, United States)"/>
<marker lat="32.3" lon="-99.35" site="Belle Plain (Texas, United States)"/>
<marker lat="34.55" lon="-85.0" site="Sugar Valley (Georgia, United States)"/>
<marker lat="43.7" lon="-72.416" site="West Hartford, Vt. (Vermont, United States)"/>
<marker lat="36.583" lon="-79.383" site="Danville (Virginia, United States)"/>
<marker lat="34.233" lon="-80.6" site="Camden, S. C. (South Carolina, United States)"/>
<marker lat="40.283" lon="-84.15" site="Sydney (Ohio, United States)"/>
<marker lat="37.2" lon="-78.45" site="Prince Edward (Virginia, United States)"/>
<marker lat="41.833" lon="-73.316" site="Cornwall, Conn. (Connecticut, United States)"/>
</markers>