<markers>
<marker lat="33.733" lon="-84.383" site="Atlanta (Georgia, United States)"/>
<marker lat="38.0" lon="-98.0" site="United States (United States)"/>
<marker lat="32.0" lon="-84.0" site="Georgia (Georgia, United States)"/>
<marker lat="35.5" lon="-85.0" site="Tennessee (Tennessee, United States)"/>
<marker lat="33.516" lon="-84.35" site="Jonesboro (Georgia, United States)"/>
<marker lat="36.15" lon="-82.816" site="Greenville, Tenn. (Tennessee, United States)"/>
<marker lat="40.7" lon="-74.0" site="New York (New York, United States)"/>
<marker lat="43.166" lon="-78.766" site="Niagara County (New York, United States)"/>
<marker lat="37.416" lon="-77.45" site="Drewry's Bluff (Virginia, United States)"/>
<marker lat="35.0" lon="-93.0" site="Arkansas (Arkansas, United States)"/>
<marker lat="37.55" lon="-77.45" site="Richmond (Virginia, United States)"/>
<marker lat="32.866" lon="-85.183" site="West Point (Georgia, United States)"/>
<marker lat="46.0" lon="2.0" site="France (France)"/>
<marker lat="47.233" lon="-1.583" site="Nantes (France)"/>
<marker lat="34.366" lon="-91.133" site="St. Charles, Ark. (Arkansas, United States)"/>
<marker lat="42.916" lon="-76.55" site="Auburn, N. Y. (New York, United States)"/>
<marker lat="39.0" lon="-76.833" site="Maryland (Maryland, United States)"/>
<marker lat="36.216" lon="-82.683" site="Rheatown (Tennessee, United States)"/>
<marker lat="40.85" lon="-76.783" site="Simsbury (Pennsylvania, United States)"/>
<marker lat="38.2" lon="-78.883" site="Piedmont, Va. (Virginia, United States)"/>
<marker lat="36.66" lon="-79.783" site="Greensboro (North Carolina, United States)"/>
<marker lat="33.0" lon="-87.0" site="Alabama (Alabama, United States)"/>
<marker lat="37.316" lon="-77.266" site="City Point (Virginia, United States)"/>
<marker lat="31.6" lon="-85.33" site="Fort Gaines (Georgia, United States)"/>
<marker lat="41.616" lon="-71.2" site="Tiverton (Rhode Island, United States)"/>
<marker lat="43.83" lon="-79.5" site="Manchester (New York, United States)"/>
<marker lat="37.6" lon="-76.566" site="Middlesex County (Virginia, United States)"/>
<marker lat="32.133" lon="-85.583" site="Pea creek (United States)"/>
<marker lat="33.95" lon="-91.66" site="White River (Arkansas, United States)"/>
<marker lat="41.65" lon="-72.33" site="John Brook (Connecticut, United States)"/>
<marker lat="34.433" lon="-82.85" site="Savannah River (United States)"/>
<marker lat="37.333" lon="-77.266" site="Bermuda Hundred (Virginia, United States)"/>
<marker lat="54.583" lon="-5.916" site="Belfast (United Kingdom)"/>
<marker lat="39.3" lon="-76.33" site="Kent County (Maryland, United States)"/>
<marker lat="31.0" lon="-92.0" site="Louisiana (Louisiana, United States)"/>
<marker lat="44.516" lon="33.583" site="Balaklava (Ukraine)"/>
<marker lat="30.733" lon="-87.783" site="Fish (Alabama, United States)"/>
<marker lat="60.0" lon="-96.0" site="Canada (Canada)"/>
<marker lat="34.733" lon="-92.283" site="Little Rock (Arkansas, United States)"/>
<marker lat="35.5" lon="-80.0" site="North Carolina (North Carolina, United States)"/>
<marker lat="34.0" lon="-80.0" site="South Carolina (South Carolina, United States)"/>
<marker lat="39.316" lon="-77.733" site="Harper's Ferry (West Virginia, United States)"/>
<marker lat="36.25" lon="-83.83" site="Bull's Gap (Tennessee, United States)"/>
<marker lat="43.33" lon="-76.133" site="Syracuse (New York, United States)"/>
<marker lat="42.333" lon="-76.833" site="Havana, N. Y. (New York, United States)"/>
<marker lat="44.833" lon="-0.566" site="Bordeaux (France)"/>
<marker lat="36.283" lon="-82.466" site="Jonesboro (Tennessee, United States)"/>
<marker lat="37.366" lon="-77.66" site="Charles City (Virginia, United States)"/>
<marker lat="37.0" lon="-80.0" site="Virginia (Virginia, United States)"/>
<marker lat="56.0" lon="10.0" site="Denmark (Denmark)"/>
<marker lat="31.416" lon="-86.0" site="Coffee (Alabama, United States)"/>
<marker lat="34.683" lon="-91.3" site="Clarendon, Ark. (Arkansas, United States)"/>
<marker lat="37.133" lon="-78.66" site="Nottoway (Virginia, United States)"/>
</markers>