<markers>
<marker lat="38.883" lon="-77.33" site="Washington (United States)"/>
<marker lat="37.0" lon="-80.0" site="Virginia (Virginia, United States)"/>
<marker lat="38.3" lon="-77.45" site="Fredericksburg, Va. (Virginia, United States)"/>
<marker lat="39.816" lon="-77.216" site="Gettysburg (Pennsylvania, United States)"/>
<marker lat="38.0" lon="-98.0" site="United States (United States)"/>
<marker lat="37.216" lon="-77.4" site="Petersburg, Va. (Virginia, United States)"/>
<marker lat="32.283" lon="-90.183" site="Jackson (Mississippi, United States)"/>
<marker lat="38.3" lon="-77.633" site="Chancellorsville (Virginia, United States)"/>
<marker lat="38.866" lon="-77.1" site="Arlington (Virginia, United States)"/>
<marker lat="39.316" lon="-77.733" site="Harper's Ferry (West Virginia, United States)"/>
<marker lat="37.55" lon="-77.45" site="Richmond (Virginia, United States)"/>
<marker lat="39.0" lon="-76.833" site="Maryland (Maryland, United States)"/>
<marker lat="19.416" lon="-99.166" site="Mexico (Mexico, Mexico)"/>
<marker lat="30.0" lon="-100.0" site="Texas (Texas, United States)"/>
<marker lat="53.0" lon="-2.0" site="England (United Kingdom)"/>
<marker lat="38.8" lon="-77.33" site="Alexandria (Virginia, United States)"/>
<marker lat="40.833" lon="-76.0" site="Pennsylvania (Pennsylvania, United States)"/>
<marker lat="37.516" lon="-76.783" site="West Point (Virginia, United States)"/>
<marker lat="39.45" lon="-77.733" site="Sharpsburg (Maryland, United States)"/>
<marker lat="39.0" lon="-80.0" site="West Virginia (West Virginia, United States)"/>
<marker lat="37.783" lon="-79.433" site="Lexington, Va. (Virginia, United States)"/>
<marker lat="38.833" lon="-77.416" site="Centreville (Virginia, United States)"/>
<marker lat="38.133" lon="-78.183" site="Gordonsville (Virginia, United States)"/>
<marker lat="39.283" lon="-76.6" site="Baltimore, Md. (Maryland, United States)"/>
<marker lat="39.183" lon="-78.15" site="Winchester, Va. (Virginia, United States)"/>
<marker lat="38.466" lon="-77.983" site="Culpeper, Va. (Virginia, United States)"/>
<marker lat="38.816" lon="-77.516" site="Bull Run, Va. (Virginia, United States)"/>
<marker lat="38.233" lon="-78.1" site="Orange Court House (Virginia, United States)"/>
<marker lat="37.333" lon="-77.966" site="Amelia Court House (Virginia, United States)"/>
<marker lat="39.4" lon="-77.4" site="Frederick, Md. (Maryland, United States)"/>
<marker lat="39.6" lon="-77.816" site="Williamsport (Maryland, United States)"/>
<marker lat="23.0" lon="-102.0" site="Mexico (Mexico)"/>
<marker lat="36.583" lon="-79.383" site="Danville (Virginia, United States)"/>
<marker lat="37.4" lon="-79.133" site="Lynchburg (Virginia, United States)"/>
<marker lat="19.333" lon="-96.666" site="Vera Cruz (Veracruz, Mexico)"/>
<marker lat="37.583" lon="-77.1" site="Tunstall (Virginia, United States)"/>
<marker lat="37.6" lon="-77.366" site="Mechanicsville (Virginia, United States)"/>
<marker lat="38.133" lon="-79.66" site="Staunton, Va. (Virginia, United States)"/>
<marker lat="32.0" lon="-84.0" site="Georgia (Georgia, United States)"/>
<marker lat="32.766" lon="-79.916" site="Charleston (South Carolina, United States)"/>
<marker lat="37.4" lon="-78.816" site="Appomattox (Virginia, United States)"/>
<marker lat="34.0" lon="-80.0" site="South Carolina (South Carolina, United States)"/>
<marker lat="37.133" lon="-77.616" site="Five Forks (Virginia, United States)"/>
<marker lat="39.45" lon="-77.95" site="Martinsburg (West Virginia, United States)"/>
<marker lat="38.7" lon="-77.783" site="Warrenton (Virginia, United States)"/>
<marker lat="32.83" lon="-81.1" site="Savannah (Georgia, United States)"/>
<marker lat="39.633" lon="-77.716" site="Hagerstown (Maryland, United States)"/>
<marker lat="37.3" lon="-78.383" site="Farmville (Virginia, United States)"/>
<marker lat="37.0" lon="-85.0" site="Kentucky (Kentucky, United States)"/>
<marker lat="39.816" lon="-77.216" site="Culp's Hill (Pennsylvania, United States)"/>
<marker lat="37.516" lon="-76.783" site="York (Virginia, United States)"/>
<marker lat="25.9" lon="-97.483" site="Fort Taylor (Texas, United States)"/>
<marker lat="37.233" lon="-76.5" site="Yorktown (Virginia, United States)"/>
<marker lat="38.15" lon="-76.833" site="Stratford, Westmoreland co., Va. (Virginia, United States)"/>
<marker lat="39.333" lon="-77.716" site="Maryland Heights (Maryland, United States)"/>
<marker lat="38.683" lon="-77.9" site="Waterloo, Va. (Virginia, United States)"/>
<marker lat="35.3" lon="-88.166" site="Cerro Gordo, Tenn. (Tennessee, United States)"/>
<marker lat="39.816" lon="-77.216" site="Cemetery Hill (Pennsylvania, United States)"/>
<marker lat="38.16" lon="-78.466" site="Charlottesville (Virginia, United States)"/>
<marker lat="39.933" lon="-77.65" site="Chambersburg, Pa. (Pennsylvania, United States)"/>
<marker lat="39.866" lon="-77.733" site="Cashtown (Pennsylvania, United States)"/>
<marker lat="39.566" lon="-76.983" site="Westminster (Maryland, United States)"/>
<marker lat="35.5" lon="-80.0" site="North Carolina (North Carolina, United States)"/>
<marker lat="37.7" lon="-77.616" site="Chickahominy (Virginia, United States)"/>
<marker lat="41.816" lon="-71.4" site="Providence, R. I. (Rhode Island, United States)"/>
<marker lat="32.866" lon="-85.183" site="West Point (Georgia, United States)"/>
<marker lat="38.716" lon="-77.533" site="Bristoe (Virginia, United States)"/>
<marker lat="42.25" lon="-71.833" site="Massachusetts (Massachusetts, United States)"/>
<marker lat="38.866" lon="-78.1" site="Rappahannock (Virginia, United States)"/>
<marker lat="28.0" lon="-82.0" site="Florida (Florida, United States)"/>
<marker lat="39.166" lon="-91.866" site="Mexico, Mo. (Missouri, United States)"/>
<marker lat="37.75" lon="-77.466" site="Ashland (Virginia, United States)"/>
<marker lat="40.2" lon="-77.183" site="Carlisle, Pa. (Pennsylvania, United States)"/>
<marker lat="39.566" lon="-80.433" site="Seven Pines (West Virginia, United States)"/>
<marker lat="38.6" lon="-79.933" site="Cheat Mountain (West Virginia, United States)"/>
<marker lat="37.266" lon="-76.7" site="Williamsburg (Virginia, United States)"/>
<marker lat="40.0" lon="-80.833" site="Ohio (Ohio, United States)"/>
<marker lat="32.35" lon="-90.866" site="Vicksburg (Mississippi, United States)"/>
<marker lat="39.566" lon="-77.95" site="Georgetown (West Virginia, United States)"/>
<marker lat="37.75" lon="-77.366" site="Hanover Court House (Virginia, United States)"/>
<marker lat="36.666" lon="-76.916" site="Franklin, Va. (Virginia, United States)"/>
<marker lat="38.466" lon="-77.766" site="Kelly's Ford (Virginia, United States)"/>
<marker lat="34.916" lon="-88.5" site="Waterloo, Ala. (Alabama, United States)"/>
<marker lat="39.816" lon="-77.233" site="Seminary Ridge (Pennsylvania, United States)"/>
<marker lat="32.266" lon="-115.816" site="Chapultepec (Baja Caifornia Norte, Mexico)"/>
<marker lat="39.65" lon="-77.166" site="Taneytown (Maryland, United States)"/>
<marker lat="40.616" lon="-79.616" site="Westmoreland (Pennsylvania, United States)"/>
<marker lat="39.83" lon="-77.65" site="Loudoun (Virginia, United States)"/>
<marker lat="36.833" lon="-76.283" site="Norfolk (Virginia, United States)"/>
<marker lat="39.333" lon="-78.75" site="Romney (West Virginia, United States)"/>
<marker lat="35.5" lon="-85.0" site="Tennessee (Tennessee, United States)"/>
<marker lat="51.5" lon="-0.166" site="London (United Kingdom)"/>
<marker lat="32.366" lon="-86.3" site="Montgomery (Alabama, United States)"/>
<marker lat="37.416" lon="-77.45" site="Drewry's Bluff (Virginia, United States)"/>
<marker lat="39.5" lon="-77.183" site="Beaver Dam Creek, Md. (Maryland, United States)"/>
<marker lat="30.733" lon="-99.216" site="Mason (Texas, United States)"/>
<marker lat="39.216" lon="-78.25" site="Frederick (Virginia, United States)"/>
<marker lat="37.316" lon="-77.266" site="City Point (Virginia, United States)"/>
<marker lat="36.5" lon="-88.0" site="Fort Henry (Tennessee, United States)"/>
<marker lat="39.333" lon="-78.5" site="Bunker Hill (West Virginia, United States)"/>
<marker lat="29.416" lon="-98.483" site="San Antonio (Texas, United States)"/>
<marker lat="38.616" lon="-90.183" site="St. Louis (Missouri, United States)"/>
<marker lat="38.316" lon="-78.166" site="Twymans Mill (Virginia, United States)"/>
<marker lat="40.0" lon="-75.0" site="New Jersey (New Jersey, United States)"/>
<marker lat="37.16" lon="-76.333" site="Hampton (Virginia, United States)"/>
<marker lat="40.266" lon="-76.883" site="Harrisburg, Pa. (Pennsylvania, United States)"/>
<marker lat="37.66" lon="-77.583" site="Dinwiddie Court House (Virginia, United States)"/>
<marker lat="37.183" lon="-78.2" site="Burkeville (Virginia, United States)"/>
<marker lat="39.83" lon="-84.6" site="Hatcher's Run (Ohio, United States)"/>
<marker lat="38.516" lon="-77.6" site="Aquia Creek (Virginia, United States)"/>
<marker lat="37.383" lon="-77.233" site="Malvern Hill (Virginia, United States)"/>
<marker lat="38.416" lon="-77.4" site="Stafford Court House (Virginia, United States)"/>
<marker lat="38.783" lon="-77.6" site="Gainesville (Virginia, United States)"/>
<marker lat="35.6" lon="-88.8" site="Jackson (Tennessee, United States)"/>
<marker lat="40.0" lon="-89.0" site="Illinois (Illinois, United States)"/>
<marker lat="33.0" lon="-90.0" site="Mississippi (Mississippi, United States)"/>
<marker lat="17.75" lon="-92.8" site="Jalapa (Tabasco, Mexico)"/>
<marker lat="30.85" lon="-81.433" site="Cumberland Island (Georgia, United States)"/>
<marker lat="45.766" lon="-116.8" site="Cemetery Ridge (Oregon, United States)"/>
<marker lat="39.383" lon="-84.55" site="Fort Hamilton (Ohio, United States)"/>
<marker lat="38.266" lon="-77.9" site="Verdiersville (Virginia, United States)"/>
<marker lat="38.233" lon="-77.666" site="Todd's Tavern (Virginia, United States)"/>
<marker lat="37.85" lon="-80.85" site="Meadow Bridge (West Virginia, United States)"/>
<marker lat="37.933" lon="-80.833" site="Sewell Mountain (West Virginia, United States)"/>
<marker lat="38.7" lon="-77.7" site="Auburn, Va. (Virginia, United States)"/>
<marker lat="38.316" lon="-77.466" site="Falmouth, Va. (Virginia, United States)"/>
<marker lat="33.0" lon="-87.0" site="Alabama (Alabama, United States)"/>
<marker lat="38.7" lon="-77.83" site="Mount Vernon (Virginia, United States)"/>
<marker lat="38.75" lon="-77.466" site="Manassas, Va. (Virginia, United States)"/>
<marker lat="37.633" lon="-77.45" site="Yellow Tavern (Virginia, United States)"/>
<marker lat="50.716" lon="4.383" site="Waterloo (Belgium)"/>
<marker lat="35.95" lon="-83.916" site="Knoxville (Tennessee, United States)"/>
<marker lat="35.383" lon="-77.983" site="Goldsboro (North Carolina, United States)"/>
<marker lat="57.0" lon="-4.0" site="Scotland (United Kingdom)"/>
<marker lat="37.8" lon="-79.433" site="Rockbridge (Virginia, United States)"/>
<marker lat="39.466" lon="-78.65" site="Valley Mountain (West Virginia, United States)"/>
<marker lat="40.133" lon="-77.716" site="New Bridge (Pennsylvania, United States)"/>
<marker lat="37.7" lon="-84.33" site="Rice Station (Kentucky, United States)"/>
<marker lat="38.666" lon="-98.0" site="Kansas (Kansas, United States)"/>
<marker lat="31.0" lon="-92.0" site="Louisiana (Louisiana, United States)"/>
<marker lat="38.766" lon="-79.966" site="Rich Mountain (West Virginia, United States)"/>
<marker lat="38.983" lon="-78.35" site="Strasburg, Va. (Virginia, United States)"/>
<marker lat="31.933" lon="-85.7" site="Perote, Alabama (Alabama, United States)"/>
<marker lat="38.0" lon="-98.0" site="Missouri (Missouri, United States)"/>
<marker lat="32.75" lon="-79.883" site="Charleston Harbor (South Carolina, United States)"/>
<marker lat="37.0" lon="-119.0" site="California (California, United States)"/>
<marker lat="37.4" lon="-77.3" site="Deep Bottom (Virginia, United States)"/>
<marker lat="38.966" lon="-78.4" site="Fishers Hill (Virginia, United States)"/>
<marker lat="41.216" lon="-111.933" site="Arlington Heights (Utah, United States)"/>
<marker lat="37.0" lon="-76.0" site="Chesapeake Bay (United States)"/>
<marker lat="51.45" lon="5.983" site="America (Netherlands)"/>
<marker lat="37.3" lon="-77.15" site="Westover (Virginia, United States)"/>
<marker lat="37.3" lon="-77.166" site="Harrison's Landing (Virginia, United States)"/>
<marker lat="39.8" lon="-76.983" site="McAllister (Pennsylvania, United States)"/>
<marker lat="37.35" lon="-81.1" site="Princeton, W. Va. (West Virginia, United States)"/>
<marker lat="46.0" lon="2.0" site="France (France)"/>
<marker lat="39.4" lon="-77.65" site="Pleasant Valley (Maryland, United States)"/>
<marker lat="39.0" lon="22.0" site="Greece (Greece)"/>
<marker lat="38.366" lon="-78.66" site="Cedar Mountain (Virginia, United States)"/>
<marker lat="46.383" lon="-90.733" site="High Bridge (Wisconsin, United States)"/>
<marker lat="38.4" lon="-79.566" site="Monterey (Virginia, United States)"/>
<marker lat="38.316" lon="-77.716" site="Wilderness, Va. (Virginia, United States)"/>
<marker lat="38.283" lon="-78.8" site="Port Republic (Virginia, United States)"/>
<marker lat="34.616" lon="-92.3" site="Parker's Store (Arkansas, United States)"/>
<marker lat="50.833" lon="4.333" site="Brussels (Belgium)"/>
<marker lat="37.83" lon="-78.25" site="Laurel Hill, Va. (Virginia, United States)"/>
<marker lat="32.75" lon="-79.85" site="Fort Moultrie (South Carolina, United States)"/>
<marker lat="39.55" lon="-77.883" site="Falling Waters (West Virginia, United States)"/>
<marker lat="37.333" lon="-77.266" site="Bermuda Hundred (Virginia, United States)"/>
<marker lat="36.966" lon="-76.35" site="Hampton Roads (Virginia, United States)"/>
<marker lat="52.683" lon="-2.65" site="Shropshire (United Kingdom)"/>
<marker lat="38.433" lon="-78.866" site="Harrisonburg, Va. (Virginia, United States)"/>
<marker lat="38.183" lon="-80.0" site="Huntersville (West Virginia, United States)"/>
<marker lat="34.416" lon="-78.283" site="White Oak (North Carolina, United States)"/>
<marker lat="35.766" lon="-78.633" site="Raleigh (North Carolina, United States)"/>
<marker lat="44.933" lon="-93.83" site="St. Paul (Minnesota, United States)"/>
<marker lat="39.3" lon="-82.45" site="Creole (Ohio, United States)"/>
<marker lat="51.5" lon="-0.166" site="Waterloo bridge (United Kingdom)"/>
<marker lat="34.366" lon="-106.8" site="Contreras (New Mexico, United States)"/>
<marker lat="37.566" lon="-77.916" site="Powhatan (Virginia, United States)"/>
<marker lat="38.25" lon="-78.33" site="Orange County (Virginia, United States)"/>
<marker lat="33.216" lon="-88.733" site=") (Mississippi, United States)"/>
<marker lat="41.383" lon="-84.116" site="Napoleon (Ohio, United States)"/>
<marker lat="42.633" lon="-85.283" site="Hastings (Michigan, United States)"/>
<marker lat="37.25" lon="-76.483" site="Gloucester Point (Virginia, United States)"/>
<marker lat="38.0" lon="-78.55" site="Hickory Hill, Va. (Virginia, United States)"/>
<marker lat="37.16" lon="-78.883" site="Patrick Henry (Virginia, United States)"/>
<marker lat="38.833" lon="-79.866" site="Beverly (West Virginia, United States)"/>
<marker lat="30.716" lon="-81.483" site="Cumberland Sound (United States)"/>
<marker lat="36.9" lon="-92.483" site="Vera Cruz, Mo. (Missouri, United States)"/>
<marker lat="32.583" lon="-80.916" site="Coosawhatchie, S. C. (South Carolina, United States)"/>
<marker lat="25.5" lon="-101.0" site="Saltillo (Coahuila, Mexico)"/>
<marker lat="38.466" lon="-79.966" site="Valley River (West Virginia, United States)"/>
<marker lat="25.2" lon="-99.833" site="Monterrey (Nuevo Leon, Mexico)"/>
<marker lat="36.716" lon="-76.583" site="Suffolk, Va. (Virginia, United States)"/>
<marker lat="44.516" lon="33.583" site="Balaklava (Ukraine)"/>
<marker lat="39.516" lon="-81.66" site="Matamoras (Ohio, United States)"/>
<marker lat="38.8" lon="-77.2" site="Brook Hill, Va. (Virginia, United States)"/>
<marker lat="35.83" lon="-89.8" site="Germantown (Tennessee, United States)"/>
<marker lat="37.683" lon="-77.233" site="Hanovertown (Virginia, United States)"/>
</markers>