<markers>
<marker lat="41.366" lon="-79.466" site="Venus (Pennsylvania, United States)"/>
<marker lat="55.483" lon="9.45" site="Seest (Denmark)"/>
<marker lat="35.916" lon="-93.6" site="Venus (Arkansas, United States)"/>
<marker lat="30.166" lon="31.1" site="Nile"/>
<marker lat="36.5" lon="-83.6" site="Bacchus (Tennessee, United States)"/>
<marker lat="41.983" lon="-78.266" site="Ceres (New York, United States)"/>
<marker lat="32.316" lon="-85.1" site="Jupiter (Alabama, United States)"/>
<marker lat="37.75" lon="15.0" site="Aetna (Italy)"/>
<marker lat="36.533" lon="-6.3" site="Gades (Spain)"/>
<marker lat="35.5" lon="-89.783" site="Southwind (Tennessee, United States)"/>
<marker lat="33.25" lon="-93.533" site="Mars (Arkansas, United States)"/>
<marker lat="38.0" lon="23.733" site="Athens (Greece)"/>
<marker lat="37.316" lon="13.566" site="Agrigentum (Italy)"/>
<marker lat="39.0" lon="22.0" site="Greece (Greece)"/>
<marker lat="40.833" lon="14.0" site="Cumae (Italy)"/>
<marker lat="20.0" lon="77.0" site="India (India)"/>
<marker lat="35.0" lon="38.0" site="Syria (Syria)"/>
<marker lat="39.466" lon="-74.666" site="Atlantic (New Jersey, United States)"/>
<marker lat="36.8667" lon="10.3333" site="Carthage (Tunisia)"/>
<marker lat="41.7" lon="-71.15" site="Troy (Massachusetts, United States)"/>
<marker lat="41.55" lon="-71.683" site="Arcadia (Rhode Island, United States)"/>
<marker lat="38.83" lon="23.5" site="Attica (Greece)"/>
<marker lat="35.166" lon="25.0" site="Crete (Greece)"/>
<marker lat="45.316" lon="7.366" site="Ceres (Italy)"/>
<marker lat="38.883" lon="-77.33" site="Washington (United States)"/>
<marker lat="41.9" lon="12.4833" site="Rome (Italy)"/>
<marker lat="40.766" lon="-75.266" site="Hercules (Pennsylvania, United States)"/>
<marker lat="49.166" lon="-113.266" site="Aetna (Canada)"/>
<marker lat="36.466" lon="-97.266" site="Ceres (Oklahoma, United States)"/>
<marker lat="53.95" lon="-6.366" site="Fane (Irish Republic)"/>
<marker lat="42.0" lon="38.0" site="Pontus"/>
<marker lat="40.7" lon="-76.95" site="Pallas (Pennsylvania, United States)"/>
<marker lat="37.55" lon="22.716" site="Lerna (Greece)"/>
</markers>