<markers>
<marker lat="38.0" lon="-98.0" site="United States (United States)"/>
<marker lat="38.9" lon="-77.25" site="Vienna (Virginia, United States)"/>
<marker lat="39.0" lon="-76.833" site="Maryland (Maryland, United States)"/>
<marker lat="46.0" lon="2.0" site="France (France)"/>
<marker lat="36.95" lon="-76.316" site="Sewell's Point (Virginia, United States)"/>
<marker lat="39.316" lon="-77.733" site="Harper's Ferry (West Virginia, United States)"/>
<marker lat="39.0" lon="-80.0" site="West Virginia (West Virginia, United States)"/>
<marker lat="35.683" lon="-75.716" site="Old Point (North Carolina, United States)"/>
<marker lat="37.16" lon="-76.333" site="Hampton (Virginia, United States)"/>
<marker lat="38.0" lon="-98.0" site="Missouri (Missouri, United States)"/>
<marker lat="38.5" lon="-77.16" site="Port Tobacco (Maryland, United States)"/>
<marker lat="34.0" lon="-80.0" site="South Carolina (South Carolina, United States)"/>
<marker lat="35.5" lon="-85.0" site="Tennessee (Tennessee, United States)"/>
<marker lat="37.33" lon="-89.183" site="Cairo, Ill. (Illinois, United States)"/>
<marker lat="38.516" lon="-77.6" site="Aquia Creek (Virginia, United States)"/>
<marker lat="36.166" lon="-86.75" site="Edgefield (Tennessee, United States)"/>
<marker lat="39.45" lon="-77.95" site="Martinsburg (West Virginia, United States)"/>
<marker lat="38.866" lon="-77.166" site="Fall's Church (Virginia, United States)"/>
<marker lat="38.2" lon="-78.883" site="Piedmont, Va. (Virginia, United States)"/>
<marker lat="38.683" lon="-77.483" site="Occoquan River (Virginia, United States)"/>
<marker lat="39.333" lon="-80.16" site="Grafton, W. Va. (West Virginia, United States)"/>
<marker lat="60.0" lon="47.0" site="Russia (Russia)"/>
<marker lat="38.666" lon="-98.0" site="Kansas (Kansas, United States)"/>
<marker lat="39.333" lon="-78.75" site="Romney (West Virginia, United States)"/>
<marker lat="38.566" lon="-92.166" site="Jefferson City (Missouri, United States)"/>
<marker lat="39.83" lon="-77.65" site="Loudoun (Virginia, United States)"/>
<marker lat="39.5" lon="-8.0" site="Portugal (Portugal)"/>
<marker lat="37.366" lon="-88.483" site="Golconda (Illinois, United States)"/>
<marker lat="39.516" lon="-87.116" site="Brazil, Clay County, Indiana (Indiana, United States)"/>
<marker lat="30.316" lon="-87.283" site="Fort Pickens (Florida, United States)"/>
<marker lat="38.8" lon="-77.33" site="Alexandria (Virginia, United States)"/>
<marker lat="40.0" lon="-86.0" site="Indiana (Indiana, United States)"/>
<marker lat="32.0" lon="-84.0" site="Georgia (Georgia, United States)"/>
<marker lat="40.616" lon="-79.616" site="Westmoreland (Pennsylvania, United States)"/>
<marker lat="38.33" lon="-84.5" site="Lexington (Kentucky, United States)"/>
<marker lat="35.0" lon="38.0" site="Syria (Syria)"/>
<marker lat="35.5" lon="-80.0" site="North Carolina (North Carolina, United States)"/>
<marker lat="40.833" lon="-76.0" site="Pennsylvania (Pennsylvania, United States)"/>
<marker lat="35.0" lon="-93.0" site="Arkansas (Arkansas, United States)"/>
<marker lat="38.416" lon="-79.433" site="Doe Hill (Virginia, United States)"/>
<marker lat="39.633" lon="-77.716" site="Hagerstown (Maryland, United States)"/>
<marker lat="37.8" lon="-80.433" site="Lewisburg (West Virginia, United States)"/>
<marker lat="32.75" lon="-79.883" site="Charleston Harbor (South Carolina, United States)"/>
<marker lat="39.616" lon="-76.616" site="Hunter's Mill (Maryland, United States)"/>
<marker lat="39.366" lon="-79.16" site="New Creek (West Virginia, United States)"/>
<marker lat="38.416" lon="-77.466" site="Stafford (Virginia, United States)"/>
<marker lat="34.35" lon="-89.516" site="Oxford (Mississippi, United States)"/>
<marker lat="33.733" lon="-84.383" site="Atlanta (Georgia, United States)"/>
<marker lat="38.7" lon="-79.966" site="Huttonsville (West Virginia, United States)"/>
<marker lat="45.0" lon="-69.0" site="Maine (Maine, United States)"/>
<marker lat="40.7" lon="-74.0" site="New York (New York, United States)"/>
<marker lat="39.366" lon="-87.0" site="Bowling Green (Indiana, United States)"/>
<marker lat="36.733" lon="-76.583" site="Nansemond River (Virginia, United States)"/>
<marker lat="39.133" lon="-77.416" site="Poolesville (Maryland, United States)"/>
<marker lat="33.0" lon="-87.0" site="Alabama (Alabama, United States)"/>
<marker lat="38.85" lon="-77.35" site="Fairfax (Virginia, United States)"/>
<marker lat="37.266" lon="-76.883" site="Pig Point (Virginia, United States)"/>
<marker lat="42.33" lon="-89.316" site="Ogle (Illinois, United States)"/>
<marker lat="32.0" lon="53.0" site="Persia (Iran)"/>
<marker lat="41.5" lon="-75.116" site="Pike County (Pennsylvania, United States)"/>
<marker lat="39.66" lon="-83.66" site="Pike county (Ohio, United States)"/>
<marker lat="37.916" lon="-79.33" site="Saint Marys River (Virginia, United States)"/>
<marker lat="39.15" lon="-92.683" site="Howard (Missouri, United States)"/>
<marker lat="36.983" lon="-89.133" site="Ohio (United States)"/>
<marker lat="37.566" lon="-77.633" site="Shuter's Hill (Virginia, United States)"/>
<marker lat="37.333" lon="-77.66" site="Charles City (Virginia, United States)"/>
<marker lat="38.233" lon="-78.1" site="Orange Court House (Virginia, United States)"/>
<marker lat="42.866" lon="-71.216" site="Howard's Grove (New Hampshire, United States)"/>
<marker lat="37.516" lon="-76.783" site="West Point (Virginia, United States)"/>
<marker lat="40.5" lon="-74.85" site="Flemings (New Jersey, United States)"/>
<marker lat="38.45" lon="-77.16" site="Chapel Point (Maryland, United States)"/>
<marker lat="41.65" lon="-83.55" site="Vistula (Ohio, United States)"/>
<marker lat="37.183" lon="-76.433" site="Goose Creek (Virginia, United States)"/>
<marker lat="13.83" lon="80.3" site="Fort St. George (Tamil Nadu, India)"/>
<marker lat="39.1" lon="-79.666" site="Cheat River (United States)"/>
<marker lat="37.0" lon="-105.5" site="Canadian (United States)"/>
<marker lat="39.1" lon="-94.616" site="Wyandotte (Kansas, United States)"/>
<marker lat="42.316" lon="-72.333" site="Enfield (Massachusetts, United States)"/>
<marker lat="37.75" lon="-84.833" site="Harrodsburg (Kentucky, United States)"/>
<marker lat="-25.0" lon="135.0" site="Australia (Australia)"/>
<marker lat="42.133" lon="-70.683" site="White's Ferry (Massachusetts, United States)"/>
<marker lat="39.766" lon="-86.15" site="Indianapolis (Indiana, United States)"/>
<marker lat="37.0" lon="-85.0" site="Kentucky (Kentucky, United States)"/>
<marker lat="42.0" lon="-93.0" site="Iowa (Iowa, United States)"/>
<marker lat="40.0" lon="-89.0" site="Illinois (Illinois, United States)"/>
<marker lat="0.583" lon="114.25" site="Borneo"/>
<marker lat="37.316" lon="-78.283" site="Jamestown (Virginia) (Virginia, United States)"/>
<marker lat="36.3" lon="-76.216" site="Elizabeth City (North Carolina, United States)"/>
<marker lat="38.25" lon="-85.75" site="Louisville (Kentucky, United States)"/>
<marker lat="38.883" lon="-77.33" site="Washington (United States)"/>
<marker lat="38.4" lon="-77.33" site="Mathias Point (Virginia, United States)"/>
<marker lat="35.95" lon="-79.25" site="Oaks, North Carolina (North Carolina, United States)"/>
<marker lat="38.3" lon="-77.45" site="Fredericksburg, Va. (Virginia, United States)"/>
<marker lat="35.766" lon="-78.633" site="Raleigh (North Carolina, United States)"/>
<marker lat="39.66" lon="-77.333" site="Seneca, Md. (Maryland, United States)"/>
<marker lat="41.833" lon="-72.833" site="Connecticut (Connecticut, United States)"/>
<marker lat="39.0" lon="-105.0" site="Colorado (Colorado, United States)"/>
<marker lat="36.9" lon="-82.66" site="Lebanon (Virginia, United States)"/>
<marker lat="39.1" lon="-77.55" site="Leesburg (Virginia, United States)"/>
<marker lat="35.95" lon="-83.916" site="Knoxville (Tennessee, United States)"/>
<marker lat="37.95" lon="-76.95" site="Essex County (Virginia, United States)"/>
<marker lat="40.5" lon="-80.716" site="Wheeling, W. Va. (West Virginia, United States)"/>
<marker lat="45.0" lon="-90.0" site="Wisconsin (Wisconsin, United States)"/>
<marker lat="39.166" lon="-78.25" site="Opequan Creek (United States)"/>
<marker lat="37.383" lon="-77.6" site="Chesterfield (Virginia, United States)"/>
<marker lat="27.0" lon="80.0" site="Hindustan (Uttar Pradesh, India)"/>
<marker lat="39.533" lon="-76.333" site="Bel Air (Maryland, United States)"/>
<marker lat="35.666" lon="51.433" site="Teheran (Iran)"/>
<marker lat="39.516" lon="-80.333" site="Mannington (West Virginia, United States)"/>
<marker lat="54.0" lon="-72.0" site="Quebec (Canada)"/>
<marker lat="39.83" lon="-84.483" site="Newport, Ky. (Kentucky, United States)"/>
<marker lat="30.683" lon="-88.33" site="Mobile, Ala. (Alabama, United States)"/>
<marker lat="32.933" lon="-90.75" site="White House Landing (Mississippi, United States)"/>
<marker lat="19.416" lon="-99.166" site="Mexico (Mexico, Mexico)"/>
<marker lat="36.75" lon="-78.916" site="Halifax, Va. (Virginia, United States)"/>
<marker lat="39.33" lon="-92.333" site="Boone County (Missouri, United States)"/>
<marker lat="29.183" lon="-95.45" site="Brazoria County (Texas, United States)"/>
<marker lat="-10.0" lon="-55.0" site="Brazil (Brazil)"/>
<marker lat="36.583" lon="-79.383" site="Danville (Virginia, United States)"/>
<marker lat="37.316" lon="-80.683" site="Giles (Virginia, United States)"/>
<marker lat="38.5" lon="-77.966" site="Culpeper (Virginia, United States)"/>
<marker lat="37.983" lon="-77.966" site="Louisa (Virginia, United States)"/>
<marker lat="36.95" lon="-78.25" site="Lunenburg (Virginia, United States)"/>
<marker lat="43.1" lon="-71.333" site="North Branch River (New Hampshire, United States)"/>
<marker lat="38.366" lon="-79.366" site="Highland County (Virginia, United States)"/>
<marker lat="39.333" lon="-78.6" site="Hampshire County (West Virginia, United States)"/>
<marker lat="42.983" lon="-78.183" site="Batavia, N. Y. (New York, United States)"/>
<marker lat="39.45" lon="-78.33" site="Berkeley County (West Virginia, United States)"/>
</markers>