<markers>
<marker lat="42.416" lon="-71.1" site="Medford (Massachusetts, United States)"/>
<marker lat="40.95" lon="-77.833" site="School House (Pennsylvania, United States)"/>
<marker lat="42.25" lon="-71.833" site="Massachusetts (Massachusetts, United States)"/>
<marker lat="42.35" lon="-71.35" site="Wayland (Massachusetts, United States)"/>
<marker lat="42.383" lon="-71.83" site="Ten Hills (Massachusetts, United States)"/>
<marker lat="42.416" lon="-71.133" site="Mystick River (Massachusetts, United States)"/>
<marker lat="42.466" lon="-70.95" site="Lynn (Massachusetts, United States)"/>
<marker lat="41.983" lon="-70.966" site="Bridgewater (Massachusetts, United States)"/>
<marker lat="42.316" lon="-72.633" site="Northampton (Massachusetts, United States)"/>
<marker lat="42.7" lon="-71.2" site="Meeting House (Massachusetts, United States)"/>
<marker lat="42.283" lon="-71.66" site="Dorchester, Mass. (Massachusetts, United States)"/>
<marker lat="42.85" lon="-70.916" site="Amesbury (Massachusetts, United States)"/>
<marker lat="40.216" lon="-78.4" site="Maria (Pennsylvania, United States)"/>
<marker lat="45.0" lon="-69.0" site="Maine (Maine, United States)"/>
<marker lat="41.65" lon="-72.33" site="John Brook (Connecticut, United States)"/>
<marker lat="44.7" lon="-69.783" site="Norridgewock (Maine, United States)"/>
<marker lat="42.366" lon="-71.183" site="Watertown (Massachusetts, United States)"/>
<marker lat="42.45" lon="-71.35" site="Concord (Massachusetts, United States)"/>
<marker lat="42.583" lon="-71.716" site="Lunenburg, Ma. (Massachusetts, United States)"/>
<marker lat="42.366" lon="-70.75" site="Massachusetts Bay (Massachusetts, United States)"/>
<marker lat="42.55" lon="-71.266" site="Billerica (Massachusetts, United States)"/>
<marker lat="42.966" lon="-70.933" site="Exeter, N. H. (New Hampshire, United States)"/>
<marker lat="42.116" lon="-80.83" site="Erie (Pennsylvania, United States)"/>
<marker lat="51.5" lon="-0.166" site="Chelsea bridge (United Kingdom)"/>
<marker lat="42.666" lon="-89.16" site="Janesville (Wisconsin, United States)"/>
<marker lat="43.66" lon="-70.75" site="Portsmouth (New Hampshire, United States)"/>
<marker lat="42.5" lon="-71.333" site="Middlesex County (Massachusetts, United States)"/>
<marker lat="42.233" lon="-70.8" site="Cohasset (Massachusetts, United States)"/>
<marker lat="38.0" lon="-98.0" site="United States (United States)"/>
<marker lat="42.166" lon="-70.75" site="Walnut Tree Hill (Massachusetts, United States)"/>
<marker lat="60.0" lon="47.0" site="Russia (Russia)"/>
<marker lat="42.516" lon="-70.883" site="Salem (Massachusetts, United States)"/>
<marker lat="60.0" lon="-96.0" site="Canada (Canada)"/>
<marker lat="28.583" lon="-81.333" site="Winter Park (Florida, United States)"/>
<marker lat="43.0" lon="-74.366" site="Johnstown (New York, United States)"/>
<marker lat="42.933" lon="-74.183" site="Amsterdam (New York, United States)"/>
<marker lat="42.366" lon="-71.33" site="Middlesex Canal (Massachusetts, United States)"/>
<marker lat="42.183" lon="-71.3" site="Medfield (Massachusetts, United States)"/>
<marker lat="42.6" lon="-70.65" site="Glocester (Massachusetts, United States)"/>
<marker lat="42.4" lon="-71.116" site="College Hill (Massachusetts, United States)"/>
<marker lat="42.83" lon="-70.7" site="Marshfield (Massachusetts, United States)"/>
<marker lat="42.233" lon="-71.83" site="Milton, Mass. (Massachusetts, United States)"/>
<marker lat="42.4" lon="-71.15" site="Menotomy (Massachusetts, United States)"/>
<marker lat="44.0" lon="-73.166" site="Middlebury (Vermont, United States)"/>
<marker lat="42.65" lon="-71.133" site="Andover (Massachusetts, United States)"/>
<marker lat="42.916" lon="-76.55" site="Auburn, N. Y. (New York, United States)"/>
<marker lat="43.816" lon="-70.233" site="North Yarmouth (Maine, United States)"/>
<marker lat="44.0" lon="-85.0" site="Michigan (Michigan, United States)"/>
<marker lat="44.0" lon="-71.666" site="New Hampshire (New Hampshire, United States)"/>
<marker lat="42.583" lon="-71.2" site="Chelmsford, Mass. (Massachusetts, United States)"/>
<marker lat="43.416" lon="-71.4" site="Gilmanton (New Hampshire, United States)"/>
<marker lat="42.283" lon="-71.35" site="Natick (Massachusetts, United States)"/>
<marker lat="42.316" lon="-71.116" site="Brookline (Massachusetts, United States)"/>
<marker lat="42.866" lon="-71.166" site="Hampstead (New Hampshire, United States)"/>
<marker lat="42.933" lon="-70.833" site="Hampton, N. H. (New Hampshire, United States)"/>
<marker lat="41.633" lon="-70.933" site="New Bedford (Massachusetts, United States)"/>
<marker lat="42.466" lon="-71.1" site="Stoneham (Massachusetts, United States)"/>
<marker lat="32.933" lon="-93.883" site="Mira (Louisiana, United States)"/>
<marker lat="13.166" lon="-59.533" site="Barbados (Barbados)"/>
<marker lat="41.883" lon="-70.75" site="Carver (Massachusetts, United States)"/>
<marker lat="42.216" lon="-71.0" site="Braintree (Massachusetts, United States)"/>
<marker lat="42.766" lon="-70.883" site="Newbury, Mass. (Massachusetts, United States)"/>
<marker lat="42.8" lon="-70.866" site="Newburyport (Massachusetts, United States)"/>
<marker lat="42.133" lon="-77.633" site="Greenwood (New York, United States)"/>
<marker lat="43.433" lon="-71.65" site="Merrimack (United States)"/>
<marker lat="30.783" lon="-82.6" site="Branch Canal (Georgia, United States)"/>
<marker lat="44.216" lon="-69.75" site="Pittston (Maine, United States)"/>
<marker lat="43.166" lon="-73.316" site="Salem, N. Y. (New York, United States)"/>
<marker lat="42.716" lon="-87.766" site="Racine (Wisconsin, United States)"/>
<marker lat="42.666" lon="-71.3" site="Dracut (Massachusetts, United States)"/>
<marker lat="42.233" lon="-71.283" site="Dover (Massachusetts, United States)"/>
<marker lat="42.216" lon="-92.816" site="Beaman (Iowa, United States)"/>
<marker lat="42.45" lon="-72.883" site="Cummington (Massachusetts, United States)"/>
<marker lat="44.0" lon="-69.883" site="Bowdoinham (Maine, United States)"/>
<marker lat="43.45" lon="-76.5" site="Oswego (New York, United States)"/>
<marker lat="42.716" lon="-71.183" site="Methuen (Massachusetts, United States)"/>
<marker lat="34.283" lon="-80.1" site="Lydia (South Carolina, United States)"/>
<marker lat="42.5" lon="-73.5" site="Windsor (Massachusetts, United States)"/>
<marker lat="42.85" lon="-71.616" site="Amherst, N. H. (New Hampshire, United States)"/>
<marker lat="43.516" lon="-73.233" site="Poultney (Vermont, United States)"/>
<marker lat="31.9" lon="-87.233" site="Little Gravel Creek (Alabama, United States)"/>
<marker lat="42.366" lon="-72.516" site="Amherst (Massachusetts, United States)"/>
<marker lat="41.75" lon="-70.483" site="Sandwich, Mass. (Massachusetts, United States)"/>
<marker lat="38.666" lon="-98.0" site="Kansas (Kansas, United States)"/>
<marker lat="42.0" lon="-93.0" site="Iowa (Iowa, United States)"/>
<marker lat="32.0" lon="-84.0" site="Georgia (Georgia, United States)"/>
<marker lat="42.433" lon="-71.866" site="Princeton, Mass. (Massachusetts, United States)"/>
<marker lat="33.666" lon="-84.433" site="South River, Ga. (Georgia, United States)"/>
<marker lat="41.95" lon="-70.8" site="Plympton (Massachusetts, United States)"/>
<marker lat="41.95" lon="-70.666" site="Accomack (Massachusetts, United States)"/>
<marker lat="42.833" lon="-88.716" site="Whitewater (Wisconsin, United States)"/>
<marker lat="42.266" lon="-71.416" site="Framingham (Massachusetts, United States)"/>
<marker lat="40.433" lon="-79.983" site="Pittsburgh (Pennsylvania, United States)"/>
<marker lat="39.316" lon="-77.733" site="Harper's Ferry (West Virginia, United States)"/>
<marker lat="42.633" lon="-71.316" site="Lowell (Massachusetts, United States)"/>
<marker lat="41.633" lon="-70.9" site="Oxford (Massachusetts, United States)"/>
<marker lat="42.683" lon="-71.316" site="Winter Hill (Massachusetts, United States)"/>
<marker lat="42.5" lon="-71.25" site="Foxborough (Massachusetts, United States)"/>
<marker lat="42.83" lon="-71.383" site="Franklin, Mass. (Massachusetts, United States)"/>
<marker lat="39.333" lon="-78.5" site="Bunker Hill (West Virginia, United States)"/>
<marker lat="43.15" lon="-71.45" site="Meetinghouse Brook (New Hampshire, United States)"/>
<marker lat="42.75" lon="-76.833" site="Romulus (New York, United States)"/>
<marker lat="42.433" lon="-71.1" site="Pasture Hill (Massachusetts, United States)"/>
<marker lat="33.83" lon="-82.0" site="Waynesborough (Georgia, United States)"/>
<marker lat="43.25" lon="-70.85" site="Somersworth (New Hampshire, United States)"/>
<marker lat="42.233" lon="-70.883" site="Hingham (Massachusetts, United States)"/>
<marker lat="42.1" lon="-72.583" site="Springfield (Massachusetts, United States)"/>
<marker lat="44.633" lon="-63.583" site="Halifax (Canada)"/>
<marker lat="44.83" lon="-95.683" site="Des Moines River (United States)"/>
<marker lat="42.6" lon="-71.566" site="Groton (Massachusetts, United States)"/>
<marker lat="30.316" lon="-81.65" site="Jacksonville (Florida, United States)"/>
<marker lat="32.866" lon="-85.183" site="West Point (Georgia, United States)"/>
<marker lat="42.766" lon="-71.66" site="Haverhill (Massachusetts, United States)"/>
<marker lat="42.366" lon="-72.583" site="Hatfield (Massachusetts, United States)"/>
<marker lat="42.866" lon="-91.233" site="Garnavillo (Iowa, United States)"/>
<marker lat="42.366" lon="-71.5" site="Copp's Hill (Massachusetts, United States)"/>
<marker lat="42.716" lon="-73.683" site="Troy, N. Y. (New York, United States)"/>
<marker lat="42.66" lon="-71.316" site="Wrentham (Massachusetts, United States)"/>
<marker lat="41.75" lon="-72.683" site="Hartford (Connecticut, United States)"/>
<marker lat="42.25" lon="-71.8" site="Worcester (Massachusetts, United States)"/>
<marker lat="40.2" lon="-79.766" site="West Newton (Pennsylvania, United States)"/>
<marker lat="42.45" lon="-71.133" site="Winchester, Mass. (Massachusetts, United States)"/>
<marker lat="43.9" lon="-69.816" site="Bath, Me. (Maine, United States)"/>
<marker lat="42.466" lon="-71.15" site="Woburn (Massachusetts, United States)"/>
<marker lat="42.283" lon="-71.283" site="Wellesley (Massachusetts, United States)"/>
<marker lat="41.933" lon="-85.0" site="Coldwater (Michigan, United States)"/>
<marker lat="42.7" lon="-71.15" site="Lawrence (Massachusetts, United States)"/>
<marker lat="42.166" lon="-83.766" site="Saline (Michigan, United States)"/>
<marker lat="42.333" lon="-71.5" site="South Boston (Massachusetts, United States)"/>
<marker lat="42.316" lon="-71.83" site="Roxbury, Mass. (Massachusetts, United States)"/>
<marker lat="41.7" lon="-72.6" site="Glastonbury (Connecticut, United States)"/>
<marker lat="41.283" lon="-73.916" site="Peekskill (New York, United States)"/>
<marker lat="42.833" lon="-71.633" site="Milford, New Hampshire (New Hampshire, United States)"/>
<marker lat="32.766" lon="-79.916" site="Charleston (South Carolina, United States)"/>
<marker lat="46.0" lon="2.0" site="France (France)"/>
<marker lat="45.25" lon="-69.916" site="Somerset County (Maine, United States)"/>
<marker lat="42.633" lon="-71.333" site="Middlesex Village (Massachusetts, United States)"/>
<marker lat="42.366" lon="-71.1" site="Cambridge (Massachusetts, United States)"/>
<marker lat="41.483" lon="-81.683" site="Cleveland (Ohio, United States)"/>
<marker lat="42.466" lon="-73.583" site="Malden Bridge (New York, United States)"/>
<marker lat="41.8" lon="-71.883" site="Danielson (Connecticut, United States)"/>
<marker lat="43.166" lon="-70.816" site="Piscataqua River (United States)"/>
</markers>