<markers>
<marker lat="39.95" lon="26.25" site="Ilium (Turkey)"/>
<marker lat="41.333" lon="26.75" site="Thrace (Greece)"/>
<marker lat="39.9167" lon="26.2833" site="Troy (Turkey)"/>
<marker lat="39.0" lon="22.0" site="Greece (Greece)"/>
<marker lat="41.7" lon="-71.15" site="Troy (Massachusetts, United States)"/>
<marker lat="37.666" lon="22.833" site="Argolis (Greece)"/>
<marker lat="53.166" lon="-2.25" site="Dane (United Kingdom)"/>
<marker lat="39.5" lon="22.25" site="Thessaly (Greece)"/>
<marker lat="48.866" lon="2.333" site="Paris (France)"/>
<marker lat="37.75" lon="23.433" site="Aegina (Greece)"/>
<marker lat="36.55" lon="32.1833" site="Laertes"/>
<marker lat="40.825" lon="23.8583" site="Amphipolis (Greece)"/>
<marker lat="36.366" lon="29.333" site="Xanthus (Turkey)"/>
<marker lat="40.166" lon="30.25" site="Bithynia (Turkey)"/>
<marker lat="42.0" lon="38.0" site="Pontus"/>
<marker lat="37.75" lon="15.0" site="Aetna (Italy)"/>
<marker lat="48.133" lon="11.583" site="Munich (Bavaria, Germany)"/>
</markers>