<markers>
<marker lat="38.0" lon="-98.0" site="United States (United States)"/>
<marker lat="39.0" lon="-76.833" site="Maryland (Maryland, United States)"/>
<marker lat="32.66" lon="-99.83" site="Red River (Texas, United States)"/>
<marker lat="19.416" lon="-99.166" site="Mexico (Mexico, Mexico)"/>
<marker lat="31.0" lon="-92.0" site="Louisiana (Louisiana, United States)"/>
<marker lat="39.45" lon="-77.95" site="Martinsburg (West Virginia, United States)"/>
<marker lat="33.366" lon="-91.966" site="Longview (Arkansas, United States)"/>
<marker lat="37.83" lon="-89.15" site="Mound City (Illinois, United States)"/>
<marker lat="39.783" lon="-93.55" site="Chillicothe (Missouri, United States)"/>
<marker lat="37.55" lon="-77.45" site="Richmond (Virginia, United States)"/>
<marker lat="34.883" lon="-88.1" site="Eastport (Mississippi, United States)"/>
<marker lat="33.85" lon="-92.15" site="Mount Elba (Arkansas, United States)"/>
<marker lat="39.616" lon="-78.216" site="Berkeley Springs (West Virginia, United States)"/>
<marker lat="33.583" lon="-92.833" site="Camden, Ark. (Arkansas, United States)"/>
<marker lat="33.733" lon="-84.383" site="Atlanta (Georgia, United States)"/>
<marker lat="33.616" lon="-91.783" site="Monticello (Arkansas, United States)"/>
<marker lat="25.9" lon="-97.483" site="Fort Taylor (Texas, United States)"/>
<marker lat="31.55" lon="-91.4" site="Natchez (Mississippi, United States)"/>
<marker lat="37.366" lon="-77.5" site="Chesterfield (Virginia, United States)"/>
<marker lat="37.316" lon="-77.266" site="City Point (Virginia, United States)"/>
<marker lat="39.65" lon="-77.166" site="Taneytown (Maryland, United States)"/>
<marker lat="51.583" lon="0.55" site="Essex (United Kingdom)"/>
<marker lat="34.116" lon="-93.5" site="Arkadelphia (Arkansas, United States)"/>
<marker lat="34.683" lon="-94.316" site="Ouachita (United States)"/>
<marker lat="38.7" lon="-77.783" site="Warrenton (Virginia, United States)"/>
<marker lat="32.85" lon="-90.4" site="Yazoo City (Mississippi, United States)"/>
<marker lat="40.66" lon="-93.266" site="Parsons (Missouri, United States)"/>
<marker lat="40.0" lon="-86.0" site="Indiana (Indiana, United States)"/>
<marker lat="42.0" lon="-93.0" site="Iowa (Iowa, United States)"/>
<marker lat="35.5" lon="-80.0" site="North Carolina (North Carolina, United States)"/>
<marker lat="35.383" lon="-94.383" site="Fort Smith (Arkansas, United States)"/>
<marker lat="35.0" lon="-93.0" site="Arkansas (Arkansas, United States)"/>
<marker lat="38.3" lon="-77.45" site="Fredericksburg, Va. (Virginia, United States)"/>
<marker lat="28.5" lon="-96.483" site="Indianola (Texas, United States)"/>
<marker lat="34.766" lon="-84.966" site="Dalton, Ga. (Georgia, United States)"/>
<marker lat="41.833" lon="-72.833" site="Connecticut (Connecticut, United States)"/>
<marker lat="36.866" lon="-94.366" site="Neosho, Mo. (Missouri, United States)"/>
<marker lat="32.516" lon="-93.75" site="Shreveport (Louisiana, United States)"/>
<marker lat="30.1" lon="-90.983" site="Donaldsonville (Louisiana, United States)"/>
<marker lat="42.883" lon="-78.9" site="Niagara River (New York, United States)"/>
<marker lat="34.216" lon="-92.0" site="Pine Bluff (Arkansas, United States)"/>
<marker lat="37.0" lon="-80.0" site="Virginia (Virginia, United States)"/>
<marker lat="32.716" lon="-79.866" site="Cumming's Point (South Carolina, United States)"/>
<marker lat="48.5" lon="11.5" site="Bavaria (Bavaria, Germany)"/>
<marker lat="46.0" lon="2.0" site="France (France)"/>
<marker lat="50.833" lon="4.0" site="Belgium (Belgium)"/>
<marker lat="36.583" lon="-79.383" site="Danville (Virginia, United States)"/>
<marker lat="37.16" lon="-93.2" site="Ozark, Mo. (Missouri, United States)"/>
<marker lat="38.316" lon="-77.466" site="Falmouth, Va. (Virginia, United States)"/>
<marker lat="39.216" lon="-78.25" site="Frederick (Virginia, United States)"/>
<marker lat="37.133" lon="-78.66" site="Nottoway (Virginia, United States)"/>
<marker lat="36.75" lon="-78.933" site="Halifax county (Virginia, United States)"/>
<marker lat="37.566" lon="-77.916" site="Powhatan (Virginia, United States)"/>
<marker lat="35.366" lon="-89.566" site="Braden (Tennessee, United States)"/>
<marker lat="36.283" lon="-88.7" site="Dresden, Tenn. (Tennessee, United States)"/>
</markers>