<markers>
<marker lat="43.516" lon="-79.883" site="Milton (Canada)"/>
<marker lat="34.783" lon="-87.666" site="Florence, Ala. (Alabama, United States)"/>
<marker lat="42.833" lon="12.833" site="Italy (Italy)"/>
<marker lat="34.25" lon="-85.15" site="Rome, Ga. (Georgia, United States)"/>
<marker lat="42.233" lon="-71.83" site="Milton, Mass. (Massachusetts, United States)"/>
<marker lat="46.0" lon="2.0" site="France (France)"/>
<marker lat="51.5" lon="10.5" site="Germany (Germany)"/>
<marker lat="45.433" lon="12.333" site="Venice (Italy)"/>
<marker lat="57.0" lon="-4.0" site="Scotland (United Kingdom)"/>
<marker lat="54.466" lon="-3.33" site="Grasmere (United Kingdom)"/>
<marker lat="44.5" lon="11.333" site="Bologna (Italy)"/>
<marker lat="40.266" lon="-96.733" site="Beatrice (Nebraska, United States)"/>
<marker lat="44.933" lon="-93.83" site="St. Paul (Minnesota, United States)"/>
<marker lat="43.0" lon="-84.366" site="Ovid (Michigan, United States)"/>
<marker lat="40.616" lon="-79.616" site="Westmoreland (Pennsylvania, United States)"/>
<marker lat="43.716" lon="10.4" site="Pisa (Italy)"/>
<marker lat="40.833" lon="14.25" site="Naples (Italy)"/>
<marker lat="40.0" lon="-4.0" site="Spain (Spain)"/>
<marker lat="36.533" lon="-79.2" site="Milton, N. C. (North Carolina, United States)"/>
<marker lat="45.433" lon="11.0" site="Verona (Italy)"/>
<marker lat="38.2" lon="-84.25" site="Paris, Ky. (Kentucky, United States)"/>
<marker lat="43.783" lon="11.25" site="Florence (Italy)"/>
<marker lat="51.2" lon="-0.5" site="Surrey (United Kingdom)"/>
<marker lat="44.316" lon="-93.95" site="St. Peter (Minnesota, United States)"/>
<marker lat="54.666" lon="-2.733" site="Penrith (United Kingdom)"/>
<marker lat="52.833" lon="10.0" site="Saxony (Saxony, Germany)"/>
<marker lat="48.866" lon="2.333" site="Department de Ville de Paris (France)"/>
<marker lat="42.633" lon="-76.166" site="Homer, N. Y. (New York, United States)"/>
<marker lat="43.316" lon="11.316" site="Siena (Italy)"/>
<marker lat="35.283" lon="-82.466" site="Teneriffe (North Carolina, United States)"/>
<marker lat="43.416" lon="11.0" site="Tuscany (Italy)"/>
<marker lat="37.583" lon="-90.616" site="Arcadia (Missouri, United States)"/>
<marker lat="32.55" lon="-80.933" site="Bashan (South Carolina, United States)"/>
<marker lat="38.0" lon="-98.0" site="United States (United States)"/>
<marker lat="42.316" lon="-72.333" site="Enfield (Massachusetts, United States)"/>
<marker lat="52.516" lon="-3.5" site="Cambria (United Kingdom)"/>
<marker lat="51.333" lon="12.416" site="Leipzig (Saxony, Germany)"/>
<marker lat="41.883" lon="12.5" site="Roma (Italy)"/>
<marker lat="47.9" lon="1.9" site="Orleans (France)"/>
<marker lat="51.916" lon="10.416" site="Goslar (Lower Saxony, Germany)"/>
<marker lat="54.666" lon="-3.35" site="Cockermouth (United Kingdom)"/>
<marker lat="52.633" lon="-1.133" site="Leicester (United Kingdom)"/>
<marker lat="49.75" lon="3.183" site="St. Simon (France)"/>
<marker lat="40.283" lon="-84.15" site="Sydney (Ohio, United States)"/>
<marker lat="38.283" lon="-79.116" site="Parnassus (Virginia, United States)"/>
<marker lat="42.66" lon="-70.75" site="Ashdod (Massachusetts, United States)"/>
<marker lat="43.933" lon="4.8" site="Avignon (France)"/>
<marker lat="43.3" lon="5.366" site="Marseilles (France)"/>
<marker lat="45.5" lon="9.683" site="Piacenza (Italy)"/>
<marker lat="40.16" lon="-78.5" site="Fort Bedford (Pennsylvania, United States)"/>
<marker lat="43.833" lon="-97.65" site="Epiphany (South Dakota, United States)"/>
<marker lat="42.683" lon="-114.516" site="Hydra (Idaho, United States)"/>
<marker lat="45.666" lon="9.5" site="Lombardy (Italy)"/>
<marker lat="51.683" lon="-2.683" site="Tintern Abbey (United Kingdom)"/>
<marker lat="51.83" lon="-3.0" site="Somerset (United Kingdom)"/>
<marker lat="51.583" lon="0.55" site="Essex (United Kingdom)"/>
<marker lat="37.733" lon="-97.55" site="Saint Marks (Kansas, United States)"/>
<marker lat="53.7" lon="-2.666" site="Lancaster (United Kingdom)"/>
<marker lat="52.666" lon="-1.166" site="Leicestershire (United Kingdom)"/>
<marker lat="51.55" lon="-0.183" site="Hampstead (United Kingdom)"/>
<marker lat="45.266" lon="-66.5" site="St. John (Canada)"/>
<marker lat="39.95" lon="-80.366" site="Time (Pennsylvania, United States)"/>
<marker lat="35.633" lon="-79.6" site="Coleridge (North Carolina, United States)"/>
<marker lat="41.166" lon="-82.216" site="Wellington (Ohio, United States)"/>
<marker lat="27.866" lon="-82.783" site="Walsingham (Florida, United States)"/>
<marker lat="36.966" lon="-85.6" site="Edmonton (Kentucky, United States)"/>
<marker lat="50.783" lon="-2.316" site="Dorset (United Kingdom)"/>
<marker lat="32.35" lon="-97.766" site="Neri (Texas, United States)"/>
<marker lat="60.0" lon="47.0" site="Russia (Russia)"/>
<marker lat="53.966" lon="-1.83" site="York (United Kingdom)"/>
<marker lat="40.666" lon="-78.233" site="Tyrone (Pennsylvania, United States)"/>
<marker lat="29.833" lon="-91.483" site="Camperdown (Louisiana, United States)"/>
<marker lat="45.66" lon="7.666" site="Turin (Italy)"/>
<marker lat="53.333" lon="-6.25" site="Dublin (Irish Republic)"/>
<marker lat="37.5" lon="-91.25" site="Bunker Camp (Missouri, United States)"/>
<marker lat="47.6" lon="1.333" site="Blois (France)"/>
<marker lat="41.816" lon="-71.4" site="Providence, R. I. (Rhode Island, United States)"/>
<marker lat="46.966" lon="11.95" site="San Giovanni (Italy)"/>
<marker lat="51.966" lon="-8.583" site="County Cork (Irish Republic)"/>
<marker lat="36.233" lon="-119.83" site="Lucca (California, United States)"/>
<marker lat="37.783" lon="-92.5" site="Moab (Missouri, United States)"/>
<marker lat="41.5" lon="-73.533" site="Stamford, Conn. (Connecticut, United States)"/>
<marker lat="43.55" lon="-80.25" site="Guelph (Canada)"/>
<marker lat="27.0" lon="30.0" site="Egypt (Egypt)"/>
<marker lat="52.3" lon="8.9" site="Minden (North Rhine-Westphalia, Germany)"/>
<marker lat="51.916" lon="4.483" site="Rotterdam (Netherlands)"/>
<marker lat="43.233" lon="-78.183" site="Albion (New York, United States)"/>
<marker lat="48.616" lon="-93.833" site="Indus (Minnesota, United States)"/>
<marker lat="40.2" lon="-93.116" site="Milan, Sullivan County, Missouri (Missouri, United States)"/>
<marker lat="35.266" lon="-90.583" site="Saint Francis (Arkansas, United States)"/>
<marker lat="39.566" lon="-76.983" site="Westminster (Maryland, United States)"/>
<marker lat="46.833" lon="5.833" site="Jura (France)"/>
<marker lat="51.583" lon="-0.83" site="Islington (United Kingdom)"/>
<marker lat="42.483" lon="-76.283" site="Dryden, Tompkins County, New York (New York, United States)"/>
<marker lat="48.5" lon="11.5" site="Bavaria (Bavaria, Germany)"/>
<marker lat="56.0" lon="10.0" site="Denmark (Denmark)"/>
<marker lat="39.0" lon="22.0" site="Greece (Greece)"/>
<marker lat="-10.0" lon="-76.0" site="Peru (Peru)"/>
<marker lat="42.0" lon="38.0" site="Pontus"/>
<marker lat="37.6" lon="-92.9" site="Long lane (Missouri, United States)"/>
</markers>