<markers>
<marker lat="38.0" lon="-98.0" site="United States (United States)"/>
<marker lat="36.583" lon="-79.383" site="Danville (Virginia, United States)"/>
<marker lat="39.316" lon="-77.733" site="Harper's Ferry (West Virginia, United States)"/>
<marker lat="33.0" lon="-87.0" site="Alabama (Alabama, United States)"/>
<marker lat="32.0" lon="-84.0" site="Georgia (Georgia, United States)"/>
<marker lat="40.75" lon="-111.883" site="Salt Lake City (Utah, United States)"/>
<marker lat="36.716" lon="-76.583" site="Suffolk, Va. (Virginia, United States)"/>
<marker lat="37.75" lon="-78.15" site="Columbia (Virginia, United States)"/>
<marker lat="35.283" lon="-77.566" site="Jericho Run (North Carolina, United States)"/>
<marker lat="40.0" lon="-115.0" site="Nevada (Nevada, United States)"/>
<marker lat="38.233" lon="-78.1" site="Orange Court House (Virginia, United States)"/>
<marker lat="32.75" lon="-97.783" site="Weatherford (Texas, United States)"/>
<marker lat="40.616" lon="-79.616" site="Westmoreland (Pennsylvania, United States)"/>
<marker lat="34.0" lon="-80.0" site="South Carolina (South Carolina, United States)"/>
<marker lat="38.883" lon="-77.33" site="Washington (United States)"/>
<marker lat="37.0" lon="-119.0" site="California (California, United States)"/>
<marker lat="35.5" lon="-85.0" site="Tennessee (Tennessee, United States)"/>
<marker lat="32.35" lon="-88.7" site="Meridian (Mississippi, United States)"/>
<marker lat="43.316" lon="-70.566" site="Wells, Me. (Maine, United States)"/>
<marker lat="35.783" lon="-78.766" site="Cary (North Carolina, United States)"/>
<marker lat="41.666" lon="-69.95" site="Chatham (Massachusetts, United States)"/>
<marker lat="37.85" lon="-78.266" site="Fluvanna (Virginia, United States)"/>
<marker lat="31.816" lon="-86.616" site="Greenville, Ala. (Alabama, United States)"/>
</markers>