<markers>
<marker lat="38.0" lon="-98.0" site="United States (United States)"/>
<marker lat="39.0" lon="-80.0" site="West Virginia (West Virginia, United States)"/>
<marker lat="30.366" lon="-86.916" site="Santa Rosa Island (Florida, United States)"/>
<marker lat="41.333" lon="-86.3" site="Marshall County (Indiana, United States)"/>
<marker lat="40.1" lon="-87.25" site="Fountain County (Indiana, United States)"/>
<marker lat="36.633" lon="-80.25" site="Stuart (Virginia, United States)"/>
<marker lat="38.533" lon="-79.816" site="Greenbrier (West Virginia, United States)"/>
<marker lat="39.0" lon="-76.833" site="Maryland (Maryland, United States)"/>
<marker lat="40.75" lon="-86.35" site="Logansport (Indiana, United States)"/>
<marker lat="35.633" lon="-76.6" site="Pungo (North Carolina, United States)"/>
<marker lat="37.766" lon="-80.816" site="Big Sewell Mountain (West Virginia, United States)"/>
<marker lat="32.0" lon="-84.0" site="Georgia (Georgia, United States)"/>
<marker lat="32.83" lon="-81.1" site="Savannah (Georgia, United States)"/>
<marker lat="40.733" lon="-86.866" site="White County (Indiana, United States)"/>
<marker lat="37.55" lon="-77.366" site="Henrico (Virginia, United States)"/>
<marker lat="31.133" lon="-81.483" site="Brunswick, Ga. (Georgia, United States)"/>
<marker lat="40.85" lon="-85.783" site="Wabash (Indiana, United States)"/>
<marker lat="38.0" lon="-98.0" site="Missouri (Missouri, United States)"/>
<marker lat="39.66" lon="-93.783" site="LaFayette County (Missouri, United States)"/>
<marker lat="38.7" lon="-77.783" site="Warrenton (Virginia, United States)"/>
<marker lat="37.516" lon="-76.783" site="West Point (Virginia, United States)"/>
<marker lat="41.7" lon="-86.883" site="Michigan City (Indiana, United States)"/>
<marker lat="41.466" lon="-87.5" site="Valparaiso (Indiana, United States)"/>
<marker lat="22.3" lon="-97.866" site="Tampico (Tamaulipas, Mexico)"/>
<marker lat="39.766" lon="-86.15" site="Indianapolis (Indiana, United States)"/>
<marker lat="40.0" lon="-86.0" site="Indiana (Indiana, United States)"/>
<marker lat="40.33" lon="-76.3" site="Lancaster (Pennsylvania, United States)"/>
<marker lat="35.5" lon="-80.0" site="North Carolina (North Carolina, United States)"/>
<marker lat="34.0" lon="-80.0" site="South Carolina (South Carolina, United States)"/>
<marker lat="38.3" lon="-77.45" site="Fredericksburg, Va. (Virginia, United States)"/>
<marker lat="35.683" lon="-75.716" site="Old Point (North Carolina, United States)"/>
<marker lat="27.95" lon="-80.783" site="San Juan River (Florida, United States)"/>
<marker lat="41.416" lon="-76.483" site="Laporte (Pennsylvania, United States)"/>
<marker lat="46.0" lon="2.0" site="France (France)"/>
<marker lat="29.3" lon="-94.783" site="Galveston (Texas, United States)"/>
<marker lat="38.183" lon="-80.0" site="Huntersville (West Virginia, United States)"/>
<marker lat="36.883" lon="-76.66" site="Lynnhaven Bay (Virginia, United States)"/>
<marker lat="32.7" lon="-79.883" site="Morris Island (South Carolina, United States)"/>
<marker lat="33.266" lon="-82.966" site="Sparta, Ga. (Georgia, United States)"/>
<marker lat="45.0" lon="-69.0" site="Maine (Maine, United States)"/>
<marker lat="29.633" lon="-81.633" site="Palatka (Florida, United States)"/>
<marker lat="40.0" lon="-75.0" site="New Jersey (New Jersey, United States)"/>
<marker lat="43.233" lon="-119.1" site="Harney Lake (Oregon, United States)"/>
<marker lat="41.5" lon="-86.6" site="Pulaski (Indiana, United States)"/>
<marker lat="40.116" lon="-79.75" site="Fayette (Pennsylvania, United States)"/>
<marker lat="30.316" lon="-87.283" site="Fort Pickens (Florida, United States)"/>
<marker lat="41.466" lon="-87.5" site="Porter County (Indiana, United States)"/>
<marker lat="35.883" lon="-83.933" site="Crenshaw (Tennessee, United States)"/>
<marker lat="29.716" lon="-84.983" site="Appalachicola (Florida, United States)"/>
<marker lat="43.4" lon="-73.25" site="Granville, N. Y. (New York, United States)"/>
<marker lat="30.666" lon="-81.45" site="Fernandina, Fla. (Florida, United States)"/>
<marker lat="39.516" lon="-75.8" site="Chesapeake City (Maryland, United States)"/>
<marker lat="38.816" lon="-77.516" site="Bull Run, Va. (Virginia, United States)"/>
<marker lat="36.66" lon="-79.883" site="Guilford, N. C. (North Carolina, United States)"/>
<marker lat="39.883" lon="-87.4" site="Vermillion (Indiana, United States)"/>
<marker lat="40.16" lon="-78.366" site="Bloody Run, Bedford County, Pennsylvania (Pennsylvania, United States)"/>
<marker lat="40.366" lon="-87.666" site="Rossville (Illinois, United States)"/>
<marker lat="30.6" lon="-81.45" site="Amelia Island (Florida, United States)"/>
<marker lat="37.116" lon="-76.483" site="Deep Creek (Virginia, United States)"/>
<marker lat="37.3" lon="-76.766" site="James City (Virginia, United States)"/>
<marker lat="41.33" lon="-87.15" site="Jasper (Indiana, United States)"/>
<marker lat="38.516" lon="-77.6" site="Aquia Creek (Virginia, United States)"/>
<marker lat="53.0" lon="-2.0" site="England (United Kingdom)"/>
<marker lat="35.4" lon="-75.483" site="Hatteras Island (North Carolina, United States)"/>
<marker lat="31.0" lon="-92.0" site="Louisiana (Louisiana, United States)"/>
<marker lat="37.766" lon="-122.416" site="San Francisco (California, United States)"/>
<marker lat="41.416" lon="-86.883" site="Wanatah (Indiana, United States)"/>
<marker lat="39.466" lon="-76.633" site="Cockeysville (Maryland, United States)"/>
<marker lat="28.0" lon="-82.0" site="Florida (Florida, United States)"/>
<marker lat="38.966" lon="-77.633" site="Aldie (Virginia, United States)"/>
<marker lat="40.783" lon="-85.816" site="Wabash, Ind. (Indiana, United States)"/>
<marker lat="60.0" lon="-96.0" site="Canada (Canada)"/>
<marker lat="35.0" lon="105.0" site="China (China)"/>
<marker lat="41.166" lon="-84.733" site="Antwerp, Paulding County, Ohio (Ohio, United States)"/>
<marker lat="40.833" lon="-76.0" site="Pennsylvania (Pennsylvania, United States)"/>
<marker lat="40.33" lon="-86.0" site="Hamilton County (Indiana, United States)"/>
<marker lat="35.0" lon="-93.0" site="Arkansas (Arkansas, United States)"/>
<marker lat="40.716" lon="-74.66" site="Hudson County (New Jersey, United States)"/>
<marker lat="40.733" lon="-86.75" site="Monticello (Indiana, United States)"/>
<marker lat="38.883" lon="-77.33" site="Washington (United States)"/>
<marker lat="33.916" lon="-80.333" site="Sumterville (South Carolina, United States)"/>
<marker lat="47.0" lon="8.0" site="Switzerland (Switzerland)"/>
<marker lat="23.0" lon="-102.0" site="Mexico (Mexico)"/>
<marker lat="37.2" lon="-93.283" site="Springfield, Mo. (Missouri, United States)"/>
<marker lat="40.616" lon="-76.75" site="Dauphin (Pennsylvania, United States)"/>
<marker lat="30.316" lon="-81.65" site="Jacksonville (Florida, United States)"/>
<marker lat="32.583" lon="-88.466" site="Tamola (Mississippi, United States)"/>
<marker lat="39.1" lon="-77.55" site="Leesburg (Virginia, United States)"/>
<marker lat="36.166" lon="-86.75" site="Edgefield (Tennessee, United States)"/>
<marker lat="39.83" lon="-77.65" site="Loudoun (Virginia, United States)"/>
<marker lat="41.833" lon="-87.85" site="Cook county (Illinois, United States)"/>
<marker lat="40.116" lon="-75.866" site="Chester County (Pennsylvania, United States)"/>
<marker lat="38.5" lon="-80.1" site="Elk Mountain (West Virginia, United States)"/>
<marker lat="41.416" lon="-84.383" site="Evansport (Ohio, United States)"/>
<marker lat="32.166" lon="-88.816" site="Enterprise (Mississippi, United States)"/>
<marker lat="30.183" lon="-93.666" site="Niblett's Bluff (Louisiana, United States)"/>
<marker lat="33.716" lon="-112.5" site="Union Hills (Arizona, United States)"/>
<marker lat="42.933" lon="-74.183" site="Amsterdam (New York, United States)"/>
<marker lat="40.583" lon="-74.15" site="Richmond county (New York, United States)"/>
<marker lat="-10.0" lon="-76.0" site="Peru (Peru)"/>
<marker lat="29.83" lon="-81.2" site="Volusia (Florida, United States)"/>
<marker lat="38.433" lon="-79.633" site="Jackson (Virginia, United States)"/>
<marker lat="38.6" lon="-79.933" site="Cheat Mountain (West Virginia, United States)"/>
<marker lat="41.35" lon="-87.433" site="Cedar Lake (Indiana, United States)"/>
<marker lat="37.5" lon="-78.25" site="Cumberland County (Virginia, United States)"/>
</markers>