<markers>
<marker lat="38.0" lon="-98.0" site="United States (United States)"/>
<marker lat="39.133" lon="-77.65" site="Hamilton (Virginia, United States)"/>
<marker lat="34.0" lon="-80.0" site="South Carolina (South Carolina, United States)"/>
<marker lat="35.25" lon="-77.566" site="Kinston (North Carolina, United States)"/>
<marker lat="38.15" lon="-78.83" site="North Anna (Virginia, United States)"/>
<marker lat="35.383" lon="-77.983" site="Goldsboro (North Carolina, United States)"/>
<marker lat="41.366" lon="-83.65" site="Bowling Green, Wood County, Ohio (Ohio, United States)"/>
<marker lat="35.883" lon="-83.933" site="Crenshaw (Tennessee, United States)"/>
<marker lat="38.166" lon="-77.183" site="Port Royal, Va. (Virginia, United States)"/>
<marker lat="39.95" lon="-82.716" site="Cumberland, Ohio (Ohio, United States)"/>
<marker lat="32.7" lon="-80.183" site="Stono River (South Carolina, United States)"/>
<marker lat="53.0" lon="-2.0" site="England (United Kingdom)"/>
<marker lat="38.683" lon="-77.9" site="Waterloo, Va. (Virginia, United States)"/>
<marker lat="38.866" lon="-78.1" site="Rappahannock (Virginia, United States)"/>
<marker lat="6.5" lon="-9.5" site="Liberia (Liberia)"/>
<marker lat="33.966" lon="-89.666" site="Coffeeville (Mississippi, United States)"/>
<marker lat="32.716" lon="-79.95" site="James Island (South Carolina, United States)"/>
<marker lat="38.7" lon="-77.483" site="Prince William (Virginia, United States)"/>
<marker lat="34.0" lon="-81.33" site="Columbia (South Carolina, United States)"/>
<marker lat="41.416" lon="-84.383" site="Evansport (Ohio, United States)"/>
<marker lat="46.0" lon="2.0" site="France (France)"/>
<marker lat="42.833" lon="12.833" site="Italy (Italy)"/>
<marker lat="32.583" lon="-80.15" site="Seabrook Island (South Carolina, United States)"/>
</markers>