<markers>
<marker lat="34.933" lon="-88.516" site="Corinth (Mississippi, United States)"/>
<marker lat="38.0" lon="-98.0" site="United States (United States)"/>
<marker lat="38.0" lon="-98.0" site="Missouri (Missouri, United States)"/>
<marker lat="38.916" lon="-78.183" site="Front Royal (Virginia, United States)"/>
<marker lat="33.0" lon="-87.0" site="Alabama (Alabama, United States)"/>
<marker lat="39.783" lon="-93.55" site="Chillicothe (Missouri, United States)"/>
<marker lat="41.283" lon="-72.666" site="Guilford, Conn. (Connecticut, United States)"/>
<marker lat="37.516" lon="-76.783" site="West Point (Virginia, United States)"/>
<marker lat="32.283" lon="-90.183" site="Jackson (Mississippi, United States)"/>
<marker lat="35.5" lon="-85.0" site="Tennessee (Tennessee, United States)"/>
<marker lat="37.133" lon="-85.95" site="Cave City (Kentucky, United States)"/>
<marker lat="37.316" lon="-80.733" site="Pearisburg (Virginia, United States)"/>
<marker lat="34.666" lon="-87.3" site="Courtland, Ala. (Alabama, United States)"/>
<marker lat="38.816" lon="-77.516" site="Bull Run, Va. (Virginia, United States)"/>
<marker lat="33.666" lon="-84.433" site="South River, Ga. (Georgia, United States)"/>
<marker lat="35.5" lon="-80.0" site="North Carolina (North Carolina, United States)"/>
<marker lat="34.0" lon="-80.0" site="South Carolina (South Carolina, United States)"/>
<marker lat="38.983" lon="-78.35" site="Strasburg, Va. (Virginia, United States)"/>
<marker lat="36.9" lon="-82.66" site="Lebanon (Virginia, United States)"/>
<marker lat="35.95" lon="-83.916" site="Knoxville (Tennessee, United States)"/>
<marker lat="37.383" lon="-77.6" site="Chesterfield (Virginia, United States)"/>
<marker lat="39.45" lon="-77.95" site="Martinsburg (West Virginia, United States)"/>
<marker lat="32.183" lon="-86.566" site="Hayneville, Alabama (Alabama, United States)"/>
<marker lat="39.266" lon="-80.333" site="Clarksburg (West Virginia, United States)"/>
<marker lat="46.0" lon="2.0" site="France (France)"/>
<marker lat="36.583" lon="-79.383" site="Danville (Virginia, United States)"/>
<marker lat="36.95" lon="-78.25" site="Lunenburg (Virginia, United States)"/>
<marker lat="37.8" lon="-79.433" site="Rockbridge (Virginia, United States)"/>
<marker lat="37.35" lon="-78.16" site="Amelia (Virginia, United States)"/>
<marker lat="37.95" lon="-80.416" site="Greenbrier (West Virginia, United States)"/>
<marker lat="35.566" lon="-105.766" site="Glorieta (New Mexico, United States)"/>
<marker lat="34.316" lon="-78.916" site="Cerro Gordo (North Carolina, United States)"/>
<marker lat="35.183" lon="-87.16" site="Pulaski, Tenn. (Tennessee, United States)"/>
<marker lat="37.833" lon="-83.816" site="Powell (Kentucky, United States)"/>
<marker lat="33.733" lon="-84.383" site="Atlanta (Georgia, United States)"/>
<marker lat="39.0" lon="-76.833" site="Maryland (Maryland, United States)"/>
<marker lat="36.15" lon="-85.5" site="Cooksville, Tennessee (Tennessee, United States)"/>
<marker lat="42.666" lon="-88.533" site="Elkhorn, Walworth County, Wisconsin (Wisconsin, United States)"/>
<marker lat="35.1" lon="-77.33" site="New Bern (North Carolina, United States)"/>
<marker lat="37.233" lon="-81.1" site="Rocky Gap (Virginia, United States)"/>
<marker lat="39.75" lon="-93.55" site="Livingston (Missouri, United States)"/>
<marker lat="41.35" lon="-86.433" site="Donelson (Indiana, United States)"/>
<marker lat="32.35" lon="-87.633" site="Dayton (Alabama, United States)"/>
<marker lat="41.716" lon="-73.466" site="Kent, Litchfield County, Connecticut (Connecticut, United States)"/>
<marker lat="37.433" lon="-122.133" site="Palo Alto (California, United States)"/>
<marker lat="38.4" lon="-79.566" site="Monterey (Virginia, United States)"/>
<marker lat="35.83" lon="-107.516" site="Cubero (New Mexico, United States)"/>
<marker lat="38.2" lon="-91.416" site="Oak Hill (Missouri, United States)"/>
<marker lat="38.866" lon="-78.1" site="Rappahannock (Virginia, United States)"/>
<marker lat="38.15" lon="-81.183" site="Kanawha (West Virginia, United States)"/>
<marker lat="37.55" lon="-77.45" site="Richmond (Virginia, United States)"/>
<marker lat="39.0" lon="-80.0" site="West Virginia (West Virginia, United States)"/>
<marker lat="36.2" lon="-86.283" site="Lebanon (Tennessee, United States)"/>
<marker lat="35.233" lon="-87.333" site="Lawrenceburg (Tennessee, United States)"/>
<marker lat="32.516" lon="-80.833" site="Broad River (South Carolina, United States)"/>
<marker lat="34.783" lon="-87.666" site="Florence, Ala. (Alabama, United States)"/>
<marker lat="39.283" lon="-86.75" site="Spencer (Ind.) (Indiana, United States)"/>
<marker lat="39.85" lon="-91.916" site="Burksville (Missouri, United States)"/>
<marker lat="32.45" lon="-85.85" site="Hornady (Alabama, United States)"/>
<marker lat="36.45" lon="-83.566" site="Tazewell, Tenn. (Tennessee, United States)"/>
<marker lat="39.166" lon="-91.866" site="Mexico, Mo. (Missouri, United States)"/>
<marker lat="38.5" lon="-83.933" site="Mount Sterling, Ky. (Kentucky, United States)"/>
<marker lat="33.766" lon="-83.666" site="Cowpens (Georgia, United States)"/>
<marker lat="37.416" lon="-77.16" site="Oldhouse Landing (Virginia, United States)"/>
<marker lat="39.83" lon="-77.65" site="Loudoun (Virginia, United States)"/>
<marker lat="37.0" lon="-80.0" site="Virginia (Virginia, United States)"/>
<marker lat="29.75" lon="-95.35" site="Harrisburg (Texas, United States)"/>
<marker lat="44.733" lon="-90.633" site="Clark county (Wisconsin, United States)"/>
<marker lat="37.8" lon="-80.433" site="Lewisburg (West Virginia, United States)"/>
<marker lat="37.75" lon="-77.366" site="Hanover Court House (Virginia, United States)"/>
<marker lat="37.66" lon="-88.55" site="Tennessee River (United States)"/>
<marker lat="36.9" lon="-92.483" site="Vera Cruz, Mo. (Missouri, United States)"/>
<marker lat="39.33" lon="-92.333" site="Boone County (Missouri, United States)"/>
<marker lat="32.15" lon="-86.633" site="Lowndes (Alabama, United States)"/>
<marker lat="39.466" lon="-92.0" site="Paris, Mo. (Missouri, United States)"/>
<marker lat="36.766" lon="-80.35" site="Dan River (United States)"/>
<marker lat="37.0" lon="-79.866" site="Franklin county (Virginia, United States)"/>
<marker lat="38.966" lon="-80.516" site="Lewis County (West Virginia, United States)"/>
</markers>