<markers>
<marker lat="42.35" lon="-71.35" site="Wayland (Massachusetts, United States)"/>
<marker lat="38.0" lon="-98.0" site="United States (United States)"/>
<marker lat="38.666" lon="-98.0" site="Kansas (Kansas, United States)"/>
<marker lat="42.25" lon="-71.833" site="Massachusetts (Massachusetts, United States)"/>
<marker lat="42.316" lon="-72.633" site="Northampton (Massachusetts, United States)"/>
<marker lat="34.0" lon="-80.0" site="South Carolina (South Carolina, United States)"/>
<marker lat="35.7" lon="-90.83" site="Red Line (Arkansas, United States)"/>
<marker lat="19.416" lon="-99.166" site="Mexico (Mexico, Mexico)"/>
<marker lat="42.833" lon="12.833" site="Italy (Italy)"/>
<marker lat="44.7" lon="-69.783" site="Norridgewock (Maine, United States)"/>
<marker lat="46.0" lon="2.0" site="France (France)"/>
<marker lat="42.416" lon="-71.1" site="Medford (Massachusetts, United States)"/>
<marker lat="39.0" lon="-76.833" site="Maryland (Maryland, United States)"/>
<marker lat="35.0" lon="105.0" site="China (China)"/>
<marker lat="35.5" lon="-80.0" site="North Carolina (North Carolina, United States)"/>
<marker lat="41.816" lon="-71.4" site="Providence, R. I. (Rhode Island, United States)"/>
<marker lat="27.0" lon="30.0" site="Egypt (Egypt)"/>
<marker lat="36.166" lon="-86.75" site="Edgefield (Tennessee, United States)"/>
<marker lat="30.316" lon="-87.283" site="Fort Pickens (Florida, United States)"/>
<marker lat="40.9" lon="-73.766" site="New Rochelle (New York, United States)"/>
<marker lat="32.0" lon="-84.0" site="Georgia (Georgia, United States)"/>
<marker lat="36.0" lon="138.0" site="Japan (Japan)"/>
<marker lat="42.366" lon="-71.183" site="Watertown (Massachusetts, United States)"/>
<marker lat="42.45" lon="-71.35" site="Concord (Massachusetts, United States)"/>
<marker lat="40.583" lon="-74.15" site="Staten Island (New York, United States)"/>
<marker lat="42.233" lon="-71.83" site="Milton, Mass. (Massachusetts, United States)"/>
<marker lat="38.0" lon="-98.0" site="Missouri (Missouri, United States)"/>
<marker lat="33.0" lon="-87.0" site="Alabama (Alabama, United States)"/>
<marker lat="42.8" lon="-70.866" site="Newburyport (Massachusetts, United States)"/>
<marker lat="41.83" lon="-82.866" site="Siam (Ohio, United States)"/>
<marker lat="36.333" lon="-82.15" site="Siam (Tennessee, United States)"/>
<marker lat="42.516" lon="-70.883" site="Salem (Massachusetts, United States)"/>
<marker lat="39.316" lon="-77.733" site="Harper's Ferry (West Virginia, United States)"/>
<marker lat="40.2" lon="-79.766" site="West Newton (Pennsylvania, United States)"/>
<marker lat="38.33" lon="-93.7" site="Osceola, Mo. (Missouri, United States)"/>
<marker lat="47.333" lon="13.333" site="Austria (Austria)"/>
<marker lat="44.216" lon="-69.766" site="Gardiner (Maine, United States)"/>
<marker lat="45.433" lon="12.333" site="Venice (Italy)"/>
<marker lat="41.7" lon="-71.15" site="Troy (Massachusetts, United States)"/>
<marker lat="38.6" lon="-78.783" site="Broadway (Virginia, United States)"/>
<marker lat="38.166" lon="-77.183" site="Port Royal, Va. (Virginia, United States)"/>
<marker lat="51.45" lon="5.983" site="America (Netherlands)"/>
<marker lat="53.0" lon="-2.0" site="England (United Kingdom)"/>
<marker lat="57.0" lon="-4.0" site="Scotland (United Kingdom)"/>
<marker lat="42.0" lon="-93.0" site="Iowa (Iowa, United States)"/>
<marker lat="37.766" lon="-79.383" site="South River (Virginia, United States)"/>
<marker lat="33.666" lon="-84.433" site="South River, Ga. (Georgia, United States)"/>
<marker lat="40.833" lon="-76.0" site="Pennsylvania (Pennsylvania, United States)"/>
<marker lat="23.0" lon="-102.0" site="Mexico (Mexico)"/>
<marker lat="31.366" lon="-81.433" site="Darien, Ga. (Georgia, United States)"/>
<marker lat="37.766" lon="-91.0" site="Quaker (Missouri, United States)"/>
<marker lat="51.5" lon="10.5" site="Germany (Germany)"/>
<marker lat="44.533" lon="-69.616" site="Winslow (Maine, United States)"/>
<marker lat="39.283" lon="-77.85" site="Charles Town (West Virginia, United States)"/>
<marker lat="48.866" lon="2.333" site="Department de Ville de Paris (France)"/>
<marker lat="40.0" lon="-4.0" site="Spain (Spain)"/>
<marker lat="39.3" lon="-77.85" site="Jefferson (West Virginia, United States)"/>
<marker lat="38.283" lon="-79.116" site="Parnassus (Virginia, United States)"/>
<marker lat="39.716" lon="-76.4" site="Constitution (Pennsylvania, United States)"/>
<marker lat="34.45" lon="-85.483" site="Alpine, Ga. (Georgia, United States)"/>
<marker lat="42.366" lon="-71.783" site="West Boylston (Massachusetts, United States)"/>
<marker lat="59.333" lon="18.83" site="Stockholm (Sweden)"/>
<marker lat="39.283" lon="-76.6" site="Baltimore, Md. (Maryland, United States)"/>
<marker lat="35.1" lon="-84.65" site="Orrs Island (Tennessee, United States)"/>
<marker lat="41.5" lon="-100.0" site="Nebraska (Nebraska, United States)"/>
<marker lat="37.4" lon="-5.983" site="Seville (Spain)"/>
<marker lat="39.516" lon="-87.116" site="Brazil, Clay County, Indiana (Indiana, United States)"/>
<marker lat="42.83" lon="-71.35" site="Mill (Massachusetts, United States)"/>
<marker lat="42.35" lon="-71.5" site="Boston (Massachusetts, United States)"/>
<marker lat="40.616" lon="-75.35" site="Bethlehem (Pennsylvania, United States)"/>
<marker lat="33.133" lon="-83.5" site="Sheba (Georgia, United States)"/>
<marker lat="33.45" lon="-105.733" site="Christmas (New Mexico, United States)"/>
<marker lat="36.833" lon="-76.283" site="Norfolk (Virginia, United States)"/>
<marker lat="42.766" lon="-70.883" site="Newbury, Mass. (Massachusetts, United States)"/>
<marker lat="41.483" lon="-71.3" site="Newport (Rhode Island, United States)"/>
<marker lat="43.433" lon="-71.65" site="Merrimack (United States)"/>
<marker lat="34.25" lon="-85.15" site="Rome, Ga. (Georgia, United States)"/>
<marker lat="44.25" lon="-70.5" site="Paris, Me. (Maine, United States)"/>
<marker lat="40.616" lon="14.366" site="Sorrento (Italy)"/>
<marker lat="40.75" lon="14.483" site="Pompeii (Italy)"/>
<marker lat="36.316" lon="-77.583" site="Halifax, N. C. (North Carolina, United States)"/>
<marker lat="42.45" lon="-71.66" site="Melrose (Massachusetts, United States)"/>
<marker lat="43.633" lon="-72.0" site="Canaan, N. H. (New Hampshire, United States)"/>
<marker lat="34.283" lon="-80.1" site="Lydia (South Carolina, United States)"/>
<marker lat="60.0" lon="47.0" site="Russia (Russia)"/>
<marker lat="32.166" lon="-81.383" site="Eden (Georgia, United States)"/>
<marker lat="40.0" lon="-89.0" site="Illinois (Illinois, United States)"/>
<marker lat="44.1" lon="-73.816" site="Essex County (New York, United States)"/>
<marker lat="44.983" lon="-122.833" site="Selah (Oregon, United States)"/>
<marker lat="38.33" lon="-84.5" site="Lexington (Kentucky, United States)"/>
<marker lat="60.0" lon="-96.0" site="Canada (Canada)"/>
<marker lat="38.966" lon="-95.233" site="Lawrence, Kansas (Kansas, United States)"/>
<marker lat="40.5" lon="-78.616" site="Loretto, Pa. (Pennsylvania, United States)"/>
<marker lat="40.733" lon="-75.3" site="Nazareth, Pennsylvania (Pennsylvania, United States)"/>
<marker lat="37.55" lon="-77.45" site="Richmond (Virginia, United States)"/>
<marker lat="39.0" lon="-80.0" site="West Virginia (West Virginia, United States)"/>
<marker lat="34.716" lon="-76.733" site="Carolina City (North Carolina, United States)"/>
<marker lat="38.3" lon="-77.45" site="Fredericksburg, Va. (Virginia, United States)"/>
<marker lat="40.483" lon="-78.0" site="Huntingdon, Pa. (Pennsylvania, United States)"/>
<marker lat="41.833" lon="-72.833" site="Connecticut (Connecticut, United States)"/>
<marker lat="34.183" lon="-79.75" site="Florence, S. C. (South Carolina, United States)"/>
<marker lat="40.0" lon="-110.0" site="Utah (Utah, United States)"/>
<marker lat="44.75" lon="-69.716" site="Skowhegan (Maine, United States)"/>
<marker lat="39.0" lon="-78.15" site="Nineveh (Virginia, United States)"/>
<marker lat="52.5" lon="5.75" site="Holland (Netherlands)"/>
<marker lat="31.66" lon="35.383" site="Sodom (Israel)"/>
<marker lat="38.55" lon="-79.833" site="Early Spring (West Virginia, United States)"/>
<marker lat="37.16" lon="-78.883" site="Patrick Henry (Virginia, United States)"/>
<marker lat="37.16" lon="-76.333" site="Hampton (Virginia, United States)"/>
<marker lat="39.95" lon="-76.716" site="York, Pa. (Pennsylvania, United States)"/>
<marker lat="37.33" lon="-89.183" site="Cairo, Ill. (Illinois, United States)"/>
<marker lat="43.2" lon="-71.533" site="Concord, N. H. (New Hampshire, United States)"/>
<marker lat="42.366" lon="-71.3" site="Weston (Massachusetts, United States)"/>
<marker lat="42.33" lon="-70.666" site="Duxbury (Massachusetts, United States)"/>
<marker lat="40.116" lon="-75.866" site="Chester County (Pennsylvania, United States)"/>
<marker lat="37.0" lon="-80.0" site="Virginia (Virginia, United States)"/>
<marker lat="42.7" lon="-71.15" site="Lawrence (Massachusetts, United States)"/>
<marker lat="50.8" lon="-1.83" site="Portsmouth (United Kingdom)"/>
<marker lat="42.316" lon="-71.83" site="Roxbury, Mass. (Massachusetts, United States)"/>
<marker lat="32.366" lon="-80.683" site="Port Royal (South Carolina, United States)"/>
<marker lat="42.533" lon="-71.9" site="Westminster (Massachusetts, United States)"/>
<marker lat="56.0" lon="10.0" site="Denmark (Denmark)"/>
<marker lat="41.833" lon="-70.0" site="Cape Cod (Massachusetts, United States)"/>
<marker lat="42.633" lon="-70.633" site="Cape Ann (Massachusetts, United States)"/>
<marker lat="39.0" lon="22.0" site="Greece (Greece)"/>
<marker lat="39.5" lon="-8.0" site="Portugal (Portugal)"/>
<marker lat="62.0" lon="15.0" site="Sweden (Sweden)"/>
<marker lat="38.366" lon="-79.366" site="Highland County (Virginia, United States)"/>
<marker lat="44.433" lon="-70.55" site="Concord River (Maine, United States)"/>
<marker lat="43.25" lon="-79.5" site="Fort Niagara (New York, United States)"/>
</markers>