<markers>
<marker lat="36.983" lon="-89.133" site="Ohio (United States)"/>
<marker lat="42.7" lon="-74.916" site="Susquehanna (United States)"/>
<marker lat="38.0" lon="-98.0" site="United States (United States)"/>
<marker lat="43.1" lon="-76.416" site="Erie Canal (New York, United States)"/>
<marker lat="40.35" lon="-84.75" site="Ouabache (United States)"/>
<marker lat="44.0" lon="-87.0" site="Lake Michigan (United States)"/>
<marker lat="41.266" lon="-72.333" site="Connecticut River (United States)"/>
<marker lat="43.5" lon="-78.0" site="Lake Ontario"/>
<marker lat="35.85" lon="-94.283" site="Illinois river (United States)"/>
<marker lat="41.116" lon="-85.116" site="Fort Wayne (Indiana, United States)"/>
<marker lat="43.366" lon="-75.466" site="Mohawk (New York, United States)"/>
<marker lat="41.85" lon="-87.65" site="Chicago (Illinois, United States)"/>
<marker lat="41.933" lon="-75.266" site="South river (United States)"/>
<marker lat="42.0" lon="-81.0" site="Lake Erie (United States)"/>
<marker lat="40.2" lon="-84.233" site="Erie Canal (Ohio, United States)"/>
<marker lat="40.566" lon="-78.716" site="Alleghany River (Pennsylvania, United States)"/>
<marker lat="38.25" lon="-85.75" site="Louisville (Kentucky, United States)"/>
<marker lat="44.83" lon="-95.683" site="Des Moines River (United States)"/>
<marker lat="45.583" lon="-69.7" site="Kennebec (Maine, United States)"/>
<marker lat="42.233" lon="-84.733" site="Kalamazoo (Michigan, United States)"/>
<marker lat="46.533" lon="-86.5" site="Fox River (Michigan, United States)"/>
<marker lat="41.25" lon="-95.933" site="Omaha (Nebraska, United States)"/>
<marker lat="43.5" lon="-91.133" site="Prairie Du Chien (Wisconsin, United States)"/>
<marker lat="40.383" lon="-91.383" site="Keokuk, Iowa (Iowa, United States)"/>
<marker lat="40.25" lon="-75.783" site="Schuylkill (Pennsylvania, United States)"/>
<marker lat="42.55" lon="-88.183" site="Fox River (Wisconsin, United States)"/>
<marker lat="44.516" lon="-88.16" site="Green Bay (Wisconsin, United States)"/>
<marker lat="40.0" lon="-75.0" site="New Jersey (New Jersey, United States)"/>
<marker lat="39.816" lon="-83.566" site="Riviere Blanche (Ohio, United States)"/>
<marker lat="30.183" lon="-82.633" site="Lake City (Florida, United States)"/>
<marker lat="40.8" lon="-91.1" site="Burlington, Iowa (Iowa, United States)"/>
<marker lat="42.633" lon="-76.866" site="Seneca Lake (New York, United States)"/>
<marker lat="43.433" lon="-71.65" site="Merrimack (United States)"/>
<marker lat="44.16" lon="-123.16" site="Willamette (Oregon, United States)"/>
<marker lat="39.5" lon="-96.8" site="Kaw river (Kansas, United States)"/>
<marker lat="40.266" lon="-81.866" site="Muskingum River (Ohio, United States)"/>
<marker lat="40.55" lon="-78.66" site="Juniata (Pennsylvania, United States)"/>
<marker lat="35.5" lon="-85.0" site="Tennessee (Tennessee, United States)"/>
<marker lat="31.133" lon="-87.933" site="Alabama river (Alabama, United States)"/>
<marker lat="45.3" lon="-96.45" site="St. Peters River (Minnesota, United States)"/>
<marker lat="37.966" lon="-87.55" site="Evansville (Indiana, United States)"/>
<marker lat="43.133" lon="-93.683" site="Iowa River (Iowa, United States)"/>
<marker lat="44.583" lon="-92.5" site="Wisconsin (Wisconsin, United States)"/>
<marker lat="43.833" lon="-92.8" site="Red Cedar River (United States)"/>
<marker lat="38.8" lon="-77.33" site="Alexandria (Virginia, United States)"/>
<marker lat="41.66" lon="-85.116" site="Maumee river (United States)"/>
<marker lat="35.5" lon="-80.0" site="North Carolina (North Carolina, United States)"/>
<marker lat="40.783" lon="-82.783" site="Sandusky (Ohio, United States)"/>
<marker lat="34.416" lon="-88.416" site="Tombigbee River (United States)"/>
<marker lat="40.6" lon="-83.866" site="Scioto (Ohio, United States)"/>
<marker lat="37.33" lon="-89.183" site="Cairo, Ill. (Illinois, United States)"/>
<marker lat="43.383" lon="-83.95" site="Saginaw (Michigan, United States)"/>
<marker lat="43.33" lon="-87.9" site="Milwaukee (Wisconsin, United States)"/>
<marker lat="39.283" lon="-76.6" site="Baltimore, Md. (Maryland, United States)"/>
<marker lat="40.766" lon="-75.6" site="Lehigh (Pennsylvania, United States)"/>
<marker lat="40.683" lon="-89.583" site="Peoria (Illinois, United States)"/>
<marker lat="32.466" lon="-84.983" site="Chattahoochee River, Ga. (Georgia, United States)"/>
<marker lat="40.333" lon="-83.666" site="Zanesville, Ohio (Ohio, United States)"/>
<marker lat="49.5" lon="-65.0" site="St. Lawrence"/>
<marker lat="41.916" lon="-73.983" site="Kingston, N. Y. (New York, United States)"/>
<marker lat="41.65" lon="-83.55" site="Vistula (Ohio, United States)"/>
<marker lat="39.983" lon="-88.35" site="Kaskaskia (Illinois, United States)"/>
<marker lat="42.866" lon="-75.633" site="Chenango (New York, United States)"/>
<marker lat="39.766" lon="-86.15" site="Indianapolis (Indiana, United States)"/>
<marker lat="37.766" lon="-122.416" site="San Francisco (California, United States)"/>
<marker lat="39.766" lon="-94.833" site="St. Joseph, Mo. (Missouri, United States)"/>
<marker lat="40.433" lon="-79.983" site="Pittsburgh (Pennsylvania, United States)"/>
<marker lat="51.416" lon="-118.5" site="Columbia River (United States)"/>
<marker lat="46.316" lon="-91.8" site="Saint Croix River (United States)"/>
<marker lat="39.466" lon="-80.166" site="Monongahela River (United States)"/>
<marker lat="42.716" lon="-73.683" site="Troy, N. Y. (New York, United States)"/>
<marker lat="43.25" lon="-77.6" site="Genesee River (United States)"/>
<marker lat="41.6" lon="-71.316" site="Narragansett Bay (Rhode Island, United States)"/>
<marker lat="41.516" lon="-90.566" site="Davenport (Iowa, United States)"/>
<marker lat="39.516" lon="-78.583" site="Potomac River (United States)"/>
<marker lat="33.66" lon="-101.65" site="Brazos River (Texas, United States)"/>
<marker lat="41.83" lon="-73.0" site="Long Island Sound (United States)"/>
<marker lat="40.816" lon="-80.9" site="Mahoning River (United States)"/>
<marker lat="46.55" lon="-69.883" site="Saint John River (Maine, United States)"/>
<marker lat="30.266" lon="-97.733" site="Austin (Texas, United States)"/>
<marker lat="42.366" lon="-70.75" site="Massachusetts Bay (Massachusetts, United States)"/>
<marker lat="37.65" lon="-79.35" site="Otter Creek (Virginia, United States)"/>
<marker lat="42.633" lon="-76.1" site="East River (New York, United States)"/>
<marker lat="41.25" lon="-95.85" site="Council Bluffs (Iowa, United States)"/>
<marker lat="32.666" lon="-101.716" site="Colorado (Texas, United States)"/>
<marker lat="42.15" lon="-77.83" site="Chemung River (New York, United States)"/>
<marker lat="43.35" lon="-76.416" site="Oswego (New York, United States)"/>
<marker lat="38.766" lon="-96.75" site="Neosho (United States)"/>
<marker lat="34.683" lon="-94.316" site="Ouachita (United States)"/>
<marker lat="43.65" lon="-70.25" site="Portland (Maine, United States)"/>
<marker lat="43.466" lon="-80.533" site="Waterloo (Canada)"/>
<marker lat="41.5" lon="-89.5" site="Wenona (Illinois, United States)"/>
<marker lat="39.933" lon="-91.4" site="Quincy, Ill. (Illinois, United States)"/>
<marker lat="41.5" lon="-90.566" site="Rock Island, Ill. (Illinois, United States)"/>
<marker lat="39.466" lon="-87.4" site="Terre Haute (Indiana, United States)"/>
<marker lat="39.816" lon="-84.883" site="Smithville (Indiana, United States)"/>
<marker lat="43.266" lon="-86.15" site="Muskegon River (Michigan, United States)"/>
<marker lat="42.716" lon="-83.5" site="Shiawassee (Michigan, United States)"/>
<marker lat="40.0" lon="-86.0" site="Indiana (Indiana, United States)"/>
<marker lat="39.0" lon="-75.666" site="Delaware (Delaware, United States)"/>
<marker lat="40.833" lon="-76.0" site="Pennsylvania (Pennsylvania, United States)"/>
<marker lat="38.883" lon="-77.33" site="Washington (United States)"/>
<marker lat="40.433" lon="-88.733" site="Sangamon (Illinois, United States)"/>
<marker lat="42.366" lon="-71.5" site="Charles (Massachusetts, United States)"/>
<marker lat="42.933" lon="-76.733" site="Cayuga Lake (New York, United States)"/>
<marker lat="44.933" lon="-93.83" site="St. Paul (Minnesota, United States)"/>
<marker lat="39.55" lon="-121.45" site="Feather (California, United States)"/>
<marker lat="43.33" lon="-76.133" site="Syracuse (New York, United States)"/>
<marker lat="41.666" lon="-74.866" site="Lake Superior (New York, United States)"/>
<marker lat="39.916" lon="-83.8" site="Springfield, Clark County, Ohio (Ohio, United States)"/>
<marker lat="40.716" lon="-74.66" site="Hudson (New Jersey, United States)"/>
<marker lat="40.466" lon="-83.866" site="Rocky River (United States)"/>
<marker lat="45.5" lon="-73.6" site="Montreal (Canada)"/>
<marker lat="36.166" lon="-86.75" site="Edgefield (Tennessee, United States)"/>
<marker lat="30.66" lon="-99.316" site="Guadalupe (Texas, United States)"/>
<marker lat="36.83" lon="-80.233" site="Salem (North Carolina, United States)"/>
<marker lat="40.5" lon="-80.716" site="Wheeling, W. Va. (West Virginia, United States)"/>
<marker lat="45.0" lon="-90.0" site="Wisconsin (Wisconsin, United States)"/>
<marker lat="40.66" lon="-85.1" site="Whitewater (United States)"/>
<marker lat="39.95" lon="-74.183" site="Tom's River (New Jersey, United States)"/>
<marker lat="41.266" lon="-122.4" site="Sacramento (California, United States)"/>
<marker lat="35.216" lon="-80.833" site="Charlotte (North Carolina, United States)"/>
<marker lat="42.516" lon="-92.433" site="Cedar Falls (Iowa, United States)"/>
<marker lat="39.833" lon="-88.95" site="Decatur (Illinois, United States)"/>
<marker lat="41.333" lon="-86.3" site="Plymouth, Marshall County, Indiana (Indiana, United States)"/>
<marker lat="40.75" lon="-92.716" site="Fox River (Iowa, United States)"/>
<marker lat="35.666" lon="-92.733" site="Arkansas (United States)"/>
<marker lat="43.516" lon="-71.466" site="Laconia (New Hampshire, United States)"/>
<marker lat="39.4" lon="-81.45" site="Campus Martius (Ohio, United States)"/>
<marker lat="39.25" lon="-121.0" site="Nevada City (California, United States)"/>
<marker lat="33.733" lon="-84.383" site="Atlanta (Georgia, United States)"/>
<marker lat="41.55" lon="-72.65" site="Middletown (Connecticut, United States)"/>
<marker lat="29.3" lon="-94.783" site="Galveston (Texas, United States)"/>
<marker lat="39.3" lon="-94.916" site="Leavenworth, Kansas (Kansas, United States)"/>
<marker lat="36.6" lon="-121.883" site="Monterey (California, United States)"/>
<marker lat="43.533" lon="-92.633" site="Wapsipinicon River (United States)"/>
<marker lat="42.9" lon="-94.966" site="Racoon River (Iowa, United States)"/>
<marker lat="38.816" lon="-90.183" site="Missouri (United States)"/>
<marker lat="44.966" lon="-93.25" site="Minneapolis (Minnesota, United States)"/>
<marker lat="40.75" lon="-86.66" site="Peru, Ind. (Indiana, United States)"/>
<marker lat="44.66" lon="-88.33" site="Manitowoc (Wisconsin, United States)"/>
<marker lat="42.316" lon="-85.166" site="Battle Creek (Michigan, United States)"/>
<marker lat="35.266" lon="-120.65" site="San Luis Obispo (California, United States)"/>
<marker lat="45.0" lon="-69.0" site="Maine (Maine, United States)"/>
<marker lat="44.0" lon="-85.0" site="Michigan (Michigan, United States)"/>
<marker lat="44.966" lon="-73.35" site="Richelieu River (United States)"/>
<marker lat="40.416" lon="-81.4" site="Ohio Canal (Ohio, United States)"/>
<marker lat="31.95" lon="-90.983" site="Port Gibson (Mississippi, United States)"/>
<marker lat="43.7" lon="-88.283" site="Milwaukee (Wisconsin, United States)"/>
<marker lat="38.683" lon="-83.6" site="Manchester, Adams County, Ohio (Ohio, United States)"/>
<marker lat="34.85" lon="-82.383" site="Greenville (South Carolina, United States)"/>
<marker lat="40.4" lon="-88.16" site="Middle Fork Vermilion River (Illinois, United States)"/>
<marker lat="31.55" lon="-91.4" site="Natchez (Mississippi, United States)"/>
<marker lat="42.35" lon="-71.5" site="Boston (Massachusetts, United States)"/>
<marker lat="35.1" lon="-77.33" site="New Bern (North Carolina, United States)"/>
<marker lat="47.233" lon="-95.2" site="Mississippi (United States)"/>
<marker lat="49.666" lon="-125.833" site="Vancouver Island (Canada)"/>
<marker lat="36.583" lon="-90.983" site="Doherty (Missouri, United States)"/>
<marker lat="40.683" lon="-75.216" site="Easton, Pa. (Pennsylvania, United States)"/>
<marker lat="44.466" lon="-73.2" site="Burlington (Vermont, United States)"/>
<marker lat="38.766" lon="-94.8" site="Spring Hill (Kansas, United States)"/>
<marker lat="41.4" lon="-74.316" site="Goshen, N. Y. (New York, United States)"/>
<marker lat="41.6" lon="-86.4" site="Illinois River (United States)"/>
<marker lat="37.916" lon="-79.33" site="Saint Marys River (Virginia, United States)"/>
<marker lat="42.966" lon="-82.416" site="Port Huron (Michigan, United States)"/>
<marker lat="42.783" lon="-83.4" site="Clinton (Michigan, United States)"/>
<marker lat="44.5" lon="-91.633" site="Winona (Minnesota, United States)"/>
<marker lat="41.483" lon="-78.666" site="Clarion (Pennsylvania, United States)"/>
<marker lat="41.283" lon="-70.83" site="Nantucket (Massachusetts, United States)"/>
<marker lat="1.0" lon="-40.0" site="Atlantic Ocean"/>
<marker lat="37.566" lon="-83.7" site="Kentucky River (Kentucky, United States)"/>
<marker lat="43.8" lon="-91.233" site="La Crosse (Wisconsin, United States)"/>
<marker lat="39.5" lon="-82.633" site="Jackson, Jackson County, Ohio (Ohio, United States)"/>
<marker lat="25.0" lon="-90.0" site="Gulf of Mexico"/>
<marker lat="45.516" lon="-122.666" site="Portland (Oregon, United States)"/>
<marker lat="42.66" lon="-78.416" site="Olean (New York, United States)"/>
<marker lat="32.783" lon="-96.866" site="Trinity (Texas, United States)"/>
<marker lat="42.95" lon="-82.4" site="Sarnia (Canada)"/>
<marker lat="39.83" lon="-87.4" site="Sullivan, Sullivan County, Indiana (Indiana, United States)"/>
<marker lat="39.5" lon="-84.383" site="Middletown (Ohio, United States)"/>
<marker lat="44.16" lon="-88.416" site="Lake Winnebago (Wisconsin, United States)"/>
<marker lat="40.75" lon="-74.566" site="Passaic (New Jersey, United States)"/>
<marker lat="42.566" lon="-71.833" site="North Nashua River (Massachusetts, United States)"/>
<marker lat="42.1" lon="-86.466" site="Newburyport (Michigan, United States)"/>
<marker lat="43.2" lon="-75.45" site="Fort Stanwix (New York, United States)"/>
<marker lat="42.566" lon="-70.916" site="Danvers (Massachusetts, United States)"/>
<marker lat="36.83" lon="-78.8" site="Neuse (North Carolina, United States)"/>
<marker lat="42.866" lon="-76.966" site="Geneva, N. Y. (New York, United States)"/>
<marker lat="42.9" lon="-76.533" site="Owasco Lake (New York, United States)"/>
<marker lat="40.7" lon="-89.55" site="Peoria Lake (Illinois, United States)"/>
<marker lat="44.733" lon="-92.8" site="Prescott (Wisconsin, United States)"/>
<marker lat="36.16" lon="-76.45" site="Bluff Point (North Carolina, United States)"/>
<marker lat="41.7" lon="-71.183" site="Taunton (Massachusetts, United States)"/>
<marker lat="43.35" lon="-91.2" site="Lansing (Iowa, United States)"/>
<marker lat="41.866" lon="-71.366" site="Pawtucket (Rhode Island, United States)"/>
<marker lat="42.65" lon="-73.75" site="Albany (New York, United States)"/>
<marker lat="44.45" lon="-89.533" site="Plover, Portage County, Wisconsin (Wisconsin, United States)"/>
<marker lat="40.55" lon="-74.683" site="Raritan (New Jersey, United States)"/>
<marker lat="42.516" lon="-70.883" site="Salem (Massachusetts, United States)"/>
<marker lat="43.416" lon="-83.95" site="Saginaw (Michigan, United States)"/>
</markers>