<markers>
<marker lat="38.0" lon="-98.0" site="United States (United States)"/>
<marker lat="35.5" lon="-80.0" site="North Carolina (North Carolina, United States)"/>
<marker lat="38.816" lon="-77.516" site="Bull Run, Va. (Virginia, United States)"/>
<marker lat="38.0" lon="-98.0" site="Missouri (Missouri, United States)"/>
<marker lat="30.316" lon="-87.283" site="Fort Pickens (Florida, United States)"/>
<marker lat="53.0" lon="-2.0" site="England (United Kingdom)"/>
<marker lat="39.0" lon="-76.833" site="Maryland (Maryland, United States)"/>
<marker lat="35.0" lon="-93.0" site="Arkansas (Arkansas, United States)"/>
<marker lat="35.5" lon="-85.0" site="Tennessee (Tennessee, United States)"/>
<marker lat="37.33" lon="-89.183" site="Cairo, Ill. (Illinois, United States)"/>
<marker lat="38.983" lon="-76.15" site="Queenstown, Md. (Maryland, United States)"/>
<marker lat="42.633" lon="-76.1" site="East River (New York, United States)"/>
<marker lat="36.966" lon="-76.35" site="Hampton Roads (Virginia, United States)"/>
<marker lat="36.7" lon="-81.966" site="Abingdon, Va. (Virginia, United States)"/>
<marker lat="39.0" lon="-80.0" site="West Virginia (West Virginia, United States)"/>
<marker lat="43.33" lon="-76.133" site="Syracuse (New York, United States)"/>
<marker lat="38.9" lon="-77.25" site="Vienna (Virginia, United States)"/>
<marker lat="35.683" lon="-75.716" site="Old Point (North Carolina, United States)"/>
<marker lat="36.816" lon="-79.4" site="Pittsylvania (Virginia, United States)"/>
<marker lat="39.133" lon="-77.416" site="Poolesville (Maryland, United States)"/>
<marker lat="33.0" lon="-87.0" site="Alabama (Alabama, United States)"/>
<marker lat="38.85" lon="-77.35" site="Fairfax (Virginia, United States)"/>
<marker lat="37.366" lon="-77.5" site="Chesterfield (Virginia, United States)"/>
<marker lat="40.583" lon="-80.65" site="Baker Island (West Virginia, United States)"/>
<marker lat="36.883" lon="-76.35" site="Craney Island (Virginia, United States)"/>
<marker lat="37.83" lon="-88.6" site="Paducah (Kentucky, United States)"/>
<marker lat="31.0" lon="-92.0" site="Louisiana (Louisiana, United States)"/>
<marker lat="40.0" lon="-89.0" site="Illinois (Illinois, United States)"/>
<marker lat="60.0" lon="-96.0" site="Canada (Canada)"/>
<marker lat="35.0" lon="105.0" site="China (China)"/>
<marker lat="34.0" lon="-80.0" site="South Carolina (South Carolina, United States)"/>
<marker lat="38.4" lon="-77.33" site="Mathias Point (Virginia, United States)"/>
<marker lat="39.55" lon="-76.3" site="Harford (Maryland, United States)"/>
<marker lat="39.15" lon="-77.2" site="Montgomery County (Maryland, United States)"/>
<marker lat="38.3" lon="-77.45" site="Fredericksburg, Va. (Virginia, United States)"/>
<marker lat="32.75" lon="-79.833" site="Sullivan's Island (South Carolina, United States)"/>
<marker lat="42.433" lon="-76.483" site="Ithaca (New York, United States)"/>
<marker lat="40.766" lon="-111.883" site="Capitol (Utah, United States)"/>
<marker lat="39.266" lon="-80.333" site="Clarksburg (West Virginia, United States)"/>
<marker lat="46.0" lon="2.0" site="France (France)"/>
<marker lat="47.333" lon="13.333" site="Austria (Austria)"/>
<marker lat="38.6" lon="-79.933" site="Cheat Mountain (West Virginia, United States)"/>
<marker lat="42.833" lon="12.833" site="Italy (Italy)"/>
<marker lat="38.75" lon="-78.1" site="Flint Hill (Virginia, United States)"/>
<marker lat="36.216" lon="-81.666" site="Boone, N. C. (North Carolina, United States)"/>
<marker lat="36.95" lon="-76.316" site="Sewell's Point (Virginia, United States)"/>
<marker lat="39.5" lon="-78.966" site="Moorefield (West Virginia, United States)"/>
<marker lat="36.566" lon="-89.183" site="Hickman, Ky. (Kentucky, United States)"/>
<marker lat="39.55" lon="-94.683" site="Platte River (Missouri, United States)"/>
<marker lat="35.216" lon="-75.516" site="Cape Hatteras (North Carolina, United States)"/>
<marker lat="35.183" lon="-75.716" site="Clark (North Carolina, United States)"/>
<marker lat="43.33" lon="-74.85" site="Little Falls, N. Y. (New York, United States)"/>
<marker lat="29.683" lon="-91.2" site="Brashear City (Louisiana, United States)"/>
<marker lat="37.95" lon="-91.766" site="Rolla, Mo. (Missouri, United States)"/>
<marker lat="38.416" lon="-81.783" site="Cross Lanes (West Virginia, United States)"/>
<marker lat="40.183" lon="-92.566" site="Kirksville (Missouri, United States)"/>
<marker lat="38.683" lon="-77.483" site="Occoquan River (Virginia, United States)"/>
<marker lat="29.716" lon="-84.983" site="Appalachicola (Florida, United States)"/>
<marker lat="52.83" lon="4.266" site="The Hague (Netherlands)"/>
<marker lat="51.66" lon="-1.25" site="Hampshire (United Kingdom)"/>
<marker lat="34.25" lon="-85.15" site="Rome, Ga. (Georgia, United States)"/>
<marker lat="30.666" lon="-81.45" site="Fernandina, Fla. (Florida, United States)"/>
<marker lat="40.1" lon="-96.15" site="Pawnee City (Nebraska, United States)"/>
<marker lat="31.116" lon="-91.25" site="Wilkinson (Mississippi, United States)"/>
<marker lat="39.933" lon="-91.4" site="Quincy, Ill. (Illinois, United States)"/>
<marker lat="36.316" lon="-77.583" site="Halifax, N. C. (North Carolina, United States)"/>
<marker lat="37.55" lon="-78.65" site="North River (Virginia, United States)"/>
<marker lat="39.33" lon="-76.66" site="Centreville (Maryland, United States)"/>
<marker lat="35.133" lon="-90.33" site="Memphis (Tennessee, United States)"/>
<marker lat="38.4" lon="-79.566" site="Monterey (Virginia, United States)"/>
<marker lat="29.983" lon="-84.516" site="Crooked River (Florida, United States)"/>
<marker lat="37.116" lon="-76.483" site="Deep Creek (Virginia, United States)"/>
<marker lat="22.5" lon="88.333" site="Calcutta (West Bengal, India)"/>
<marker lat="42.65" lon="-73.75" site="Albany (New York, United States)"/>
<marker lat="32.0" lon="-84.0" site="Georgia (Georgia, United States)"/>
<marker lat="38.866" lon="-78.1" site="Rappahannock (Virginia, United States)"/>
<marker lat="38.516" lon="-78.66" site="Salem, Va. (Virginia, United States)"/>
<marker lat="40.0" lon="-75.66" site="Bridesburg (Pennsylvania, United States)"/>
<marker lat="36.0" lon="138.0" site="Japan (Japan)"/>
<marker lat="39.0" lon="35.0" site="Turquie (Turkey)"/>
<marker lat="40.833" lon="-76.0" site="Pennsylvania (Pennsylvania, United States)"/>
<marker lat="36.916" lon="-89.35" site="Charleston, Mo. (Missouri, United States)"/>
<marker lat="37.916" lon="-80.383" site="Frankford, W. Va. (West Virginia, United States)"/>
<marker lat="37.55" lon="-77.45" site="Richmond (Virginia, United States)"/>
<marker lat="38.883" lon="-77.33" site="Washington (United States)"/>
<marker lat="39.466" lon="-77.4" site="Frederick (Maryland, United States)"/>
<marker lat="39.616" lon="-77.766" site="Washington county (Maryland, United States)"/>
<marker lat="34.716" lon="-76.733" site="Carolina City (North Carolina, United States)"/>
<marker lat="32.283" lon="-90.183" site="Jackson (Mississippi, United States)"/>
<marker lat="38.783" lon="-80.566" site="Bulltown (West Virginia, United States)"/>
<marker lat="43.0" lon="17.833" site="Herzegovina (Bosnia and Hercegovina)"/>
<marker lat="38.983" lon="-78.35" site="Strasburg, Va. (Virginia, United States)"/>
<marker lat="37.0" lon="-119.0" site="California (California, United States)"/>
<marker lat="38.66" lon="-77.183" site="Port Tobacco Creek (Virginia, United States)"/>
<marker lat="40.833" lon="14.25" site="Naples (Italy)"/>
<marker lat="43.816" lon="-72.716" site="Olympus (Vermont, United States)"/>
<marker lat="34.633" lon="-77.95" site="Washington, N. C. (North Carolina, United States)"/>
<marker lat="33.55" lon="-87.183" site="Black Warrior (Alabama, United States)"/>
<marker lat="40.0" lon="-110.0" site="Utah (Utah, United States)"/>
<marker lat="37.2" lon="-93.283" site="Springfield, Mo. (Missouri, United States)"/>
<marker lat="38.166" lon="-81.183" site="Gauley Bridge (West Virginia, United States)"/>
<marker lat="38.566" lon="-92.166" site="Jefferson City (Missouri, United States)"/>
<marker lat="18.933" lon="72.85" site="Bombay (Maharashtra, India)"/>
<marker lat="38.33" lon="-81.0" site="Boone Court House (West Virginia, United States)"/>
<marker lat="31.1" lon="121.366" site="Shanghai (China)"/>
<marker lat="40.566" lon="-89.633" site="Pekin (Illinois, United States)"/>
<marker lat="37.266" lon="-76.16" site="Cape Charles (Virginia, United States)"/>
<marker lat="39.633" lon="-77.716" site="Hagerstown (Maryland, United States)"/>
<marker lat="42.716" lon="-73.683" site="Troy, N. Y. (New York, United States)"/>
<marker lat="39.7" lon="-91.35" site="Hannibal (Missouri, United States)"/>
<marker lat="39.83" lon="-77.65" site="Loudoun (Virginia, United States)"/>
<marker lat="49.666" lon="4.75" site="Ardennes (France)"/>
<marker lat="38.7" lon="-77.83" site="Mount Vernon (Virginia, United States)"/>
<marker lat="43.0" lon="-84.55" site="St. Johns (Michigan, United States)"/>
<marker lat="34.683" lon="-82.833" site="Seneca river (South Carolina, United States)"/>
<marker lat="35.33" lon="-85.3" site="Chattanooga (Tennessee, United States)"/>
<marker lat="32.316" lon="-90.6" site="Edward's Depot (Mississippi, United States)"/>
<marker lat="40.416" lon="-3.716" site="Madrid (Spain)"/>
<marker lat="40.733" lon="-73.933" site="Long Island City (New York, United States)"/>
<marker lat="35.216" lon="-80.833" site="Charlotte (North Carolina, United States)"/>
<marker lat="32.766" lon="-79.916" site="Charleston (South Carolina, United States)"/>
<marker lat="39.33" lon="-92.333" site="Boone County (Missouri, United States)"/>
<marker lat="37.3" lon="-89.516" site="Cape Girardeau (Missouri, United States)"/>
<marker lat="37.633" lon="-76.5" site="Towles Point (Virginia, United States)"/>
<marker lat="42.216" lon="-78.266" site="Cuba, N. Y. (New York, United States)"/>
<marker lat="65.0" lon="-18.0" site="Iceland (Iceland)"/>
<marker lat="39.5" lon="-8.0" site="Portugal (Portugal)"/>
<marker lat="38.866" lon="-77.166" site="Fall's Church (Virginia, United States)"/>
<marker lat="37.5" lon="-78.25" site="Cumberland County (Virginia, United States)"/>
<marker lat="35.25" lon="-88.983" site="Bolivar, Tenn. (Tennessee, United States)"/>
<marker lat="41.45" lon="-72.45" site="East Haddam (Connecticut, United States)"/>
<marker lat="38.166" lon="-79.116" site="Augusta county (Virginia, United States)"/>
<marker lat="39.333" lon="-78.6" site="Hampshire County (West Virginia, United States)"/>
<marker lat="39.16" lon="-78.816" site="Hardy County (West Virginia, United States)"/>
<marker lat="43.25" lon="-79.5" site="Fort Niagara (New York, United States)"/>
<marker lat="37.0" lon="-78.683" site="Charlotte county (Virginia, United States)"/>
<marker lat="39.45" lon="-78.33" site="Berkeley County (West Virginia, United States)"/>
</markers>