<markers>
<marker lat="38.0" lon="-98.0" site="United States (United States)"/>
<marker lat="33.0" lon="-87.0" site="Alabama (Alabama, United States)"/>
<marker lat="34.0" lon="-80.0" site="South Carolina (South Carolina, United States)"/>
<marker lat="32.0" lon="-84.0" site="Georgia (Georgia, United States)"/>
<marker lat="40.833" lon="-76.0" site="Pennsylvania (Pennsylvania, United States)"/>
<marker lat="31.0" lon="-92.0" site="Louisiana (Louisiana, United States)"/>
<marker lat="35.5" lon="-80.0" site="North Carolina (North Carolina, United States)"/>
<marker lat="37.4" lon="-78.816" site="Appomattox (Virginia, United States)"/>
<marker lat="42.25" lon="-71.833" site="Massachusetts (Massachusetts, United States)"/>
<marker lat="32.83" lon="-81.1" site="Savannah (Georgia, United States)"/>
<marker lat="39.83" lon="-84.5" site="Covington (Kentucky, United States)"/>
<marker lat="38.15" lon="-81.183" site="Kanawha (West Virginia, United States)"/>
<marker lat="60.0" lon="-96.0" site="Canada (Canada)"/>
<marker lat="41.666" lon="-71.5" site="Rhode Island (Rhode Island, United States)"/>
<marker lat="39.316" lon="-77.733" site="Harper's Ferry (West Virginia, United States)"/>
<marker lat="41.216" lon="13.6" site="Gaeta (Italy)"/>
<marker lat="33.883" lon="-78.16" site="Fort Caswell (North Carolina, United States)"/>
<marker lat="37.0" lon="-80.0" site="Virginia (Virginia, United States)"/>
<marker lat="36.916" lon="-81.5" site="Wythe (Virginia, United States)"/>
<marker lat="35.3" lon="-86.95" site="Odd Fellows Hall (Tennessee, United States)"/>
<marker lat="32.75" lon="-79.883" site="Charleston Harbor (South Carolina, United States)"/>
<marker lat="23.133" lon="113.333" site="Canton (China)"/>
<marker lat="43.5" lon="-92.666" site="Charles City (Iowa, United States)"/>
<marker lat="39.3" lon="-94.916" site="Leavenworth, Kansas (Kansas, United States)"/>
<marker lat="39.616" lon="-79.95" site="Morgantown (West Virginia, United States)"/>
<marker lat="39.283" lon="-76.6" site="Baltimore, Md. (Maryland, United States)"/>
<marker lat="32.383" lon="-85.0" site="Brick Yard (Alabama, United States)"/>
<marker lat="39.0" lon="-76.833" site="Maryland (Maryland, United States)"/>
<marker lat="35.233" lon="-87.33" site="Giles (Tennessee, United States)"/>
<marker lat="44.0" lon="-85.0" site="Michigan (Michigan, United States)"/>
<marker lat="40.0" lon="-75.0" site="New Jersey (New Jersey, United States)"/>
<marker lat="43.0" lon="-75.0" site="New York State (New York, United States)"/>
<marker lat="39.8" lon="-76.983" site="McAllister (Pennsylvania, United States)"/>
<marker lat="39.516" lon="-87.116" site="Brazil, Clay County, Indiana (Indiana, United States)"/>
<marker lat="37.483" lon="-77.0" site="New Kent (Virginia, United States)"/>
<marker lat="35.833" lon="-86.383" site="Murfreesboro (Tennessee, United States)"/>
<marker lat="35.1" lon="-77.33" site="New Bern (North Carolina, United States)"/>
<marker lat="44.233" lon="-76.83" site="Governors Island (New York, United States)"/>
<marker lat="40.733" lon="-74.166" site="Milford (New Jersey, United States)"/>
<marker lat="35.5" lon="-78.866" site="Fayetteville (North Carolina, United States)"/>
<marker lat="43.65" lon="-70.25" site="Portland (Maine, United States)"/>
<marker lat="36.316" lon="-77.583" site="Halifax, N. C. (North Carolina, United States)"/>
<marker lat="40.666" lon="-94.716" site="Bedford, Taylor County, Iowa (Iowa, United States)"/>
<marker lat="42.1" lon="-71.35" site="City Mills (Massachusetts, United States)"/>
<marker lat="38.666" lon="-98.0" site="Kansas (Kansas, United States)"/>
<marker lat="29.416" lon="-98.483" site="San Antonio (Texas, United States)"/>
<marker lat="42.0" lon="-93.0" site="Iowa (Iowa, United States)"/>
<marker lat="34.66" lon="-78.266" site="Brunswick County (North Carolina, United States)"/>
<marker lat="39.0" lon="-75.666" site="Delaware (Delaware, United States)"/>
<marker lat="45.66" lon="7.666" site="Turin (Italy)"/>
<marker lat="36.3" lon="-76.216" site="Elizabeth City (North Carolina, United States)"/>
<marker lat="39.15" lon="-77.2" site="Montgomery County (Maryland, United States)"/>
<marker lat="44.0" lon="-73.0" site="Vermont (Vermont, United States)"/>
<marker lat="35.5" lon="-85.0" site="Tennessee (Tennessee, United States)"/>
<marker lat="42.333" lon="-76.833" site="Havana, N. Y. (New York, United States)"/>
<marker lat="44.633" lon="-63.583" site="Halifax (Canada)"/>
<marker lat="34.316" lon="-77.75" site="Scotts Hill (North Carolina, United States)"/>
<marker lat="35.683" lon="-75.716" site="Old Point (North Carolina, United States)"/>
<marker lat="51.916" lon="4.483" site="Rotterdam (Netherlands)"/>
<marker lat="34.733" lon="-80.83" site="Chesterfield (South Carolina, United States)"/>
<marker lat="43.1" lon="-75.216" site="Utica (New York, United States)"/>
<marker lat="34.216" lon="-77.933" site="Wilmington, N. C. (North Carolina, United States)"/>
<marker lat="39.733" lon="-75.533" site="Wilmington (Delaware, United States)"/>
<marker lat="40.5" lon="-80.716" site="Wheeling, W. Va. (West Virginia, United States)"/>
<marker lat="50.9" lon="-1.4" site="Southampton (United Kingdom)"/>
<marker lat="34.683" lon="-76.666" site="Fort Macon (North Carolina, United States)"/>
<marker lat="31.583" lon="-87.333" site="Monroe County, Alabama (Alabama, United States)"/>
<marker lat="37.316" lon="-80.683" site="Giles (Virginia, United States)"/>
<marker lat="37.566" lon="-80.55" site="Monroe county (West Virginia, United States)"/>
<marker lat="38.633" lon="-78.466" site="Page county (Virginia, United States)"/>
<marker lat="37.366" lon="-78.816" site="Appomattox (Virginia, United States)"/>
<marker lat="39.3" lon="-77.85" site="Jefferson (West Virginia, United States)"/>
<marker lat="37.95" lon="-80.416" site="Greenbrier (West Virginia, United States)"/>
</markers>