<markers>
<marker lat="42.25" lon="-71.833" site="Massachusetts (Massachusetts, United States)"/>
<marker lat="38.0" lon="-98.0" site="United States (United States)"/>
<marker lat="42.85" lon="-70.916" site="Amesbury (Massachusetts, United States)"/>
<marker lat="41.816" lon="-71.4" site="Providence, R. I. (Rhode Island, United States)"/>
<marker lat="34.25" lon="-85.15" site="Rome, Ga. (Georgia, United States)"/>
<marker lat="34.0" lon="-80.0" site="South Carolina (South Carolina, United States)"/>
<marker lat="40.833" lon="-76.0" site="Pennsylvania (Pennsylvania, United States)"/>
<marker lat="46.0" lon="2.0" site="France (France)"/>
<marker lat="45.0" lon="-69.0" site="Maine (Maine, United States)"/>
<marker lat="39.0" lon="-76.833" site="Maryland (Maryland, United States)"/>
<marker lat="40.0" lon="-75.0" site="New Jersey (New Jersey, United States)"/>
<marker lat="19.0" lon="-70.666" site="Dominican Republic (Dominican Republic)"/>
<marker lat="53.0" lon="-2.0" site="England (United Kingdom)"/>
<marker lat="38.666" lon="-98.0" site="Kansas (Kansas, United States)"/>
<marker lat="42.566" lon="-70.916" site="Danvers (Massachusetts, United States)"/>
<marker lat="6.5" lon="-9.5" site="Liberia (Liberia)"/>
<marker lat="13.166" lon="-59.533" site="Barbados (Barbados)"/>
<marker lat="41.483" lon="-71.3" site="Newport (Rhode Island, United States)"/>
<marker lat="38.5" lon="-82.416" site="Quaker (West Virginia, United States)"/>
<marker lat="35.5" lon="-80.0" site="North Carolina (North Carolina, United States)"/>
<marker lat="8.5" lon="-11.5" site="Sierra Leone (Sierra Leone)"/>
<marker lat="39.983" lon="-74.783" site="Mount Holly, N. J. (New Jersey, United States)"/>
<marker lat="44.633" lon="-63.583" site="Halifax (Canada)"/>
<marker lat="27.0" lon="30.0" site="Egypt (Egypt)"/>
<marker lat="42.766" lon="-71.66" site="Haverhill (Massachusetts, United States)"/>
<marker lat="48.866" lon="2.333" site="Department de Ville de Paris (France)"/>
<marker lat="42.233" lon="-71.83" site="Milton, Mass. (Massachusetts, United States)"/>
<marker lat="37.583" lon="-90.616" site="Arcadia (Missouri, United States)"/>
<marker lat="60.0" lon="47.0" site="Russia (Russia)"/>
<marker lat="32.0" lon="-84.0" site="Georgia (Georgia, United States)"/>
<marker lat="41.666" lon="-71.5" site="Rhode Island (Rhode Island, United States)"/>
<marker lat="18.25" lon="-77.5" site="Jamaica (Jamaica)"/>
<marker lat="19.416" lon="-99.166" site="Mexico (Mexico, Mexico)"/>
<marker lat="39.15" lon="-82.483" site="Puritan (Ohio, United States)"/>
<marker lat="42.766" lon="-70.883" site="Newbury, Mass. (Massachusetts, United States)"/>
<marker lat="35.866" lon="-76.733" site="Plymouth, N. C. (North Carolina, United States)"/>
<marker lat="39.95" lon="-80.366" site="Time (Pennsylvania, United States)"/>
<marker lat="39.0" lon="-75.666" site="Delaware (Delaware, United States)"/>
<marker lat="34.75" lon="-83.5" site="Walhalla (South Carolina, United States)"/>
<marker lat="60.0" lon="-96.0" site="Canada (Canada)"/>
<marker lat="42.633" lon="-71.316" site="Lowell (Massachusetts, United States)"/>
<marker lat="39.0" lon="-80.0" site="West Virginia (West Virginia, United States)"/>
<marker lat="44.0" lon="-73.0" site="Vermont (Vermont, United States)"/>
<marker lat="42.366" lon="-71.33" site="Noddle's Island (Massachusetts, United States)"/>
<marker lat="38.8" lon="-80.616" site="Dutch (West Virginia, United States)"/>
<marker lat="42.833" lon="12.833" site="Italy (Italy)"/>
<marker lat="42.66" lon="-72.6" site="Agawam (Massachusetts, United States)"/>
<marker lat="42.25" lon="-88.833" site="Belvidere (Illinois, United States)"/>
<marker lat="40.633" lon="-77.0" site="Oriental (Pennsylvania, United States)"/>
<marker lat="35.16" lon="-76.683" site="Oriental (North Carolina, United States)"/>
<marker lat="42.133" lon="-87.75" site="Glencoe, Ill. (Illinois, United States)"/>
<marker lat="37.233" lon="-80.2" site="Roanoke (United States)"/>
<marker lat="49.9" lon="2.3" site="Amiens (France)"/>
<marker lat="42.866" lon="-73.183" site="Bennington, Vt. (Vermont, United States)"/>
<marker lat="35.916" lon="-86.166" site="Milton, Tenn. (Tennessee, United States)"/>
<marker lat="59.333" lon="18.83" site="Stockholm (Sweden)"/>
<marker lat="39.283" lon="-76.6" site="Baltimore, Md. (Maryland, United States)"/>
<marker lat="46.0" lon="-94.0" site="Minnesota (Minnesota, United States)"/>
<marker lat="38.0" lon="-98.0" site="Missouri (Missouri, United States)"/>
<marker lat="42.16" lon="-71.533" site="Blackstone (Massachusetts, United States)"/>
<marker lat="44.0" lon="-71.666" site="New Hampshire (New Hampshire, United States)"/>
<marker lat="43.0" lon="-75.0" site="New York State (New York, United States)"/>
<marker lat="45.433" lon="12.333" site="Venice (Italy)"/>
<marker lat="37.683" lon="-81.616" site="Oceana (West Virginia, United States)"/>
<marker lat="40.8" lon="-124.15" site="Eureka, Humboldt County, California (California, United States)"/>
<marker lat="47.233" lon="-95.2" site="Mississippi (United States)"/>
<marker lat="40.2" lon="-80.55" site="Bethany (West Virginia, United States)"/>
<marker lat="32.7" lon="-81.866" site="Scarboro (Georgia, United States)"/>
<marker lat="40.66" lon="-74.85" site="Burlington (New Jersey, United States)"/>
<marker lat="10.5" lon="-61.25" site="Trinidad (Trinidad and Tobago)"/>
<marker lat="13.883" lon="-60.966" site="St. Lucia (Saint Lucia)"/>
<marker lat="36.833" lon="-76.283" site="Norfolk (Virginia, United States)"/>
<marker lat="42.316" lon="-72.633" site="Northampton (Massachusetts, United States)"/>
<marker lat="36.533" lon="-79.2" site="Milton, N. C. (North Carolina, United States)"/>
<marker lat="42.8" lon="-70.866" site="Newburyport (Massachusetts, United States)"/>
<marker lat="41.283" lon="-70.83" site="Nantucket (Massachusetts, United States)"/>
<marker lat="43.433" lon="-71.65" site="Merrimack (United States)"/>
<marker lat="25.0" lon="-90.0" site="Gulf of Mexico"/>
<marker lat="43.83" lon="-75.65" site="Oneida (N. Y.) (New York, United States)"/>
<marker lat="4.0" lon="-56.0" site="Surinam (Surinam)"/>
<marker lat="5.833" lon="-55.166" site="Paramaribo (Surinam)"/>
<marker lat="41.15" lon="-73.75" site="Chappaqua (New York, United States)"/>
<marker lat="37.5" lon="14.0" site="Sicily (Italy)"/>
<marker lat="42.25" lon="-71.0" site="Quincy (Massachusetts, United States)"/>
<marker lat="37.516" lon="-76.783" site="West Point (Virginia, United States)"/>
<marker lat="42.866" lon="-76.966" site="Geneva, N. Y. (New York, United States)"/>
<marker lat="38.2" lon="-84.25" site="Paris, Ky. (Kentucky, United States)"/>
<marker lat="43.633" lon="-72.0" site="Canaan, N. H. (New Hampshire, United States)"/>
<marker lat="57.0" lon="-4.0" site="Scotland (United Kingdom)"/>
<marker lat="52.416" lon="-1.5" site="Coventry (United Kingdom)"/>
<marker lat="37.9" lon="-81.0" site="Ephraim (West Virginia, United States)"/>
<marker lat="38.8" lon="-77.33" site="Alexandria (Virginia, United States)"/>
<marker lat="31.0" lon="-92.0" site="Louisiana (Louisiana, United States)"/>
<marker lat="40.0" lon="-89.0" site="Illinois (Illinois, United States)"/>
<marker lat="45.6" lon="-68.516" site="Penobscot (Maine, United States)"/>
<marker lat="35.816" lon="-88.9" site="Humboldt, Tenn. (Tennessee, United States)"/>
<marker lat="36.83" lon="-78.3" site="Louisburg (North Carolina, United States)"/>
<marker lat="43.816" lon="-71.2" site="West Ossipee (New Hampshire, United States)"/>
<marker lat="31.5" lon="34.75" site="Israel (Israel)"/>
<marker lat="40.25" lon="-76.25" site="Lancaster County (Pennsylvania, United States)"/>
<marker lat="41.95" lon="-70.666" site="Accomack (Massachusetts, United States)"/>
<marker lat="44.0" lon="-120.0" site="Oregon (Oregon, United States)"/>
<marker lat="41.55" lon="-75.45" site="Salem Hill (Pennsylvania, United States)"/>
<marker lat="35.0" lon="-93.0" site="Arkansas (Arkansas, United States)"/>
<marker lat="40.733" lon="-75.3" site="Nazareth, Pennsylvania (Pennsylvania, United States)"/>
<marker lat="37.55" lon="-77.45" site="Richmond (Virginia, United States)"/>
<marker lat="38.883" lon="-77.33" site="Washington (United States)"/>
<marker lat="36.2" lon="-86.283" site="Lebanon (Tennessee, United States)"/>
<marker lat="-42.0" lon="174.0" site="New Zealand (New Zealand)"/>
<marker lat="41.833" lon="-72.833" site="Connecticut (Connecticut, United States)"/>
<marker lat="34.0" lon="9.0" site="Tunisia (Tunisia)"/>
<marker lat="19.333" lon="-96.666" site="Vera Cruz (Veracruz, Mexico)"/>
<marker lat="35.933" lon="-81.383" site="Draco (North Carolina, United States)"/>
<marker lat="40.716" lon="-74.66" site="Hudson (New Jersey, United States)"/>
<marker lat="44.316" lon="-93.95" site="St. Peter (Minnesota, United States)"/>
<marker lat="42.666" lon="-70.833" site="Essex County (Massachusetts, United States)"/>
<marker lat="52.133" lon="11.616" site="Magdeburg (Saxony-Anhalt, Germany)"/>
<marker lat="31.66" lon="35.383" site="Sodom (Israel)"/>
<marker lat="42.45" lon="-71.35" site="Concord (Massachusetts, United States)"/>
<marker lat="42.7" lon="-72.616" site="Leydon (Massachusetts, United States)"/>
<marker lat="35.266" lon="-90.583" site="Saint Francis (Arkansas, United States)"/>
<marker lat="41.1" lon="-100.666" site="Shallow River (Nebraska, United States)"/>
<marker lat="37.566" lon="-82.716" site="Arkansas (Kentucky, United States)"/>
<marker lat="37.16" lon="-76.333" site="Hampton (Virginia, United States)"/>
<marker lat="51.5" lon="10.5" site="Germany (Germany)"/>
<marker lat="50.9" lon="-1.4" site="Southampton (United Kingdom)"/>
<marker lat="8.95" lon="-79.5" site="Panama City (Panama)"/>
<marker lat="32.116" lon="-90.183" site="Sinai (Mississippi, United States)"/>
<marker lat="25.683" lon="32.666" site="Thebes (Egypt)"/>
<marker lat="41.766" lon="-71.116" site="Somerset, Mass. (Massachusetts, United States)"/>
<marker lat="40.683" lon="-73.8" site="Jamaica, L. I. (New York, United States)"/>
<marker lat="39.0" lon="22.0" site="Greece (Greece)"/>
<marker lat="-23.0" lon="-58.0" site="Paraguay (Paraguay)"/>
<marker lat="47.333" lon="13.333" site="Austria (Austria)"/>
<marker lat="-10.0" lon="-55.0" site="Brazil (Brazil)"/>
<marker lat="35.9" lon="-79.5" site="Chapel Hill, N. C. (North Carolina, United States)"/>
<marker lat="0.866" lon="101.533" site="Minas (Indonesia)"/>
<marker lat="40.0" lon="-4.0" site="Spain (Spain)"/>
<marker lat="35.633" lon="-89.833" site="Fort Pillow (Tennessee, United States)"/>
<marker lat="39.966" lon="-74.566" site="North Branch Rancocas Creek (New Jersey, United States)"/>
<marker lat="35.716" lon="-86.533" site="Versailles, Tenn. (Tennessee, United States)"/>
<marker lat="52.0" lon="20.0" site="Poland (Poland)"/>
<marker lat="37.33" lon="-76.85" site="Runnymede (Virginia, United States)"/>
<marker lat="38.166" lon="-79.116" site="Augusta county (Virginia, United States)"/>
<marker lat="42.983" lon="-78.183" site="Batavia, N. Y. (New York, United States)"/>
</markers>