<markers>
<marker lat="38.0" lon="-98.0" site="United States (United States)"/>
<marker lat="38.0" lon="-98.0" site="Missouri (Missouri, United States)"/>
<marker lat="37.55" lon="-77.366" site="Henrico (Virginia, United States)"/>
<marker lat="35.5" lon="-85.0" site="Tennessee (Tennessee, United States)"/>
<marker lat="37.2" lon="-93.283" site="Springfield, Mo. (Missouri, United States)"/>
<marker lat="38.866" lon="-77.166" site="Fall's Church (Virginia, United States)"/>
<marker lat="42.25" lon="-71.833" site="Massachusetts (Massachusetts, United States)"/>
<marker lat="37.83" lon="-88.6" site="Paducah (Kentucky, United States)"/>
<marker lat="36.916" lon="-94.25" site="Granby, Mo. (Missouri, United States)"/>
<marker lat="31.0" lon="-92.0" site="Louisiana (Louisiana, United States)"/>
<marker lat="35.5" lon="-80.0" site="North Carolina (North Carolina, United States)"/>
<marker lat="38.9" lon="-77.25" site="Vienna (Virginia, United States)"/>
<marker lat="42.766" lon="-71.66" site="Haverhill (Massachusetts, United States)"/>
<marker lat="42.45" lon="-71.35" site="Concord (Massachusetts, United States)"/>
<marker lat="46.0" lon="2.0" site="France (France)"/>
<marker lat="47.333" lon="13.333" site="Austria (Austria)"/>
<marker lat="45.0" lon="-69.0" site="Maine (Maine, United States)"/>
<marker lat="39.0" lon="-76.833" site="Maryland (Maryland, United States)"/>
<marker lat="18.216" lon="-67.15" site="Mayaguez"/>
<marker lat="38.5" lon="-77.16" site="Port Tobacco (Maryland, United States)"/>
<marker lat="33.0" lon="-87.0" site="Alabama (Alabama, United States)"/>
<marker lat="38.833" lon="-77.3" site="Fairfax, Va. (Virginia, United States)"/>
<marker lat="34.25" lon="-85.15" site="Rome, Ga. (Georgia, United States)"/>
<marker lat="41.3" lon="-75.8" site="Sebastopol (Pennsylvania, United States)"/>
<marker lat="32.833" lon="-83.616" site="Macon (Georgia, United States)"/>
<marker lat="38.816" lon="-77.516" site="Bull Run, Va. (Virginia, United States)"/>
<marker lat="53.0" lon="-2.0" site="England (United Kingdom)"/>
<marker lat="32.0" lon="-84.0" site="Georgia (Georgia, United States)"/>
<marker lat="27.766" lon="-82.666" site="Saint Petersburg (Florida, United States)"/>
<marker lat="39.0" lon="-75.666" site="Delaware (Delaware, United States)"/>
<marker lat="35.0" lon="105.0" site="China (China)"/>
<marker lat="6.5" lon="-9.5" site="Liberia (Liberia)"/>
<marker lat="40.833" lon="-76.0" site="Pennsylvania (Pennsylvania, United States)"/>
<marker lat="38.483" lon="-76.983" site="Charles county (Maryland, United States)"/>
<marker lat="38.3" lon="-76.616" site="St. Marys county (Maryland, United States)"/>
<marker lat="35.683" lon="-75.716" site="Old Point (North Carolina, United States)"/>
<marker lat="6.333" lon="-10.8" site="Monrovia (Liberia)"/>
<marker lat="37.0" lon="-80.0" site="Virginia (Virginia, United States)"/>
<marker lat="37.66" lon="-88.55" site="Tennessee River (United States)"/>
<marker lat="39.0" lon="22.0" site="Greece (Greece)"/>
<marker lat="32.75" lon="-79.883" site="Charleston Harbor (South Carolina, United States)"/>
<marker lat="36.95" lon="-76.316" site="Sewell's Point (Virginia, United States)"/>
<marker lat="43.33" lon="-87.9" site="Milwaukee (Wisconsin, United States)"/>
<marker lat="41.55" lon="-72.65" site="Middletown (Connecticut, United States)"/>
<marker lat="38.966" lon="-76.483" site="Annapolis (Maryland, United States)"/>
<marker lat="35.6" lon="-87.33" site="Columbia, Tenn. (Tennessee, United States)"/>
<marker lat="30.183" lon="-84.216" site="Saint Marks (Florida, United States)"/>
<marker lat="33.0" lon="-90.0" site="Mississippi (Mississippi, United States)"/>
<marker lat="39.16" lon="-78.1" site="Stone Bridge (Virginia, United States)"/>
<marker lat="44.0" lon="-71.666" site="New Hampshire (New Hampshire, United States)"/>
<marker lat="41.833" lon="-89.466" site="Dixon, Ill. (Illinois, United States)"/>
<marker lat="43.0" lon="-75.0" site="New York State (New York, United States)"/>
<marker lat="37.95" lon="-91.766" site="Rolla, Mo. (Missouri, United States)"/>
<marker lat="38.85" lon="-77.35" site="Fairfax (Virginia, United States)"/>
<marker lat="37.966" lon="-87.55" site="Evansville (Indiana, United States)"/>
<marker lat="59.983" lon="29.75" site="Cronstadt (Russia)"/>
<marker lat="53.383" lon="-1.5" site="Sheffield (United Kingdom)"/>
<marker lat="33.2" lon="-87.566" site="Shelbyville (Alabama, United States)"/>
<marker lat="40.683" lon="-75.216" site="Easton, Pa. (Pennsylvania, United States)"/>
<marker lat="42.316" lon="-72.633" site="Northampton (Massachusetts, United States)"/>
<marker lat="39.133" lon="-93.216" site="Saline County (Missouri, United States)"/>
<marker lat="43.83" lon="-79.5" site="Manchester (New York, United States)"/>
<marker lat="39.366" lon="-94.0" site="Ray County (Missouri, United States)"/>
<marker lat="37.333" lon="-77.66" site="Charles City (Virginia, United States)"/>
<marker lat="39.816" lon="-77.9" site="Mercersburg (Pennsylvania, United States)"/>
<marker lat="38.4" lon="-79.566" site="Monterey (Virginia, United States)"/>
<marker lat="41.283" lon="-80.416" site="Clark (Pennsylvania, United States)"/>
<marker lat="37.0" lon="-105.5" site="Canadian (United States)"/>
<marker lat="38.516" lon="-77.6" site="Aquia Creek (Virginia, United States)"/>
<marker lat="47.25" lon="7.35" site="Court (Switzerland)"/>
<marker lat="40.0" lon="-89.0" site="Illinois (Illinois, United States)"/>
<marker lat="38.183" lon="-76.433" site="St. Mary (Maryland, United States)"/>
<marker lat="44.516" lon="33.583" site="Balaklava (Ukraine)"/>
<marker lat="32.83" lon="-81.1" site="Savannah (Georgia, United States)"/>
<marker lat="39.933" lon="-77.65" site="Chambersburg, Pa. (Pennsylvania, United States)"/>
<marker lat="38.33" lon="-84.5" site="Lexington (Kentucky, United States)"/>
<marker lat="32.433" lon="-83.65" site="Houston County (Georgia, United States)"/>
<marker lat="60.0" lon="-96.0" site="Canada (Canada)"/>
<marker lat="37.216" lon="-77.4" site="Petersburg, Va. (Virginia, United States)"/>
<marker lat="41.666" lon="-71.5" site="Rhode Island (Rhode Island, United States)"/>
<marker lat="34.0" lon="-80.0" site="South Carolina (South Carolina, United States)"/>
<marker lat="35.0" lon="-93.0" site="Arkansas (Arkansas, United States)"/>
<marker lat="37.55" lon="-77.45" site="Richmond (Virginia, United States)"/>
<marker lat="39.0" lon="-80.0" site="West Virginia (West Virginia, United States)"/>
<marker lat="39.866" lon="-79.85" site="Puritan (Pennsylvania, United States)"/>
<marker lat="42.566" lon="-84.433" site="Mason, Ingham County, Michigan (Michigan, United States)"/>
<marker lat="37.0" lon="-119.0" site="California (California, United States)"/>
<marker lat="36.9" lon="-82.66" site="Lebanon (Virginia, United States)"/>
<marker lat="35.95" lon="-83.916" site="Knoxville (Tennessee, United States)"/>
<marker lat="4.633" lon="-74.83" site="Santa Fe (Colombia)"/>
<marker lat="41.383" lon="-84.116" site="Napoleon (Ohio, United States)"/>
<marker lat="42.333" lon="-75.15" site="Franklin (New York, United States)"/>
<marker lat="40.266" lon="-80.6" site="Charlestown, W. Va. (West Virginia, United States)"/>
<marker lat="38.9" lon="-77.5" site="George-Town (United States)"/>
<marker lat="32.416" lon="-85.683" site="Tuskegee (Alabama, United States)"/>
<marker lat="41.75" lon="-72.683" site="Hartford (Connecticut, United States)"/>
<marker lat="37.33" lon="-89.183" site="Cairo, Ill. (Illinois, United States)"/>
<marker lat="51.5" lon="10.5" site="Germany (Germany)"/>
<marker lat="41.33" lon="-73.75" site="White Plains (New York, United States)"/>
<marker lat="34.0" lon="-81.33" site="Columbia (South Carolina, United States)"/>
<marker lat="41.116" lon="-73.8" site="Westchester (New York, United States)"/>
<marker lat="39.95" lon="-75.6" site="West Chester (Pennsylvania, United States)"/>
<marker lat="40.116" lon="-75.866" site="Chester County (Pennsylvania, United States)"/>
<marker lat="33.45" lon="-88.816" site="Starkville (Mississippi, United States)"/>
<marker lat="44.25" lon="-71.3" site="Tuckerman Ravine (New Hampshire, United States)"/>
<marker lat="43.0" lon="-84.55" site="St. Johns (Michigan, United States)"/>
<marker lat="42.666" lon="-70.833" site="Ipswich, Mass. (Massachusetts, United States)"/>
<marker lat="39.266" lon="-76.783" site="Ellicotts Mills (Maryland, United States)"/>
<marker lat="30.683" lon="-88.33" site="Mobile, Ala. (Alabama, United States)"/>
<marker lat="32.366" lon="-80.683" site="Port Royal (South Carolina, United States)"/>
<marker lat="35.216" lon="-80.833" site="Charlotte (North Carolina, United States)"/>
<marker lat="32.766" lon="-79.916" site="Charleston (South Carolina, United States)"/>
<marker lat="41.5" lon="-71.616" site="Washington county (Rhode Island, United States)"/>
<marker lat="30.233" lon="-96.4" site="Washington County, Texas (Texas, United States)"/>
<marker lat="8.0" lon="-66.0" site="Venezuela (Venezuela)"/>
<marker lat="38.616" lon="-77.433" site="Quantico Creek (Virginia, United States)"/>
<marker lat="39.83" lon="-77.15" site="Rockville, Md. (Maryland, United States)"/>
<marker lat="42.833" lon="12.833" site="Italy (Italy)"/>
<marker lat="35.516" lon="-89.0" site="Denmark, Madison co., Tenn. (Tennessee, United States)"/>
<marker lat="37.8" lon="-79.433" site="Rockbridge (Virginia, United States)"/>
<marker lat="37.1" lon="-82.716" site="Cumberland River (Kentucky, United States)"/>
<marker lat="10.483" lon="-68.33" site="Puerto Cabello (Carabobo, Venezuela)"/>
</markers>