<markers>
<marker lat="48.866" lon="2.333" site="Department de Ville de Paris (France)"/>
<marker lat="46.0" lon="2.0" site="France (France)"/>
<marker lat="38.583" lon="-28.7" site="Fayal (Portugal)"/>
<marker lat="39.0" lon="22.0" site="Greece (Greece)"/>
<marker lat="39.15" lon="-82.483" site="Puritan (Ohio, United States)"/>
<marker lat="47.9" lon="1.9" site="Orleans (France)"/>
<marker lat="39.166" lon="26.333" site="Lesbos (Greece)"/>
<marker lat="40.0" lon="-4.0" site="Spain (Spain)"/>
<marker lat="43.25" lon="-73.216" site="Rupert (Vermont, United States)"/>
<marker lat="51.5" lon="10.5" site="Germany (Germany)"/>
<marker lat="42.25" lon="-71.833" site="Massachusetts (Massachusetts, United States)"/>
<marker lat="34.25" lon="-85.15" site="Rome, Ga. (Georgia, United States)"/>
<marker lat="35.0" lon="105.0" site="China (China)"/>
<marker lat="38.466" lon="-28.416" site="Pico (Portugal)"/>
<marker lat="40.333" lon="-78.766" site="Saint Michael (Pennsylvania, United States)"/>
<marker lat="43.0" lon="-84.366" site="Ovid (Michigan, United States)"/>
<marker lat="57.0" lon="-4.0" site="Scotland (United Kingdom)"/>
<marker lat="47.333" lon="13.333" site="Austria (Austria)"/>
<marker lat="39.5" lon="-8.0" site="Portugal (Portugal)"/>
<marker lat="38.533" lon="-28.633" site="Horta (Portugal)"/>
<marker lat="42.766" lon="-70.883" site="Newbury, Mass. (Massachusetts, United States)"/>
<marker lat="38.0" lon="-98.0" site="United States (United States)"/>
<marker lat="42.516" lon="-70.883" site="Salem (Massachusetts, United States)"/>
<marker lat="46.216" lon="6.15" site="Geneva (Switzerland)"/>
<marker lat="39.0" lon="35.0" site="Turquie (Turkey)"/>
<marker lat="41.666" lon="-71.5" site="Rhode Island (Rhode Island, United States)"/>
<marker lat="38.733" lon="-9.133" site="Lisbon (Portugal)"/>
<marker lat="43.5" lon="-72.966" site="Clarendon, Vt. (Vermont, United States)"/>
<marker lat="62.0" lon="15.0" site="Sweden (Sweden)"/>
<marker lat="42.633" lon="-76.166" site="Homer, N. Y. (New York, United States)"/>
<marker lat="42.233" lon="-71.83" site="Milton, Mass. (Massachusetts, United States)"/>
<marker lat="52.383" lon="-0.983" site="Naseby (United Kingdom)"/>
<marker lat="41.383" lon="-84.116" site="Napoleon (Ohio, United States)"/>
<marker lat="42.833" lon="12.833" site="Italy (Italy)"/>
<marker lat="40.0" lon="-75.0" site="New Jersey (New Jersey, United States)"/>
<marker lat="45.433" lon="12.333" site="Venice (Italy)"/>
<marker lat="51.583" lon="0.55" site="Essex (United Kingdom)"/>
<marker lat="29.483" lon="-82.5" site="Adam (Florida, United States)"/>
<marker lat="52.183" lon="-2.216" site="Worcester (United Kingdom)"/>
<marker lat="60.0" lon="-96.0" site="Canada (Canada)"/>
<marker lat="41.816" lon="-71.4" site="Providence, R. I. (Rhode Island, United States)"/>
<marker lat="41.833" lon="-72.833" site="Connecticut (Connecticut, United States)"/>
<marker lat="37.0" lon="-119.0" site="California (California, United States)"/>
<marker lat="27.0" lon="30.0" site="Egypt (Egypt)"/>
<marker lat="44.833" lon="-0.566" site="Bordeaux (France)"/>
<marker lat="35.266" lon="-90.583" site="Saint Francis (Arkansas, United States)"/>
<marker lat="42.25" lon="-71.8" site="Worcester (Massachusetts, United States)"/>
<marker lat="38.433" lon="-85.166" site="New Castle, Ky. (Kentucky, United States)"/>
<marker lat="41.85" lon="-87.65" site="Chicago (Illinois, United States)"/>
<marker lat="38.666" lon="-87.516" site="Vincennes (Indiana, United States)"/>
<marker lat="46.66" lon="6.583" site="Cluses (France)"/>
<marker lat="34.55" lon="-93.633" site="Mount Ida, Ark. (Arkansas, United States)"/>
<marker lat="42.483" lon="-71.266" site="Bedford, Mass. (Massachusetts, United States)"/>
<marker lat="45.766" lon="4.833" site="Lyons (France)"/>
<marker lat="41.916" lon="-89.66" site="Rochelle (Illinois, United States)"/>
<marker lat="40.633" lon="-77.0" site="Oriental (Pennsylvania, United States)"/>
<marker lat="50.5" lon="12.4" site="Auerbach (Saxony, Germany)"/>
<marker lat="34.933" lon="-88.516" site="Corinth (Mississippi, United States)"/>
<marker lat="44.733" lon="-68.833" site="Hampden, Me. (Maine, United States)"/>
<marker lat="51.45" lon="-2.583" site="Bristol (United Kingdom)"/>
<marker lat="42.283" lon="-83.733" site="Ann Arbor (Michigan, United States)"/>
<marker lat="37.75" lon="21.583" site="Nomos Ilias (Greece)"/>
<marker lat="34.333" lon="-83.483" site="Homer (Georgia, United States)"/>
<marker lat="32.416" lon="-80.666" site="Beaufort, S. C. (South Carolina, United States)"/>
<marker lat="45.0" lon="-69.0" site="Maine (Maine, United States)"/>
<marker lat="50.383" lon="-4.166" site="Plymouth (United Kingdom)"/>
<marker lat="40.933" lon="-76.166" site="Nuremburg (Pennsylvania, United States)"/>
<marker lat="43.166" lon="-78.766" site="Niagara County (New York, United States)"/>
<marker lat="43.916" lon="-116.333" site="Marsh (Idaho, United States)"/>
<marker lat="42.333" lon="-70.966" site="Boston Harbor (Massachusetts, United States)"/>
<marker lat="42.0" lon="9.0" site="Corsica (France)"/>
<marker lat="30.466" lon="-92.683" site="Elton (Louisiana, United States)"/>
<marker lat="46.716" lon="15.8" site="Sassbach (Steiermark, Austria)"/>
<marker lat="38.6" lon="-78.783" site="Broadway (Virginia, United States)"/>
<marker lat="43.416" lon="11.0" site="Tuscany (Italy)"/>
<marker lat="46.0" lon="6.66" site="Choisy (France)"/>
<marker lat="51.683" lon="-2.683" site="Tintern Abbey (United Kingdom)"/>
<marker lat="37.583" lon="-90.616" site="Arcadia (Missouri, United States)"/>
<marker lat="57.3" lon="-6.25" site="Skye (United Kingdom)"/>
<marker lat="32.466" lon="21.433" site="Olbia (Libya)"/>
<marker lat="38.233" lon="-78.1" site="Orange Court House (Virginia, United States)"/>
<marker lat="38.883" lon="-77.416" site="Chantilly (Virginia, United States)"/>
<marker lat="49.916" lon="1.83" site="Dieppe (France)"/>
<marker lat="36.833" lon="-76.283" site="Portsmouth, Va. (Virginia, United States)"/>
<marker lat="52.966" lon="-1.166" site="Nottingham (United Kingdom)"/>
<marker lat="37.5" lon="14.0" site="Sicily (Italy)"/>
<marker lat="42.716" lon="-87.766" site="Racine (Wisconsin, United States)"/>
<marker lat="40.75" lon="14.483" site="Pompeii (Italy)"/>
<marker lat="42.5" lon="-70.85" site="Marblehead (Massachusetts, United States)"/>
<marker lat="42.416" lon="-71.683" site="Clinton (Massachusetts, United States)"/>
<marker lat="42.166" lon="-72.583" site="Hampden (Massachusetts, United States)"/>
<marker lat="40.416" lon="15.0" site="Paestum (Italy)"/>
<marker lat="37.95" lon="23.816" site="Hymettus (Greece)"/>
<marker lat="26.933" lon="-80.83" site="Jupiter (Florida, United States)"/>
<marker lat="52.516" lon="-3.5" site="Cambria (United Kingdom)"/>
<marker lat="-29.83" lon="167.916" site="Norfolk Island"/>
<marker lat="41.83" lon="-82.866" site="Siam (Ohio, United States)"/>
<marker lat="38.8" lon="-77.33" site="Alexandria (Virginia, United States)"/>
<marker lat="-25.0" lon="135.0" site="Australia (Australia)"/>
<marker lat="45.816" lon="-77.133" site="Pembroke (Canada)"/>
<marker lat="38.666" lon="-98.0" site="Kansas (Kansas, United States)"/>
<marker lat="37.766" lon="-122.416" site="San Francisco (California, United States)"/>
<marker lat="29.416" lon="-98.483" site="San Antonio (Texas, United States)"/>
<marker lat="40.0" lon="-89.0" site="Illinois (Illinois, United States)"/>
<marker lat="38.616" lon="-90.183" site="St. Louis (Missouri, United States)"/>
<marker lat="41.95" lon="-70.666" site="Accomack (Massachusetts, United States)"/>
<marker lat="53.333" lon="-6.25" site="Dublin (Irish Republic)"/>
<marker lat="40.833" lon="-76.0" site="Pennsylvania (Pennsylvania, United States)"/>
<marker lat="39.333" lon="-78.5" site="Bunker Hill (West Virginia, United States)"/>
<marker lat="35.566" lon="-81.2" site="Maiden (North Carolina, United States)"/>
<marker lat="68.0" lon="25.0" site="Lapland"/>
<marker lat="40.533" lon="-75.933" site="Windsor Castle (Pennsylvania, United States)"/>
<marker lat="34.766" lon="-84.966" site="Dalton, Ga. (Georgia, United States)"/>
<marker lat="41.783" lon="-69.983" site="Orleans, Ma. (Massachusetts, United States)"/>
<marker lat="42.366" lon="-71.183" site="Watertown (Massachusetts, United States)"/>
<marker lat="44.25" lon="-74.266" site="Plymouth Rock (New York, United States)"/>
<marker lat="38.716" lon="-27.216" site="Terceira (Portugal)"/>
<marker lat="64.85" lon="-147.8" site="College (Alaska, United States)"/>
<marker lat="50.833" lon="4.333" site="Brussels (Belgium)"/>
<marker lat="-8.633" lon="116.25" site="Praya (Indonesia)"/>
<marker lat="51.75" lon="-1.166" site="Oxfordshire (United Kingdom)"/>
<marker lat="44.316" lon="-93.95" site="St. Peter (Minnesota, United States)"/>
<marker lat="42.766" lon="-71.66" site="Haverhill (Massachusetts, United States)"/>
<marker lat="39.65" lon="-78.75" site="Cumberland (Maryland, United States)"/>
<marker lat="51.5" lon="13.75" site="Dresden (Saxony, Germany)"/>
<marker lat="48.216" lon="16.366" site="Vienna (Wien, Austria)"/>
<marker lat="50.933" lon="6.95" site="Cologne (North Rhine-Westphalia, Germany)"/>
<marker lat="42.1" lon="-77.233" site="Addison, Steuben County, New York (New York, United States)"/>
<marker lat="40.5" lon="-82.4" site="Newark, Ohio (Ohio, United States)"/>
<marker lat="51.683" lon="-0.783" site="Chiltern Hills (United Kingdom)"/>
<marker lat="42.716" lon="-73.683" site="Troy, N. Y. (New York, United States)"/>
<marker lat="36.416" lon="27.416" site="Telos (Greece)"/>
<marker lat="43.85" lon="-72.366" site="Strafford, Vt. (Vermont, United States)"/>
<marker lat="50.633" lon="5.583" site="Leodium (Belgium)"/>
<marker lat="39.733" lon="-75.533" site="Wilmington (Delaware, United States)"/>
<marker lat="45.0" lon="-90.0" site="Wisconsin (Wisconsin, United States)"/>
<marker lat="50.9" lon="-1.4" site="Southampton (United Kingdom)"/>
<marker lat="42.466" lon="-79.333" site="Dunkirk (New York, United States)"/>
<marker lat="54.0" lon="-72.0" site="Quebec (Canada)"/>
<marker lat="42.85" lon="-78.266" site="Attica (New York, United States)"/>
<marker lat="39.83" lon="-84.483" site="Newport, Ky. (Kentucky, United States)"/>
<marker lat="50.1" lon="14.433" site="Prague (Czech Republic)"/>
<marker lat="48.5" lon="11.5" site="Bavaria (Bavaria, Germany)"/>
<marker lat="44.833" lon="11.633" site="Ferrara (Italy)"/>
<marker lat="40.416" lon="-3.716" site="Madrid (Spain)"/>
<marker lat="32.366" lon="-80.683" site="Port Royal (South Carolina, United States)"/>
<marker lat="19.416" lon="-99.166" site="Mexico (Mexico, Mexico)"/>
<marker lat="56.0" lon="10.0" site="Denmark (Denmark)"/>
<marker lat="42.633" lon="-70.633" site="Cape Ann (Massachusetts, United States)"/>
<marker lat="42.283" lon="-71.66" site="Dorchester, Mass. (Massachusetts, United States)"/>
<marker lat="40.716" lon="-81.1" site="Minerva (Ohio, United States)"/>
<marker lat="51.7" lon="5.783" site="Mill (Netherlands)"/>
<marker lat="30.583" lon="-84.583" site="Quincy, Fla. (Florida, United States)"/>
<marker lat="9.116" lon="-74.733" site="San Jorge (Colombia)"/>
<marker lat="34.916" lon="-88.5" site="Waterloo, Ala. (Alabama, United States)"/>
</markers>