<markers>
<marker lat="38.0" lon="-98.0" site="United States (United States)"/>
<marker lat="41.5" lon="-73.616" site="Fredericksburgh (New York, United States)"/>
<marker lat="35.833" lon="-86.383" site="Murfreesboro (Tennessee, United States)"/>
<marker lat="38.883" lon="-77.33" site="Washington (United States)"/>
<marker lat="32.35" lon="-90.866" site="Vicksburg (Mississippi, United States)"/>
<marker lat="36.166" lon="-86.75" site="Edgefield (Tennessee, United States)"/>
<marker lat="32.766" lon="-79.916" site="Charleston (South Carolina, United States)"/>
<marker lat="33.0" lon="-90.0" site="Mississippi (Mississippi, United States)"/>
<marker lat="35.5" lon="-85.0" site="Tennessee (Tennessee, United States)"/>
<marker lat="35.0" lon="-93.0" site="Arkansas (Arkansas, United States)"/>
<marker lat="29.95" lon="-90.66" site="New Orleans (Louisiana, United States)"/>
<marker lat="35.1" lon="-77.33" site="New Bern (North Carolina, United States)"/>
<marker lat="36.5" lon="-94.15" site="Fayetteville, Ark. (Arkansas, United States)"/>
<marker lat="35.25" lon="-77.566" site="Kinston (North Carolina, United States)"/>
<marker lat="35.983" lon="-86.45" site="Stone River (Tennessee, United States)"/>
<marker lat="32.283" lon="-90.183" site="Jackson (Mississippi, United States)"/>
<marker lat="34.766" lon="-89.433" site="Holly Springs (Mississippi, United States)"/>
<marker lat="35.9" lon="-94.383" site="Boonsborough (Arkansas, United States)"/>
<marker lat="37.2" lon="-93.283" site="Springfield, Mo. (Missouri, United States)"/>
<marker lat="36.383" lon="-86.166" site="Hartsville (Tennessee, United States)"/>
<marker lat="35.5" lon="-80.0" site="North Carolina (North Carolina, United States)"/>
<marker lat="38.0" lon="-98.0" site="Missouri (Missouri, United States)"/>
<marker lat="38.25" lon="-85.75" site="Louisville (Kentucky, United States)"/>
<marker lat="40.833" lon="-76.0" site="Pennsylvania (Pennsylvania, United States)"/>
<marker lat="30.666" lon="-91.266" site="Port Hudson (Louisiana, United States)"/>
<marker lat="38.7" lon="-77.783" site="Warrenton (Virginia, United States)"/>
<marker lat="32.366" lon="-80.683" site="Port Royal (South Carolina, United States)"/>
<marker lat="37.0" lon="-85.0" site="Kentucky (Kentucky, United States)"/>
<marker lat="34.0" lon="-80.0" site="South Carolina (South Carolina, United States)"/>
<marker lat="36.2" lon="-86.283" site="Lebanon (Tennessee, United States)"/>
<marker lat="38.316" lon="-77.466" site="Falmouth, Va. (Virginia, United States)"/>
<marker lat="38.3" lon="-77.633" site="Chancellorsville (Virginia, United States)"/>
<marker lat="31.0" lon="-92.0" site="Louisiana (Louisiana, United States)"/>
<marker lat="30.0" lon="-100.0" site="Texas (Texas, United States)"/>
<marker lat="35.383" lon="-77.983" site="Goldsboro (North Carolina, United States)"/>
<marker lat="30.316" lon="-81.65" site="Jacksonville (Florida, United States)"/>
<marker lat="29.3" lon="-94.783" site="Galveston (Texas, United States)"/>
<marker lat="32.16" lon="-91.5" site="Grand Gulf (Mississippi, United States)"/>
<marker lat="39.316" lon="-77.733" site="Harper's Ferry (West Virginia, United States)"/>
<marker lat="32.7" lon="-79.883" site="Morris Island (South Carolina, United States)"/>
<marker lat="35.216" lon="-77.833" site="Whitehall (North Carolina, United States)"/>
<marker lat="33.0" lon="-87.0" site="Alabama (Alabama, United States)"/>
<marker lat="39.183" lon="-78.15" site="Winchester, Va. (Virginia, United States)"/>
<marker lat="32.0" lon="-84.0" site="Georgia (Georgia, United States)"/>
<marker lat="31.95" lon="-90.983" site="Port Gibson (Mississippi, United States)"/>
<marker lat="34.233" lon="-88.983" site="Pontotoc (Mississippi, United States)"/>
<marker lat="35.833" lon="-86.6" site="Stewart's Creek, Tenn. (Tennessee, United States)"/>
<marker lat="35.133" lon="-90.33" site="Memphis (Tennessee, United States)"/>
<marker lat="40.0" lon="-86.0" site="Indiana (Indiana, United States)"/>
<marker lat="36.0" lon="-86.566" site="Lavergne (Tennessee, United States)"/>
<marker lat="32.216" lon="-80.666" site="Hilton Head (South Carolina, United States)"/>
<marker lat="37.83" lon="-84.6" site="Somerset, Ky. (Kentucky, United States)"/>
<marker lat="53.0" lon="-2.0" site="England (United Kingdom)"/>
<marker lat="40.0" lon="-89.0" site="Illinois (Illinois, United States)"/>
<marker lat="34.933" lon="-88.516" site="Corinth (Mississippi, United States)"/>
<marker lat="33.966" lon="-89.666" site="Coffeeville (Mississippi, United States)"/>
<marker lat="47.233" lon="-95.2" site="Mississippi (United States)"/>
<marker lat="36.0" lon="-94.4" site="Rhea's Mills (Arkansas, United States)"/>
<marker lat="40.7" lon="-74.0" site="New York (New York, United States)"/>
<marker lat="33.766" lon="-89.8" site="Grenada (Mississippi, United States)"/>
<marker lat="33.533" lon="-90.166" site="Yazoo River (United States)"/>
<marker lat="30.433" lon="-90.433" site="Ponchatoula (Louisiana, United States)"/>
<marker lat="28.0" lon="-82.0" site="Florida (Florida, United States)"/>
<marker lat="32.83" lon="-81.1" site="Savannah (Georgia, United States)"/>
<marker lat="32.45" lon="-91.1" site="Milliken's Bend (Louisiana, United States)"/>
<marker lat="38.516" lon="-77.6" site="Aquia Creek (Virginia, United States)"/>
<marker lat="35.666" lon="-92.733" site="Arkansas (United States)"/>
<marker lat="37.55" lon="-77.45" site="Richmond (Virginia, United States)"/>
<marker lat="42.25" lon="-71.833" site="Massachusetts (Massachusetts, United States)"/>
<marker lat="29.683" lon="-91.2" site="Brashear City (Louisiana, United States)"/>
<marker lat="35.966" lon="-94.316" site="Prairie Grove (Arkansas, United States)"/>
<marker lat="32.75" lon="-79.85" site="Fort Moultrie (South Carolina, United States)"/>
<marker lat="36.483" lon="-87.85" site="Fort Donelson (Tennessee, United States)"/>
<marker lat="38.8" lon="-77.33" site="Alexandria (Virginia, United States)"/>
<marker lat="34.716" lon="-87.7" site="Tuscumbia (Alabama, United States)"/>
<marker lat="35.1" lon="-88.35" site="Shiloh, Tenn. (Tennessee, United States)"/>
<marker lat="33.95" lon="-91.66" site="White River (Arkansas, United States)"/>
<marker lat="37.1" lon="-82.716" site="Cumberland River (Kentucky, United States)"/>
<marker lat="32.75" lon="-79.883" site="Charleston Harbor (South Carolina, United States)"/>
<marker lat="39.716" lon="-77.216" site="Monocacy River (United States)"/>
<marker lat="34.35" lon="-89.516" site="Oxford (Mississippi, United States)"/>
<marker lat="41.666" lon="-71.5" site="Rhode Island (Rhode Island, United States)"/>
<marker lat="36.4" lon="-94.6" site="Maysville (Arkansas, United States)"/>
<marker lat="39.95" lon="-82.983" site="Franklin (Ohio, United States)"/>
<marker lat="38.566" lon="-77.316" site="Dumfries, Va. (Virginia, United States)"/>
<marker lat="37.0" lon="-80.0" site="Virginia (Virginia, United States)"/>
<marker lat="35.85" lon="-86.65" site="Triune (Tennessee, United States)"/>
<marker lat="35.766" lon="-78.633" site="Raleigh (North Carolina, United States)"/>
<marker lat="35.66" lon="-77.35" site="Trenton, N. C. (North Carolina, United States)"/>
<marker lat="39.5" lon="-77.65" site="Boonsboro (Maryland, United States)"/>
<marker lat="32.75" lon="-79.833" site="Sullivan's Island (South Carolina, United States)"/>
<marker lat="39.85" lon="-84.183" site="Chambersburgh (Ohio, United States)"/>
<marker lat="39.633" lon="-77.716" site="Hagerstown (Maryland, United States)"/>
<marker lat="29.683" lon="-91.3" site="Pattersonville (Louisiana, United States)"/>
<marker lat="34.25" lon="-85.15" site="Rome, Ga. (Georgia, United States)"/>
<marker lat="32.25" lon="-90.416" site="Raymond (Mississippi, United States)"/>
<marker lat="36.8" lon="-84.866" site="Monticello (Kentucky, United States)"/>
<marker lat="37.316" lon="-91.95" site="Houston, Mo. (Missouri, United States)"/>
<marker lat="38.666" lon="-98.0" site="Kansas (Kansas, United States)"/>
<marker lat="42.0" lon="-93.0" site="Iowa (Iowa, United States)"/>
<marker lat="34.5" lon="-89.9" site="Oakland (Mississippi, United States)"/>
<marker lat="40.0" lon="-80.833" site="Ohio (Ohio, United States)"/>
<marker lat="34.25" lon="-88.7" site="Tupelo (Mississippi, United States)"/>
<marker lat="31.883" lon="-81.183" site="Fort McAllister (Georgia, United States)"/>
<marker lat="35.6" lon="-88.8" site="Jackson (Tennessee, United States)"/>
<marker lat="38.5" lon="-83.933" site="Mount Sterling, Ky. (Kentucky, United States)"/>
<marker lat="34.216" lon="-77.933" site="Wilmington, N. C. (North Carolina, United States)"/>
<marker lat="36.45" lon="-94.1" site="Pea Ridge, Ark. (Arkansas, United States)"/>
<marker lat="38.883" lon="-77.416" site="Chantilly (Virginia, United States)"/>
<marker lat="35.916" lon="-86.866" site="Franklin (Tennessee, United States)"/>
<marker lat="37.3" lon="-89.516" site="Cape Girardeau (Missouri, United States)"/>
<marker lat="39.15" lon="-84.45" site="Cincinnati (Ohio, United States)"/>
<marker lat="41.816" lon="-71.4" site="Providence, R. I. (Rhode Island, United States)"/>
<marker lat="34.3" lon="-89.933" site="Batesville (Mississippi, United States)"/>
<marker lat="36.283" lon="-82.533" site="Leesburg (Tennessee, United States)"/>
<marker lat="37.633" lon="-84.766" site="Danville, Ky. (Kentucky, United States)"/>
<marker lat="39.133" lon="-77.416" site="Poolesville (Maryland, United States)"/>
<marker lat="31.75" lon="-93.83" site="Natchitoches (Louisiana, United States)"/>
<marker lat="35.866" lon="-76.733" site="Plymouth, N. C. (North Carolina, United States)"/>
<marker lat="37.233" lon="-76.5" site="Yorktown (Virginia, United States)"/>
<marker lat="35.33" lon="-85.3" site="Chattanooga (Tennessee, United States)"/>
<marker lat="39.15" lon="-77.966" site="Berryville (Virginia, United States)"/>
<marker lat="36.883" lon="-89.916" site="Bloomfield, Mo. (Missouri, United States)"/>
<marker lat="38.466" lon="-77.766" site="Kelly's Ford (Virginia, United States)"/>
<marker lat="39.0" lon="-75.666" site="Delaware (Delaware, United States)"/>
<marker lat="38.966" lon="-77.633" site="Aldie (Virginia, United States)"/>
<marker lat="35.6" lon="-87.33" site="Columbia, Tenn. (Tennessee, United States)"/>
<marker lat="38.783" lon="-77.6" site="Gainesville (Virginia, United States)"/>
<marker lat="39.0" lon="-76.833" site="Maryland (Maryland, United States)"/>
<marker lat="37.983" lon="-84.166" site="Winchester, Ky. (Kentucky, United States)"/>
<marker lat="38.133" lon="-78.183" site="Gordonsville (Virginia, United States)"/>
<marker lat="30.0" lon="-91.816" site="New Iberia (Louisiana, United States)"/>
<marker lat="35.85" lon="-77.5" site="Williamston (North Carolina, United States)"/>
<marker lat="30.683" lon="-88.33" site="Mobile, Ala. (Alabama, United States)"/>
<marker lat="29.35" lon="-89.516" site="Buras (Louisiana, United States)"/>
<marker lat="29.35" lon="-89.45" site="Fort Jackson (Louisiana, United States)"/>
<marker lat="38.333" lon="-118.183" site="Douglass (Nevada, United States)"/>
<marker lat="34.0" lon="-88.75" site="Okolona (Mississippi, United States)"/>
<marker lat="32.783" lon="-90.183" site="Deer Creek (Mississippi, United States)"/>
<marker lat="29.683" lon="-91.216" site="Berwick City (Louisiana, United States)"/>
<marker lat="30.1" lon="-90.983" site="Donaldsonville (Louisiana, United States)"/>
<marker lat="37.75" lon="-77.466" site="Ashland (Virginia, United States)"/>
<marker lat="38.8" lon="-77.633" site="Haymarket (Virginia, United States)"/>
<marker lat="42.466" lon="-91.366" site="Delaware County (Iowa, United States)"/>
<marker lat="35.966" lon="-88.933" site="Trenton, Tenn. (Tennessee, United States)"/>
<marker lat="36.83" lon="-78.8" site="Neuse (North Carolina, United States)"/>
<marker lat="32.7" lon="-80.183" site="Stono River (South Carolina, United States)"/>
<marker lat="37.683" lon="-85.85" site="Elizabethtown, Ky. (Kentucky, United States)"/>
<marker lat="34.716" lon="-88.95" site="Ripley (Mississippi, United States)"/>
<marker lat="29.733" lon="-91.283" site="Atchafalaya River (Louisiana, United States)"/>
<marker lat="35.25" lon="-88.983" site="Bolivar, Tenn. (Tennessee, United States)"/>
<marker lat="33.116" lon="-90.95" site="Steele's Bayou (Mississippi, United States)"/>
<marker lat="36.5" lon="-88.0" site="Fort Henry (Tennessee, United States)"/>
<marker lat="36.383" lon="-86.433" site="Gallatin, Tenn. (Tennessee, United States)"/>
<marker lat="42.516" lon="-70.883" site="Salem (Massachusetts, United States)"/>
<marker lat="53.5" lon="-2.216" site="Manchester (United Kingdom)"/>
<marker lat="32.633" lon="-80.0" site="Snake Island (South Carolina, United States)"/>
<marker lat="29.783" lon="-90.816" site="Thibodeaux (Louisiana, United States)"/>
<marker lat="35.783" lon="-88.383" site="Parker's Cross Roads, Tenn. (Tennessee, United States)"/>
<marker lat="27.95" lon="-80.783" site="San Juan River (Florida, United States)"/>
<marker lat="40.866" lon="-73.416" site="Huntington Village (New York, United States)"/>
<marker lat="38.833" lon="-77.416" site="Centreville (Virginia, United States)"/>
<marker lat="35.483" lon="-86.45" site="Shelbyville, Tenn. (Tennessee, United States)"/>
<marker lat="46.0" lon="2.0" site="France (France)"/>
<marker lat="35.933" lon="-77.2" site="Hamilton, N. C. (North Carolina, United States)"/>
<marker lat="35.33" lon="-89.233" site="La Grange (Tennessee, United States)"/>
<marker lat="34.733" lon="-92.283" site="Little Rock (Arkansas, United States)"/>
<marker lat="34.15" lon="-90.75" site="Black Bayou (Mississippi, United States)"/>
<marker lat="32.416" lon="-80.666" site="Beaufort, S. C. (South Carolina, United States)"/>
<marker lat="34.633" lon="-90.433" site="Austin (Mississippi, United States)"/>
<marker lat="37.83" lon="-89.15" site="Mound City (Illinois, United States)"/>
<marker lat="32.35" lon="-90.533" site="Champion's Hill (Mississippi, United States)"/>
<marker lat="36.983" lon="-85.5" site="Jamestown, Ky. (Kentucky, United States)"/>
<marker lat="36.716" lon="-76.583" site="Suffolk, Va. (Virginia, United States)"/>
<marker lat="37.266" lon="-85.883" site="Munfordville (Kentucky, United States)"/>
<marker lat="37.583" lon="-77.1" site="Tunstall (Virginia, United States)"/>
<marker lat="34.0" lon="-81.33" site="Columbia (South Carolina, United States)"/>
<marker lat="42.483" lon="-90.866" site="Dubuque County (Iowa, United States)"/>
<marker lat="30.533" lon="-92.66" site="Opelousas (Louisiana, United States)"/>
<marker lat="35.733" lon="-86.666" site="Overall's Creek (Tennessee, United States)"/>
<marker lat="32.833" lon="-83.616" site="Macon (Georgia, United States)"/>
<marker lat="39.433" lon="-81.9" site="Sharpsburg (Ohio, United States)"/>
<marker lat="35.866" lon="-88.383" site="Clarksburg, Tenn. (Tennessee, United States)"/>
<marker lat="38.866" lon="-78.1" site="Rappahannock (Virginia, United States)"/>
<marker lat="37.3" lon="-77.166" site="Harrison's Landing (Virginia, United States)"/>
<marker lat="39.116" lon="-84.35" site="Mercersburg (Ohio, United States)"/>
<marker lat="41.116" lon="-85.116" site="Fort Wayne (Indiana, United States)"/>
<marker lat="40.433" lon="-79.983" site="Pittsburgh (Pennsylvania, United States)"/>
<marker lat="40.216" lon="-74.733" site="Chambersburg (New Jersey, United States)"/>
<marker lat="38.283" lon="-77.466" site="Marye's Heights (Virginia, United States)"/>
<marker lat="39.283" lon="-76.6" site="Baltimore, Md. (Maryland, United States)"/>
<marker lat="32.933" lon="-79.6" site="Bull's Bay, S. C. (South Carolina, United States)"/>
<marker lat="36.633" lon="-77.95" site="White Plains (Virginia, United States)"/>
<marker lat="35.95" lon="-83.916" site="Knoxville (Tennessee, United States)"/>
<marker lat="36.983" lon="-85.9" site="Glasgow, Ky. (Kentucky, United States)"/>
<marker lat="32.65" lon="-79.916" site="Folly Island, S. C. (South Carolina, United States)"/>
<marker lat="39.4" lon="-77.4" site="Frederick, Md. (Maryland, United States)"/>
<marker lat="29.883" lon="-92.733" site="Grand Lake (Louisiana, United States)"/>
<marker lat="34.66" lon="-86.583" site="Blountsville (Alabama, United States)"/>
<marker lat="37.16" lon="-76.333" site="Hampton (Virginia, United States)"/>
</markers>