<markers>
<marker lat="38.0" lon="-98.0" site="United States (United States)"/>
<marker lat="22.166" lon="-80.45" site="Cienfuegos (Cuba)"/>
<marker lat="35.5" lon="-80.0" site="North Carolina (North Carolina, United States)"/>
<marker lat="19.416" lon="-99.166" site="Mexico (Mexico, Mexico)"/>
<marker lat="38.0" lon="-98.0" site="Missouri (Missouri, United States)"/>
<marker lat="10.5" lon="-61.25" site="Trinidad (Trinidad and Tobago)"/>
<marker lat="45.0" lon="-69.0" site="Maine (Maine, United States)"/>
<marker lat="38.816" lon="-77.516" site="Bull Run, Va. (Virginia, United States)"/>
<marker lat="32.83" lon="-81.1" site="Savannah (Georgia, United States)"/>
<marker lat="37.2" lon="-93.283" site="Springfield, Mo. (Missouri, United States)"/>
<marker lat="37.16" lon="-76.333" site="Hampton (Virginia, United States)"/>
<marker lat="38.316" lon="-77.466" site="Falmouth, Va. (Virginia, United States)"/>
<marker lat="33.733" lon="-84.383" site="Atlanta (Georgia, United States)"/>
<marker lat="44.8" lon="-68.766" site="Bangor (Maine, United States)"/>
<marker lat="42.25" lon="-71.833" site="Massachusetts (Massachusetts, United States)"/>
<marker lat="35.1" lon="-77.33" site="New Bern (North Carolina, United States)"/>
<marker lat="44.35" lon="-78.733" site="Lindsay (Canada)"/>
<marker lat="38.35" lon="-78.766" site="Montevideo (Virginia, United States)"/>
<marker lat="31.0" lon="-92.0" site="Louisiana (Louisiana, United States)"/>
<marker lat="32.0" lon="-84.0" site="Georgia (Georgia, United States)"/>
<marker lat="38.33" lon="-84.5" site="Lexington (Kentucky, United States)"/>
<marker lat="34.0" lon="-80.0" site="South Carolina (South Carolina, United States)"/>
<marker lat="39.316" lon="-77.733" site="Harper's Ferry (West Virginia, United States)"/>
<marker lat="37.55" lon="-77.45" site="Richmond (Virginia, United States)"/>
<marker lat="37.55" lon="-77.366" site="Henrico (Virginia, United States)"/>
<marker lat="35.766" lon="-78.633" site="Raleigh (North Carolina, United States)"/>
<marker lat="23.0" lon="-102.0" site="Mexico (Mexico)"/>
<marker lat="35.5" lon="-85.0" site="Tennessee (Tennessee, United States)"/>
<marker lat="32.0" lon="-81.83" site="Chatham (Georgia, United States)"/>
<marker lat="36.166" lon="-86.75" site="Edgefield (Tennessee, United States)"/>
<marker lat="33.466" lon="-82.16" site="Augusta (Georgia, United States)"/>
<marker lat="23.116" lon="-82.35" site="Havana (Cuba)"/>
<marker lat="30.216" lon="-88.916" site="Ship Island (Mississippi, United States)"/>
<marker lat="37.483" lon="-79.866" site="Fincastle (Virginia, United States)"/>
<marker lat="38.766" lon="-79.966" site="Rich Mountain (West Virginia, United States)"/>
<marker lat="39.0" lon="-76.833" site="Maryland (Maryland, United States)"/>
<marker lat="39.16" lon="-78.1" site="Stone Bridge (Virginia, United States)"/>
<marker lat="30.616" lon="-89.8" site="Yamacraw (Mississippi, United States)"/>
<marker lat="35.15" lon="-80.866" site="Currituck (North Carolina, United States)"/>
<marker lat="34.716" lon="-76.65" site="Beaufort, N. C. (North Carolina, United States)"/>
<marker lat="33.0" lon="-87.0" site="Alabama (Alabama, United States)"/>
<marker lat="41.366" lon="-83.65" site="Bowling Green, Wood County, Ohio (Ohio, United States)"/>
<marker lat="30.366" lon="-86.916" site="Santa Rosa Island (Florida, United States)"/>
<marker lat="37.266" lon="-76.883" site="Pig Point (Virginia, United States)"/>
<marker lat="39.183" lon="-74.816" site="Dennisville (New Jersey, United States)"/>
<marker lat="41.1" lon="-89.35" site="Henry, Marshall County, Illinois (Illinois, United States)"/>
<marker lat="41.716" lon="-107.65" site="Cherokee Hill (Wyoming, United States)"/>
<marker lat="40.733" lon="-74.166" site="Milford (New Jersey, United States)"/>
<marker lat="42.8" lon="-70.866" site="Newburyport (Massachusetts, United States)"/>
<marker lat="34.983" lon="-81.233" site="Yorkville (South Carolina, United States)"/>
<marker lat="35.5" lon="-78.866" site="Fayetteville (North Carolina, United States)"/>
<marker lat="41.366" lon="-71.816" site="Westerly (Rhode Island, United States)"/>
<marker lat="36.833" lon="-86.883" site="Russellville (Kentucky, United States)"/>
<marker lat="38.5" lon="-90.266" site="Jefferson Barracks (Missouri, United States)"/>
<marker lat="44.45" lon="-68.916" site="Searsport (Maine, United States)"/>
<marker lat="32.833" lon="-83.616" site="Macon (Georgia, United States)"/>
<marker lat="37.433" lon="-122.133" site="Palo Alto (California, United States)"/>
<marker lat="34.433" lon="-82.85" site="Savannah River (United States)"/>
<marker lat="35.866" lon="-75.65" site="Roanoke Island (North Carolina, United States)"/>
<marker lat="60.0" lon="47.0" site="Russia (Russia)"/>
<marker lat="37.733" lon="-76.433" site="Lancaster County (Virginia, United States)"/>
<marker lat="22.3" lon="-97.866" site="Tampico (Tamaulipas, Mexico)"/>
<marker lat="43.7" lon="-79.416" site="York (Canada)"/>
<marker lat="40.0" lon="-89.0" site="Illinois (Illinois, United States)"/>
<marker lat="28.0" lon="-82.0" site="Florida (Florida, United States)"/>
<marker lat="33.666" lon="-84.433" site="South River, Ga. (Georgia, United States)"/>
<marker lat="38.25" lon="-85.75" site="Louisville (Kentucky, United States)"/>
<marker lat="35.0" lon="-93.0" site="Arkansas (Arkansas, United States)"/>
<marker lat="38.2" lon="-86.116" site="Harrison County, Indiana (Indiana, United States)"/>
<marker lat="55.816" lon="-98.85" site="Nelson House (Canada)"/>
<marker lat="44.783" lon="-68.75" site="Brewer, Maine (Maine, United States)"/>
<marker lat="44.7" lon="-67.45" site="Machias (Maine, United States)"/>
<marker lat="25.2" lon="-99.833" site="Monterrey (Nuevo Leon, Mexico)"/>
<marker lat="60.35" lon="-149.883" site="Russian River (Alaska, United States)"/>
<marker lat="37.0" lon="-119.0" site="California (California, United States)"/>
<marker lat="39.0" lon="-105.0" site="Colorado (Colorado, United States)"/>
<marker lat="39.333" lon="-78.75" site="Romney (West Virginia, United States)"/>
<marker lat="42.333" lon="-76.833" site="Havana, N. Y. (New York, United States)"/>
<marker lat="36.416" lon="-77.583" site="Weldon, N. C. (North Carolina, United States)"/>
<marker lat="32.866" lon="-85.183" site="West Point (Georgia, United States)"/>
<marker lat="34.666" lon="-84.233" site="Buzzard Roost (Georgia, United States)"/>
<marker lat="35.683" lon="-75.716" site="Old Point (North Carolina, United States)"/>
<marker lat="40.2" lon="-93.116" site="Milan, Sullivan County, Missouri (Missouri, United States)"/>
<marker lat="43.9" lon="-69.816" site="Bath, Me. (Maine, United States)"/>
<marker lat="40.5" lon="-80.716" site="Wheeling, W. Va. (West Virginia, United States)"/>
<marker lat="40.183" lon="-79.516" site="Southwest (Pennsylvania, United States)"/>
<marker lat="50.133" lon="-5.66" site="Falmouth (United Kingdom)"/>
<marker lat="29.15" lon="-83.33" site="Cedar Keys (Florida, United States)"/>
<marker lat="46.0" lon="2.0" site="France (France)"/>
<marker lat="40.283" lon="-84.15" site="Sydney (Ohio, United States)"/>
<marker lat="40.0" lon="-4.0" site="Spain (Spain)"/>
<marker lat="36.2" lon="-92.283" site="Norfork (Arkansas, United States)"/>
<marker lat="37.3" lon="-79.566" site="Bedford County (Virginia, United States)"/>
<marker lat="37.566" lon="-79.783" site="Botetourt (Virginia, United States)"/>
</markers>