<markers>
<marker lat="38.0" lon="-98.0" site="United States (United States)"/>
<marker lat="35.5" lon="-85.0" site="Tennessee (Tennessee, United States)"/>
<marker lat="30.316" lon="-81.65" site="Jacksonville (Florida, United States)"/>
<marker lat="37.55" lon="-77.366" site="Henrico (Virginia, United States)"/>
<marker lat="29.3" lon="-94.783" site="Galveston (Texas, United States)"/>
<marker lat="60.0" lon="47.0" site="Russia (Russia)"/>
<marker lat="37.55" lon="-77.45" site="Richmond (Virginia, United States)"/>
<marker lat="37.983" lon="-77.966" site="Louisa (Virginia, United States)"/>
<marker lat="52.0" lon="20.0" site="Poland (Poland)"/>
<marker lat="53.5" lon="-2.216" site="Manchester (United Kingdom)"/>
<marker lat="29.683" lon="-91.2" site="Brashear City (Louisiana, United States)"/>
<marker lat="31.0" lon="-92.0" site="Louisiana (Louisiana, United States)"/>
<marker lat="39.0" lon="-75.666" site="Delaware (Delaware, United States)"/>
<marker lat="37.383" lon="-77.6" site="Chesterfield (Virginia, United States)"/>
<marker lat="38.33" lon="-77.35" site="Caroline (Virginia, United States)"/>
<marker lat="42.5" lon="-70.166" site="Provincetown (Massachusetts, United States)"/>
<marker lat="47.333" lon="13.333" site="Austria (Austria)"/>
<marker lat="32.75" lon="-79.883" site="Charleston Harbor (South Carolina, United States)"/>
<marker lat="33.733" lon="-84.383" site="Atlanta (Georgia, United States)"/>
<marker lat="39.3" lon="-77.616" site="Berlin, Md. (Maryland, United States)"/>
<marker lat="42.25" lon="-71.833" site="Massachusetts (Massachusetts, United States)"/>
<marker lat="38.0" lon="-98.0" site="Missouri (Missouri, United States)"/>
<marker lat="33.0" lon="-87.0" site="Alabama (Alabama, United States)"/>
<marker lat="31.883" lon="-81.183" site="Fort McAllister (Georgia, United States)"/>
<marker lat="37.85" lon="-94.85" site="Bourbon County (Kansas, United States)"/>
<marker lat="41.483" lon="-71.3" site="Newport (Rhode Island, United States)"/>
<marker lat="37.933" lon="-77.966" site="Yanceyville (Virginia, United States)"/>
<marker lat="38.1" lon="-82.6" site="Louisa, Ky. (Kentucky, United States)"/>
<marker lat="51.66" lon="-1.25" site="Hampshire (United Kingdom)"/>
<marker lat="30.716" lon="-81.533" site="Saint Marys (Georgia, United States)"/>
<marker lat="19.0" lon="-70.666" site="Dominican Republic (Dominican Republic)"/>
<marker lat="19.0" lon="-72.0" site="Hispaniola"/>
<marker lat="42.65" lon="-73.75" site="Albany (New York, United States)"/>
<marker lat="38.266" lon="-77.15" site="King George county (Virginia, United States)"/>
<marker lat="-25.0" lon="135.0" site="Australia (Australia)"/>
<marker lat="37.766" lon="-122.416" site="San Francisco (California, United States)"/>
<marker lat="6.5" lon="-9.5" site="Liberia (Liberia)"/>
<marker lat="31.766" lon="-84.15" site="Lee (Georgia, United States)"/>
<marker lat="37.75" lon="-77.483" site="Hanover County (Virginia, United States)"/>
<marker lat="33.516" lon="-82.9" site="Ogeechee (Georgia, United States)"/>
<marker lat="37.0" lon="-119.0" site="California (California, United States)"/>
<marker lat="44.0" lon="-73.0" site="Vermont (Vermont, United States)"/>
<marker lat="42.333" lon="-76.833" site="Havana, N. Y. (New York, United States)"/>
<marker lat="44.5" lon="-75.116" site="St. Lawrence County (New York, United States)"/>
<marker lat="39.0" lon="-77.333" site="Dranesville (Virginia, United States)"/>
<marker lat="31.66" lon="35.383" site="Sodom (Israel)"/>
<marker lat="35.733" lon="-81.883" site="Catawba River (North Carolina, United States)"/>
<marker lat="37.16" lon="-76.333" site="Hampton (Virginia, United States)"/>
<marker lat="39.83" lon="-77.65" site="Loudoun (Virginia, United States)"/>
<marker lat="32.366" lon="-80.683" site="Port Royal (South Carolina, United States)"/>
<marker lat="35.966" lon="-88.933" site="Trenton, Tenn. (Tennessee, United States)"/>
<marker lat="35.183" lon="-86.1" site="Winchester (Tennessee, United States)"/>
<marker lat="37.733" lon="-77.916" site="Goochland (Virginia, United States)"/>
<marker lat="36.16" lon="-86.766" site="Brentwood, Tenn. (Tennessee, United States)"/>
</markers>