<markers>
<marker lat="38.0" lon="-98.0" site="United States (United States)"/>
<marker lat="40.833" lon="-76.0" site="Pennsylvania (Pennsylvania, United States)"/>
<marker lat="35.5" lon="-85.0" site="Tennessee (Tennessee, United States)"/>
<marker lat="39.0" lon="-76.833" site="Maryland (Maryland, United States)"/>
<marker lat="39.3" lon="-77.716" site="Loudoun Heights (Virginia, United States)"/>
<marker lat="39.45" lon="-77.95" site="Martinsburg (West Virginia, United States)"/>
<marker lat="39.366" lon="-79.16" site="New Creek (West Virginia, United States)"/>
<marker lat="41.1" lon="-90.15" site="Altona, Knox County, Illinois (Illinois, United States)"/>
<marker lat="31.0" lon="-92.0" site="Louisiana (Louisiana, United States)"/>
<marker lat="39.0" lon="-80.0" site="West Virginia (West Virginia, United States)"/>
<marker lat="37.0" lon="-80.0" site="Virginia (Virginia, United States)"/>
<marker lat="36.583" lon="-83.666" site="Cumberland Gap (Tennessee, United States)"/>
<marker lat="46.0" lon="2.0" site="France (France)"/>
<marker lat="37.733" lon="-77.916" site="Goochland (Virginia, United States)"/>
<marker lat="39.516" lon="-81.66" site="Matamoras (Ohio, United States)"/>
<marker lat="42.6" lon="-70.65" site="Glocester (Massachusetts, United States)"/>
<marker lat="37.75" lon="-78.15" site="Columbia (Virginia, United States)"/>
<marker lat="42.25" lon="-71.833" site="Massachusetts (Massachusetts, United States)"/>
<marker lat="40.0" lon="-75.0" site="New Jersey (New Jersey, United States)"/>
<marker lat="44.0" lon="-71.666" site="New Hampshire (New Hampshire, United States)"/>
<marker lat="38.983" lon="-76.15" site="Queenstown, Md. (Maryland, United States)"/>
<marker lat="38.2" lon="-77.583" site="Spottsylvania (Virginia, United States)"/>
<marker lat="32.66" lon="-99.83" site="Red River (Texas, United States)"/>
<marker lat="35.2" lon="-86.45" site="Mulberry, Lincoln county, Tennessee (Tennessee, United States)"/>
<marker lat="35.83" lon="-88.3" site="Hamburg, Tenn. (Tennessee, United States)"/>
<marker lat="25.0" lon="45.0" site="Arabia"/>
<marker lat="43.66" lon="-70.75" site="Portsmouth (New Hampshire, United States)"/>
<marker lat="28.583" lon="-96.16" site="Matagorda Peninsula, Texas (Texas, United States)"/>
<marker lat="20.15" lon="92.916" site="Akyab (Arakan, Myanmar)"/>
<marker lat="41.633" lon="-80.15" site="Meadville (Pennsylvania, United States)"/>
<marker lat="47.55" lon="-52.666" site="Saint John's (Canada)"/>
<marker lat="60.0" lon="47.0" site="Russia (Russia)"/>
<marker lat="36.683" lon="-83.1" site="Jonesville (Virginia, United States)"/>
<marker lat="37.0" lon="-85.0" site="Kentucky (Kentucky, United States)"/>
<marker lat="32.0" lon="-84.0" site="Georgia (Georgia, United States)"/>
<marker lat="60.0" lon="-96.0" site="Canada (Canada)"/>
<marker lat="37.55" lon="-77.45" site="Richmond (Virginia, United States)"/>
<marker lat="36.183" lon="-84.933" site="Jonesville (Tennessee, United States)"/>
<marker lat="51.9" lon="-8.466" site="Cork (Irish Republic)"/>
<marker lat="34.183" lon="-79.75" site="Florence, S. C. (South Carolina, United States)"/>
<marker lat="30.0" lon="-100.0" site="Texas (Texas, United States)"/>
<marker lat="32.65" lon="-79.916" site="Folly Island, S. C. (South Carolina, United States)"/>
<marker lat="41.383" lon="-84.116" site="Napoleon (Ohio, United States)"/>
<marker lat="35.866" lon="-84.5" site="Kingston (Tennessee, United States)"/>
<marker lat="40.266" lon="-76.883" site="Harrisburg, Pa. (Pennsylvania, United States)"/>
<marker lat="45.0" lon="-90.0" site="Wisconsin (Wisconsin, United States)"/>
<marker lat="29.75" lon="-95.35" site="Harrisburg (Texas, United States)"/>
<marker lat="38.0" lon="-81.35" site="Coalfield (West Virginia, United States)"/>
<marker lat="36.9" lon="-92.483" site="Vera Cruz, Mo. (Missouri, United States)"/>
<marker lat="36.583" lon="-79.383" site="Danville (Virginia, United States)"/>
<marker lat="28.4" lon="-96.366" site="DeCrow's Point, Tex. (Texas, United States)"/>
<marker lat="35.516" lon="-89.0" site="Denmark, Madison co., Tenn. (Tennessee, United States)"/>
<marker lat="42.566" lon="-74.483" site="Fulton Hill (New York, United States)"/>
<marker lat="29.85" lon="-96.483" site="San Bernard (Texas, United States)"/>
<marker lat="42.25" lon="-77.416" site="Oregon Hill (New York, United States)"/>
</markers>