<markers>
<marker lat="27.0" lon="30.0" site="Egypt (Egypt)"/>
<marker lat="39.55" lon="20.8" site="Dodona (Greece)"/>
<marker lat="38.4917" lon="22.5167" site="Delphi (Greece)"/>
<marker lat="39.9167" lon="26.2833" site="Troy (Turkey)"/>
<marker lat="30.9" lon="30.583" site="Naucratis (Egypt)"/>
<marker lat="27.15" lon="78.0" site="Agra (Uttar Pradesh, India)"/>
<marker lat="30.566" lon="31.516" site="Bubastis (Egypt)"/>
<marker lat="37.65" lon="21.6333" site="Olympia (Greece)"/>
<marker lat="30.166" lon="31.1" site="Nile"/>
<marker lat="39.0" lon="22.0" site="Greece (Greece)"/>
<marker lat="37.8833" lon="21.4" site="Elis (Greece)"/>
<marker lat="41.0333" lon="28.95" site="Byzantium (Turkey)"/>
<marker lat="38.83" lon="23.5" site="Attica (Greece)"/>
<marker lat="38.0" lon="23.35" site="Megara (Greece)"/>
<marker lat="38.325" lon="23.3333" site="Thebes (Greece)"/>
</markers>