<markers>
<marker lat="32.35" lon="-90.866" site="Vicksburg (Mississippi, United States)"/>
<marker lat="30.666" lon="-91.266" site="Port Hudson (Louisiana, United States)"/>
<marker lat="39.816" lon="-77.216" site="Gettysburg (Pennsylvania, United States)"/>
<marker lat="34.933" lon="-88.516" site="Corinth (Mississippi, United States)"/>
<marker lat="32.283" lon="-90.183" site="Jackson (Mississippi, United States)"/>
<marker lat="35.33" lon="-85.3" site="Chattanooga (Tennessee, United States)"/>
<marker lat="30.45" lon="-91.15" site="Baton Rouge (Louisiana, United States)"/>
<marker lat="35.5" lon="-85.0" site="Tennessee (Tennessee, United States)"/>
<marker lat="38.883" lon="-77.33" site="Washington (United States)"/>
<marker lat="38.3" lon="-77.633" site="Chancellorsville (Virginia, United States)"/>
<marker lat="35.133" lon="-90.33" site="Memphis (Tennessee, United States)"/>
<marker lat="35.833" lon="-86.383" site="Murfreesboro (Tennessee, United States)"/>
<marker lat="35.0" lon="-93.0" site="Arkansas (Arkansas, United States)"/>
<marker lat="38.3" lon="-77.45" site="Fredericksburg, Va. (Virginia, United States)"/>
<marker lat="39.316" lon="-77.733" site="Harper's Ferry (West Virginia, United States)"/>
<marker lat="34.983" lon="-85.333" site="Lookout Mountain, Tenn. (Tennessee, United States)"/>
<marker lat="35.95" lon="-87.366" site="Missionary Ridge, Tenn. (Tennessee, United States)"/>
<marker lat="32.16" lon="-91.5" site="Grand Gulf (Mississippi, United States)"/>
<marker lat="36.166" lon="-86.75" site="Edgefield (Tennessee, United States)"/>
<marker lat="38.366" lon="-78.66" site="Cedar Mountain (Virginia, United States)"/>
<marker lat="35.983" lon="-86.45" site="Stone River (Tennessee, United States)"/>
<marker lat="38.816" lon="-77.516" site="Bull Run, Va. (Virginia, United States)"/>
<marker lat="31.0" lon="-92.0" site="Louisiana (Louisiana, United States)"/>
<marker lat="35.95" lon="-83.916" site="Knoxville (Tennessee, United States)"/>
<marker lat="45.766" lon="-116.8" site="Cemetery Ridge (Oregon, United States)"/>
<marker lat="40.0" lon="-80.833" site="Ohio (Ohio, United States)"/>
<marker lat="39.45" lon="-77.733" site="Sharpsburg (Maryland, United States)"/>
<marker lat="39.816" lon="-77.233" site="Seminary Ridge (Pennsylvania, United States)"/>
<marker lat="32.5" lon="-90.783" site="Haynes Bluff (Mississippi, United States)"/>
<marker lat="33.683" lon="-89.116" site="Big Black (Mississippi, United States)"/>
<marker lat="37.66" lon="-88.55" site="Tennessee River (United States)"/>
<marker lat="39.816" lon="-77.216" site="Culp's Hill (Pennsylvania, United States)"/>
<marker lat="29.883" lon="-81.3" site="St. Augustine (Florida, United States)"/>
<marker lat="35.95" lon="-83.116" site="Bridgeport, Tennessee (Tennessee, United States)"/>
<marker lat="39.0" lon="-76.833" site="Maryland (Maryland, United States)"/>
<marker lat="33.533" lon="-90.166" site="Yazoo River (United States)"/>
<marker lat="38.75" lon="-77.466" site="Manassas, Va. (Virginia, United States)"/>
<marker lat="37.0" lon="-85.0" site="Kentucky (Kentucky, United States)"/>
<marker lat="40.0" lon="-89.0" site="Illinois (Illinois, United States)"/>
<marker lat="38.283" lon="-77.466" site="Marye's Heights (Virginia, United States)"/>
<marker lat="38.133" lon="-78.183" site="Gordonsville (Virginia, United States)"/>
<marker lat="35.35" lon="-86.2" site="Tullahoma (Tennessee, United States)"/>
<marker lat="32.0" lon="-84.0" site="Georgia (Georgia, United States)"/>
<marker lat="39.816" lon="-77.216" site="Cemetery Hill (Pennsylvania, United States)"/>
<marker lat="42.0" lon="-93.0" site="Iowa (Iowa, United States)"/>
<marker lat="37.33" lon="-89.183" site="Cairo, Ill. (Illinois, United States)"/>
<marker lat="35.483" lon="-86.45" site="Shelbyville, Tenn. (Tennessee, United States)"/>
<marker lat="38.0" lon="-98.0" site="United States (United States)"/>
<marker lat="34.766" lon="-89.433" site="Holly Springs (Mississippi, United States)"/>
<marker lat="40.833" lon="-76.0" site="Pennsylvania (Pennsylvania, United States)"/>
<marker lat="35.1" lon="-88.35" site="Shiloh, Tenn. (Tennessee, United States)"/>
<marker lat="40.0" lon="-86.0" site="Indiana (Indiana, United States)"/>
<marker lat="39.9" lon="-89.933" site="Rock Creek, Menard County, Illinois (Illinois, United States)"/>
<marker lat="31.95" lon="-90.983" site="Port Gibson (Mississippi, United States)"/>
<marker lat="32.35" lon="-90.533" site="Champion's Hill (Mississippi, United States)"/>
<marker lat="30.1" lon="-90.983" site="Donaldsonville (Louisiana, United States)"/>
<marker lat="34.866" lon="-85.833" site="Stevenson (Alabama, United States)"/>
<marker lat="36.483" lon="-87.85" site="Fort Donelson (Tennessee, United States)"/>
<marker lat="39.15" lon="-84.45" site="Cincinnati (Ohio, United States)"/>
<marker lat="28.0" lon="-82.0" site="Florida (Florida, United States)"/>
<marker lat="35.33" lon="-85.266" site="Orchard Knob (Tennessee, United States)"/>
<marker lat="37.816" lon="-79.25" site="South Mountain, Va. (Virginia, United States)"/>
<marker lat="36.466" lon="-89.466" site="Island Number Ten (Missouri, United States)"/>
<marker lat="32.33" lon="-87.266" site="Bridgeport, Ala. (Alabama, United States)"/>
<marker lat="32.25" lon="-90.416" site="Raymond (Mississippi, United States)"/>
<marker lat="38.8" lon="-77.33" site="Alexandria (Virginia, United States)"/>
<marker lat="34.35" lon="-89.516" site="Oxford (Mississippi, United States)"/>
<marker lat="37.333" lon="-77.25" site="Shirley (Virginia, United States)"/>
<marker lat="32.7" lon="-79.883" site="Morris Island (South Carolina, United States)"/>
<marker lat="33.0" lon="-90.0" site="Mississippi (Mississippi, United States)"/>
<marker lat="34.766" lon="-84.966" site="Dalton, Ga. (Georgia, United States)"/>
<marker lat="39.7" lon="-77.316" site="Emmitsburg (Maryland, United States)"/>
<marker lat="31.75" lon="-93.83" site="Natchitoches (Louisiana, United States)"/>
<marker lat="47.233" lon="-95.2" site="Mississippi (United States)"/>
<marker lat="35.6" lon="-88.8" site="Jackson (Tennessee, United States)"/>
<marker lat="37.583" lon="-77.1" site="Tunstall (Virginia, United States)"/>
<marker lat="40.266" lon="-76.883" site="Harrisburg, Pa. (Pennsylvania, United States)"/>
<marker lat="34.966" lon="-85.283" site="Rossville (Georgia, United States)"/>
<marker lat="38.833" lon="-77.416" site="Centreville (Virginia, United States)"/>
<marker lat="38.316" lon="-77.466" site="Falmouth, Va. (Virginia, United States)"/>
<marker lat="35.25" lon="-88.983" site="Bolivar, Tenn. (Tennessee, United States)"/>
<marker lat="34.716" lon="-85.15" site="East Chickamauga Creek (Georgia, United States)"/>
<marker lat="39.333" lon="-77.716" site="Maryland Heights (Maryland, United States)"/>
<marker lat="38.0" lon="-98.0" site="Missouri (Missouri, United States)"/>
<marker lat="44.466" lon="-91.533" site="Lookout Valley (Wisconsin, United States)"/>
<marker lat="34.55" lon="-88.833" site="Hatchie River (United States)"/>
<marker lat="32.35" lon="-88.7" site="Meridian (Mississippi, United States)"/>
<marker lat="37.0" lon="-80.0" site="Virginia (Virginia, United States)"/>
<marker lat="32.4" lon="-90.833" site="Chickasaw Bayou (Mississippi, United States)"/>
<marker lat="39.566" lon="-77.95" site="Georgetown (West Virginia, United States)"/>
<marker lat="37.866" lon="-80.133" site="Alleghany Mountains (United States)"/>
<marker lat="32.85" lon="-90.4" site="Yazoo City (Mississippi, United States)"/>
<marker lat="34.9" lon="-85.1" site="Ringgold, Ga. (Georgia, United States)"/>
<marker lat="35.33" lon="-85.5" site="Raccoon Mountains (Tennessee, United States)"/>
<marker lat="38.866" lon="-78.1" site="Rappahannock (Virginia, United States)"/>
<marker lat="38.466" lon="-77.983" site="Culpeper, Va. (Virginia, United States)"/>
<marker lat="34.733" lon="-92.283" site="Little Rock (Arkansas, United States)"/>
<marker lat="38.8" lon="-77.533" site="Groveton (Virginia, United States)"/>
<marker lat="34.0" lon="-80.0" site="South Carolina (South Carolina, United States)"/>
<marker lat="33.733" lon="-84.383" site="Atlanta (Georgia, United States)"/>
<marker lat="42.733" lon="-71.766" site="Mason, N. H. (New Hampshire, United States)"/>
<marker lat="38.25" lon="-85.75" site="Louisville (Kentucky, United States)"/>
<marker lat="39.0" lon="-80.0" site="West Virginia (West Virginia, United States)"/>
<marker lat="41.833" lon="-89.466" site="Dixon, Ill. (Illinois, United States)"/>
<marker lat="34.75" lon="-85.4" site="Chattanooga Valley (United States)"/>
<marker lat="35.33" lon="-89.183" site="Grand Junction (Tennessee, United States)"/>
<marker lat="37.83" lon="-89.15" site="Mound City (Illinois, United States)"/>
<marker lat="37.65" lon="-84.95" site="Perryville (Kentucky, United States)"/>
<marker lat="39.4" lon="-77.4" site="Frederick, Md. (Maryland, United States)"/>
<marker lat="32.66" lon="-99.83" site="Red River (Texas, United States)"/>
<marker lat="41.75" lon="-72.683" site="Hartford (Connecticut, United States)"/>
<marker lat="38.883" lon="-77.416" site="Chantilly (Virginia, United States)"/>
<marker lat="38.466" lon="-77.766" site="Kelly's Ford (Virginia, United States)"/>
<marker lat="39.716" lon="-77.6" site="Antietam Creek (United States)"/>
<marker lat="34.8" lon="-88.183" site="Iuka (Mississippi, United States)"/>
<marker lat="38.783" lon="-77.6" site="Gainesville (Virginia, United States)"/>
<marker lat="41.833" lon="-72.833" site="Connecticut (Connecticut, United States)"/>
<marker lat="43.0" lon="-75.0" site="New York State (New York, United States)"/>
<marker lat="38.6" lon="-78.183" site="Slaughter Mountain (Virginia, United States)"/>
<marker lat="30.0" lon="-100.0" site="Texas (Texas, United States)"/>
<marker lat="41.166" lon="-73.2" site="Bridgeport (Connecticut, United States)"/>
<marker lat="36.716" lon="-76.583" site="Suffolk, Va. (Virginia, United States)"/>
<marker lat="32.216" lon="-80.666" site="Hilton Head (South Carolina, United States)"/>
<marker lat="36.383" lon="-86.166" site="Hartsville (Tennessee, United States)"/>
<marker lat="36.983" lon="-89.133" site="Ohio (United States)"/>
<marker lat="39.83" lon="-77.65" site="Loudoun (Virginia, United States)"/>
<marker lat="38.233" lon="-77.85" site="Mine Run (Virginia, United States)"/>
<marker lat="45.0" lon="-90.0" site="Wisconsin (Wisconsin, United States)"/>
<marker lat="41.35" lon="-86.433" site="Donelson (Indiana, United States)"/>
<marker lat="32.75" lon="-79.85" site="Fort Moultrie (South Carolina, United States)"/>
<marker lat="36.45" lon="-94.1" site="Pea Ridge, Ark. (Arkansas, United States)"/>
<marker lat="34.25" lon="-85.15" site="Rome, Ga. (Georgia, United States)"/>
<marker lat="32.766" lon="-79.916" site="Charleston (South Carolina, United States)"/>
<marker lat="37.516" lon="-76.783" site="West Point (Virginia, United States)"/>
<marker lat="38.483" lon="-78.416" site="Rapidan (Virginia, United States)"/>
<marker lat="38.966" lon="-77.633" site="Aldie (Virginia, United States)"/>
<marker lat="35.216" lon="-88.516" site="Purdy (Tennessee, United States)"/>
<marker lat="35.183" lon="-87.16" site="Pulaski, Tenn. (Tennessee, United States)"/>
<marker lat="37.3" lon="-77.166" site="Harrison's Landing (Virginia, United States)"/>
<marker lat="42.116" lon="-115.25" site="Crawfish Spring (Idaho, United States)"/>
<marker lat="35.666" lon="-92.733" site="Arkansas (United States)"/>
<marker lat="33.6" lon="-88.65" site="West Point (Mississippi, United States)"/>
<marker lat="38.966" lon="-95.233" site="Lawrence, Kansas (Kansas, United States)"/>
<marker lat="34.0" lon="-88.75" site="Okolona (Mississippi, United States)"/>
<marker lat="32.716" lon="-79.916" site="Three Trees (South Carolina, United States)"/>
<marker lat="33.583" lon="-92.833" site="Camden, Ark. (Arkansas, United States)"/>
<marker lat="34.45" lon="-85.483" site="Alpine, Ga. (Georgia, United States)"/>
<marker lat="39.16" lon="-78.266" site="Middletown (Virginia, United States)"/>
<marker lat="38.5" lon="-77.883" site="Brandy Station (Virginia, United States)"/>
<marker lat="37.55" lon="-77.45" site="Richmond (Virginia, United States)"/>
<marker lat="31.933" lon="-91.15" site="Bruinsburg (Mississippi, United States)"/>
<marker lat="30.9" lon="-84.566" site="Bainbridge (Georgia, United States)"/>
<marker lat="39.3" lon="-77.616" site="Berlin, Md. (Maryland, United States)"/>
<marker lat="51.5" lon="-0.166" site="Waterloo bridge (United Kingdom)"/>
<marker lat="39.283" lon="-76.6" site="Baltimore, Md. (Maryland, United States)"/>
<marker lat="32.816" lon="-91.2" site="Lake Providence (Louisiana, United States)"/>
<marker lat="28.5" lon="-96.483" site="Indianola (Texas, United States)"/>
<marker lat="45.0" lon="-69.0" site="Maine (Maine, United States)"/>
<marker lat="39.933" lon="-76.333" site="Conestoga (Pennsylvania, United States)"/>
<marker lat="39.5" lon="-84.533" site="Fort Mitchell (Kentucky, United States)"/>
<marker lat="46.0" lon="-94.0" site="Minnesota (Minnesota, United States)"/>
<marker lat="40.0" lon="-75.0" site="New Jersey (New Jersey, United States)"/>
<marker lat="38.933" lon="-78.183" site="Shenandoah (United States)"/>
<marker lat="38.933" lon="-77.433" site="Cub Run, Va. (Virginia, United States)"/>
<marker lat="34.816" lon="-85.4" site="Chattanooga Creek (United States)"/>
<marker lat="33.0" lon="-87.0" site="Alabama (Alabama, United States)"/>
<marker lat="34.283" lon="-90.5" site="Tallahatchie River (Mississippi, United States)"/>
<marker lat="37.966" lon="-87.55" site="Evansville (Indiana, United States)"/>
<marker lat="38.85" lon="-78.133" site="Chester Gap (Virginia, United States)"/>
<marker lat="36.533" lon="-82.6" site="Holston (Tennessee, United States)"/>
<marker lat="39.316" lon="-84.25" site="Fosters, O. (Ohio, United States)"/>
<marker lat="35.2" lon="-86.66" site="Decherd (Tennessee, United States)"/>
<marker lat="37.783" lon="-80.283" site="White Sulphur Springs, Va. (West Virginia, United States)"/>
<marker lat="39.383" lon="-84.55" site="Fort Hamilton (Ohio, United States)"/>
<marker lat="39.6" lon="-77.816" site="Williamsport (Maryland, United States)"/>
<marker lat="34.433" lon="-90.483" site="Yazoo Pass (Mississippi, United States)"/>
<marker lat="39.633" lon="-77.716" site="Hagerstown (Maryland, United States)"/>
<marker lat="35.15" lon="-88.316" site="Pittsburg Landing (Tennessee, United States)"/>
<marker lat="32.383" lon="-90.866" site="McNutt Lake (Mississippi, United States)"/>
<marker lat="34.833" lon="-85.33" site="Tunnel Hill (Georgia, United States)"/>
<marker lat="37.416" lon="-85.733" site="Bacon Creek, Ky. (Kentucky, United States)"/>
<marker lat="38.783" lon="-90.466" site="St. Charles, Mo. (Missouri, United States)"/>
<marker lat="25.0" lon="-90.0" site="Gulf of Mexico"/>
<marker lat="40.233" lon="-87.233" site="Rob Roy (Indiana, United States)"/>
<marker lat="35.683" lon="-85.766" site="McMinnville (Tennessee, United States)"/>
<marker lat="36.583" lon="-83.666" site="Cumberland Gap (Tennessee, United States)"/>
<marker lat="36.75" lon="-89.1" site="Columbus, Ky. (Kentucky, United States)"/>
<marker lat="40.733" lon="-73.933" site="Long Island City (New York, United States)"/>
<marker lat="33.95" lon="-91.66" site="White River (Arkansas, United States)"/>
<marker lat="35.216" lon="-88.233" site="Savannah, Tenn. (Tennessee, United States)"/>
<marker lat="40.2" lon="-77.183" site="Carlisle, Pa. (Pennsylvania, United States)"/>
<marker lat="39.133" lon="-77.65" site="Hamilton (Virginia, United States)"/>
<marker lat="38.5" lon="-82.416" site="Quaker (West Virginia, United States)"/>
<marker lat="32.283" lon="-90.283" site="Bakers Creek (Mississippi, United States)"/>
<marker lat="38.916" lon="-77.85" site="Rectortown (Virginia, United States)"/>
<marker lat="37.4" lon="-78.816" site="Appomattox (Virginia, United States)"/>
<marker lat="39.933" lon="-83.85" site="Snyder's Mill (Ohio, United States)"/>
<marker lat="32.366" lon="-90.866" site="Fort Hill (Mississippi, United States)"/>
<marker lat="39.483" lon="-77.7" site="Keedysville (Maryland, United States)"/>
<marker lat="34.983" lon="-85.483" site="Whiteside, Tenn. (Tennessee, United States)"/>
</markers>