<markers>
<marker lat="34.933" lon="-88.516" site="Corinth (Mississippi, United States)"/>
<marker lat="35.33" lon="-85.3" site="Chattanooga (Tennessee, United States)"/>
<marker lat="35.95" lon="-83.916" site="Knoxville (Tennessee, United States)"/>
<marker lat="35.5" lon="-85.0" site="Tennessee (Tennessee, United States)"/>
<marker lat="37.0" lon="-85.0" site="Kentucky (Kentucky, United States)"/>
<marker lat="35.133" lon="-90.33" site="Memphis (Tennessee, United States)"/>
<marker lat="36.166" lon="-86.75" site="Edgefield (Tennessee, United States)"/>
<marker lat="37.55" lon="-77.45" site="Richmond (Virginia, United States)"/>
<marker lat="35.216" lon="-88.516" site="Purdy (Tennessee, United States)"/>
<marker lat="34.916" lon="-88.45" site="Farmington (Mississippi, United States)"/>
<marker lat="36.583" lon="-83.666" site="Cumberland Gap (Tennessee, United States)"/>
<marker lat="35.6" lon="-88.8" site="Jackson (Tennessee, United States)"/>
<marker lat="34.716" lon="-86.583" site="Huntsville (Alabama, United States)"/>
<marker lat="35.866" lon="-84.5" site="Kingston (Tennessee, United States)"/>
<marker lat="35.15" lon="-88.316" site="Pittsburg Landing (Tennessee, United States)"/>
<marker lat="34.8" lon="-88.183" site="Iuka (Mississippi, United States)"/>
<marker lat="33.0" lon="-87.0" site="Alabama (Alabama, United States)"/>
<marker lat="44.4" lon="-70.783" site="Bethel, Me. (Maine, United States)"/>
<marker lat="35.633" lon="-89.833" site="Fort Pillow (Tennessee, United States)"/>
<marker lat="34.883" lon="-88.1" site="Eastport (Mississippi, United States)"/>
<marker lat="34.75" lon="-88.516" site="Rienzi (Mississippi, United States)"/>
<marker lat="35.5" lon="-88.483" site="Caffey (Tennessee, United States)"/>
<marker lat="36.1" lon="-84.116" site="Clinton (Tennessee, United States)"/>
<marker lat="34.716" lon="-87.7" site="Tuscumbia (Alabama, United States)"/>
<marker lat="34.5" lon="-88.633" site="Baldwyn (Mississippi, United States)"/>
<marker lat="35.5" lon="-84.783" site="Decatur (Tennessee, United States)"/>
<marker lat="33.766" lon="-89.8" site="Grenada (Mississippi, United States)"/>
<marker lat="34.433" lon="-89.9" site="Danville (Mississippi, United States)"/>
<marker lat="32.0" lon="-84.0" site="Georgia (Georgia, United States)"/>
<marker lat="33.0" lon="-90.0" site="Mississippi (Mississippi, United States)"/>
<marker lat="37.66" lon="-88.55" site="Tennessee River (United States)"/>
<marker lat="35.0" lon="-93.0" site="Arkansas (Arkansas, United States)"/>
<marker lat="35.216" lon="-88.233" site="Savannah, Tenn. (Tennessee, United States)"/>
<marker lat="38.0" lon="-98.0" site="United States (United States)"/>
<marker lat="34.25" lon="-88.7" site="Tupelo (Mississippi, United States)"/>
<marker lat="34.65" lon="-88.566" site="Booneville (Mississippi, United States)"/>
<marker lat="33.483" lon="-88.416" site="Columbus (Mississippi, United States)"/>
<marker lat="37.15" lon="-82.65" site="Payne Gap (Kentucky, United States)"/>
<marker lat="35.83" lon="-88.3" site="Hamburg, Tenn. (Tennessee, United States)"/>
<marker lat="34.866" lon="-85.833" site="Stevenson (Alabama, United States)"/>
<marker lat="36.9" lon="-82.66" site="Lebanon (Virginia, United States)"/>
<marker lat="35.483" lon="-86.45" site="Shelbyville, Tenn. (Tennessee, United States)"/>
<marker lat="34.75" lon="-88.416" site="Jacinto (Mississippi, United States)"/>
<marker lat="32.35" lon="-90.866" site="Vicksburg (Mississippi, United States)"/>
<marker lat="36.6" lon="-121.883" site="Monterey (California, United States)"/>
<marker lat="34.366" lon="-88.666" site="Saltillo (Mississippi, United States)"/>
<marker lat="38.883" lon="-77.33" site="Washington (United States)"/>
<marker lat="47.233" lon="-95.2" site="Mississippi (United States)"/>
<marker lat="37.0" lon="-80.0" site="Virginia (Virginia, United States)"/>
<marker lat="33.733" lon="-84.383" site="Atlanta (Georgia, United States)"/>
<marker lat="34.833" lon="-88.3" site="Burnsville (Mississippi, United States)"/>
<marker lat="35.25" lon="-88.983" site="Bolivar, Tenn. (Tennessee, United States)"/>
<marker lat="38.25" lon="-85.75" site="Louisville (Kentucky, United States)"/>
<marker lat="35.6" lon="-87.33" site="Columbia, Tenn. (Tennessee, United States)"/>
<marker lat="36.483" lon="-87.85" site="Fort Donelson (Tennessee, United States)"/>
<marker lat="35.33" lon="-89.183" site="Grand Junction (Tennessee, United States)"/>
<marker lat="30.683" lon="-88.33" site="Mobile, Ala. (Alabama, United States)"/>
<marker lat="32.766" lon="-79.916" site="Charleston (South Carolina, United States)"/>
<marker lat="35.1" lon="-88.35" site="Shiloh, Tenn. (Tennessee, United States)"/>
<marker lat="38.616" lon="-90.183" site="St. Louis (Missouri, United States)"/>
<marker lat="35.95" lon="-83.116" site="Bridgeport, Tennessee (Tennessee, United States)"/>
<marker lat="40.433" lon="-76.933" site="Powell's Valley (Pennsylvania, United States)"/>
<marker lat="38.0" lon="-98.0" site="Missouri (Missouri, United States)"/>
<marker lat="32.45" lon="-85.85" site="Hornady (Alabama, United States)"/>
<marker lat="31.0" lon="-92.0" site="Louisiana (Louisiana, United States)"/>
<marker lat="36.7" lon="-81.966" site="Abingdon, Va. (Virginia, United States)"/>
<marker lat="34.766" lon="-84.966" site="Dalton, Ga. (Georgia, United States)"/>
<marker lat="36.316" lon="-84.183" site="Jacksborough (Tennessee, United States)"/>
<marker lat="35.383" lon="-87.966" site="Carrollville (Tennessee, United States)"/>
<marker lat="37.83" lon="-88.6" site="Paducah (Kentucky, United States)"/>
<marker lat="35.183" lon="-86.1" site="Winchester (Tennessee, United States)"/>
<marker lat="34.633" lon="-88.65" site="Blackland (Mississippi, United States)"/>
<marker lat="32.366" lon="-86.3" site="Montgomery (Alabama, United States)"/>
<marker lat="34.866" lon="-88.633" site="Kossuth (Mississippi, United States)"/>
<marker lat="36.366" lon="-84.116" site="Big Creek Gap (Tennessee, United States)"/>
<marker lat="40.0" lon="-80.833" site="Ohio (Ohio, United States)"/>
<marker lat="35.233" lon="-88.383" site="Adamsville, Tenn. (Tennessee, United States)"/>
<marker lat="34.6" lon="-88.733" site="Twentymile Creek (Mississippi, United States)"/>
<marker lat="33.95" lon="-84.55" site="Marietta (Georgia, United States)"/>
<marker lat="34.633" lon="-87.9" site="Newsome Springs (Alabama, United States)"/>
<marker lat="38.833" lon="-91.933" site="Fulton, Mo. (Missouri, United States)"/>
<marker lat="35.233" lon="-88.6" site="Bethel Station (Tennessee, United States)"/>
<marker lat="36.416" lon="-89.5" site="Union City (Tennessee, United States)"/>
<marker lat="42.25" lon="-71.833" site="Massachusetts (Massachusetts, United States)"/>
<marker lat="34.783" lon="-87.666" site="Florence, Ala. (Alabama, United States)"/>
<marker lat="35.833" lon="-87.233" site="Lick Creek (Tennessee, United States)"/>
<marker lat="35.716" lon="-84.333" site="Loudon, Tenn. (Tennessee, United States)"/>
<marker lat="35.683" lon="-85.766" site="McMinnville (Tennessee, United States)"/>
<marker lat="35.966" lon="-88.933" site="Trenton, Tenn. (Tennessee, United States)"/>
<marker lat="39.833" lon="-88.95" site="Decatur (Illinois, United States)"/>
<marker lat="34.716" lon="-88.95" site="Ripley (Mississippi, United States)"/>
<marker lat="39.15" lon="-84.45" site="Cincinnati (Ohio, United States)"/>
<marker lat="36.966" lon="-82.6" site="Wise County (Virginia, United States)"/>
<marker lat="28.0" lon="-82.0" site="Florida (Florida, United States)"/>
<marker lat="35.816" lon="-88.9" site="Humboldt, Tenn. (Tennessee, United States)"/>
<marker lat="32.83" lon="-81.1" site="Savannah (Georgia, United States)"/>
<marker lat="34.0" lon="-88.75" site="Okolona (Mississippi, United States)"/>
<marker lat="35.66" lon="-85.616" site="Jasper, Tenn. (Tennessee, United States)"/>
<marker lat="36.466" lon="-89.466" site="Island Number Ten (Missouri, United States)"/>
<marker lat="34.183" lon="-79.75" site="Florence, S. C. (South Carolina, United States)"/>
<marker lat="30.0" lon="-100.0" site="Texas (Texas, United States)"/>
<marker lat="32.45" lon="-90.7" site="Clear Creek (Mississippi, United States)"/>
<marker lat="35.833" lon="-86.383" site="Murfreesboro (Tennessee, United States)"/>
<marker lat="36.933" lon="-81.83" site="Wytheville (Virginia, United States)"/>
<marker lat="35.483" lon="-77.966" site="Pikeville (North Carolina, United States)"/>
<marker lat="35.5" lon="-78.866" site="Fayetteville (North Carolina, United States)"/>
<marker lat="35.466" lon="-86.83" site="Manchester, Tenn. (Tennessee, United States)"/>
<marker lat="34.95" lon="-88.233" site="High Point (Mississippi, United States)"/>
<marker lat="35.15" lon="-84.866" site="Cleveland, Tenn. (Tennessee, United States)"/>
<marker lat="33.66" lon="-83.216" site="Milledgeville (Georgia, United States)"/>
<marker lat="37.833" lon="-87.583" site="Henderson, Ky. (Kentucky, United States)"/>
<marker lat="35.183" lon="-87.16" site="Pulaski, Tenn. (Tennessee, United States)"/>
<marker lat="34.7" lon="-85.933" site="Bellefonte (Alabama, United States)"/>
<marker lat="36.35" lon="-83.533" site="Clinch River (Tennessee, United States)"/>
<marker lat="38.266" lon="-85.733" site="Jeffersonville, Ind. (Indiana, United States)"/>
<marker lat="42.316" lon="-72.333" site="Enfield (Massachusetts, United States)"/>
<marker lat="32.433" lon="-89.1" site="Decatur (Mississippi, United States)"/>
<marker lat="36.916" lon="-81.5" site="Wythe (Virginia, United States)"/>
<marker lat="36.933" lon="-82.83" site="Russell County (Virginia, United States)"/>
<marker lat="36.283" lon="-88.7" site="Dresden, Tenn. (Tennessee, United States)"/>
<marker lat="40.0" lon="-86.0" site="Indiana (Indiana, United States)"/>
<marker lat="35.5" lon="-89.883" site="Randolphs (Tennessee, United States)"/>
<marker lat="34.616" lon="-86.866" site="Mooresville, Ala. (Alabama, United States)"/>
<marker lat="34.233" lon="-88.983" site="Pontotoc (Mississippi, United States)"/>
<marker lat="34.25" lon="-88.65" site="Priceville (Mississippi, United States)"/>
<marker lat="36.45" lon="-83.566" site="Tazewell, Tenn. (Tennessee, United States)"/>
<marker lat="35.2" lon="-86.66" site="Decherd (Tennessee, United States)"/>
<marker lat="35.0" lon="-88.733" site="Tuscumbia River (Tennessee, United States)"/>
<marker lat="37.65" lon="-82.766" site="Prestonburg (Kentucky, United States)"/>
<marker lat="36.366" lon="-89.466" site="Tiptonville (Tennessee, United States)"/>
<marker lat="38.966" lon="-92.733" site="Boonville (Missouri, United States)"/>
<marker lat="33.433" lon="-86.1" site="Talladega (Alabama, United States)"/>
<marker lat="41.816" lon="-73.7" site="Shunpike (New York, United States)"/>
<marker lat="36.85" lon="-81.516" site="Smyth (Virginia, United States)"/>
<marker lat="35.0" lon="-88.633" site="Chewalla (Tennessee, United States)"/>
<marker lat="37.1" lon="-82.716" site="Cumberland River (Kentucky, United States)"/>
<marker lat="35.15" lon="-86.566" site="Fayetteville, Tenn. (Tennessee, United States)"/>
<marker lat="35.633" lon="-91.3" site="Jacksonport (Arkansas, United States)"/>
<marker lat="34.766" lon="-89.433" site="Holly Springs (Mississippi, United States)"/>
<marker lat="36.45" lon="-84.516" site="Scott (Tennessee, United States)"/>
<marker lat="34.0" lon="-80.0" site="South Carolina (South Carolina, United States)"/>
<marker lat="40.433" lon="-79.983" site="Pittsburgh (Pennsylvania, United States)"/>
<marker lat="36.366" lon="-83.966" site="Powell River (Tennessee, United States)"/>
<marker lat="34.8" lon="-86.966" site="Athens, Ala. (Alabama, United States)"/>
<marker lat="30.416" lon="-87.216" site="Pensacola (Florida, United States)"/>
<marker lat="39.0" lon="-80.0" site="West Virginia (West Virginia, United States)"/>
<marker lat="36.583" lon="-94.383" site="Pineville (Missouri, United States)"/>
<marker lat="32.283" lon="-90.183" site="Jackson (Mississippi, United States)"/>
<marker lat="36.2" lon="-83.283" site="Morristown, Tenn. (Tennessee, United States)"/>
<marker lat="36.566" lon="-89.183" site="Hickman, Ky. (Kentucky, United States)"/>
<marker lat="51.5" lon="-0.166" site="London (United Kingdom)"/>
<marker lat="34.433" lon="-88.65" site="Guntown (Mississippi, United States)"/>
<marker lat="42.666" lon="-88.533" site="Elkhorn, Walworth County, Wisconsin (Wisconsin, United States)"/>
<marker lat="35.66" lon="-85.8" site="Sweeden's Cove (Tennessee, United States)"/>
<marker lat="40.266" lon="-76.883" site="Harrisburg, Pa. (Pennsylvania, United States)"/>
<marker lat="29.95" lon="-90.66" site="New Orleans (Louisiana, United States)"/>
<marker lat="34.666" lon="-87.3" site="Courtland, Ala. (Alabama, United States)"/>
<marker lat="39.65" lon="-94.766" site="Buchanan (Missouri, United States)"/>
<marker lat="37.4" lon="-79.133" site="Lynchburg (Virginia, United States)"/>
<marker lat="35.35" lon="-86.2" site="Tullahoma (Tennessee, United States)"/>
<marker lat="35.433" lon="-88.633" site="Henderson Station (Tennessee, United States)"/>
<marker lat="35.433" lon="-84.583" site="Athens, Tenn. (Tennessee, United States)"/>
<marker lat="36.683" lon="-83.133" site="Lee County, Va. (Virginia, United States)"/>
<marker lat="34.85" lon="-88.4" site="Glendale (Mississippi, United States)"/>
<marker lat="37.1" lon="-81.566" site="Tazewell (Virginia, United States)"/>
<marker lat="35.66" lon="-88.316" site="Childer's Hill (Tennessee, United States)"/>
<marker lat="39.766" lon="-86.15" site="Indianapolis (Indiana, United States)"/>
<marker lat="43.233" lon="-88.183" site="Bark (Wisconsin, United States)"/>
<marker lat="34.816" lon="-89.983" site="Hernando (Mississippi, United States)"/>
<marker lat="37.916" lon="-83.25" site="West Liberty, Ky. (Kentucky, United States)"/>
<marker lat="38.33" lon="-84.5" site="Lexington (Kentucky, United States)"/>
<marker lat="33.6" lon="-88.65" site="West Point (Mississippi, United States)"/>
<marker lat="35.5" lon="-80.0" site="North Carolina (North Carolina, United States)"/>
<marker lat="34.35" lon="-89.516" site="Oxford (Mississippi, United States)"/>
<marker lat="36.583" lon="-82.183" site="Bristol (Tennessee, United States)"/>
<marker lat="35.65" lon="-88.383" site="Lexington, Tenn. (Tennessee, United States)"/>
<marker lat="32.4" lon="-87.16" site="Selma (Alabama, United States)"/>
<marker lat="44.0" lon="-85.0" site="Michigan (Michigan, United States)"/>
<marker lat="38.133" lon="-83.75" site="Owingsville (Kentucky, United States)"/>
<marker lat="34.55" lon="-88.833" site="Hatchie River (United States)"/>
<marker lat="31.55" lon="-91.4" site="Natchez (Mississippi, United States)"/>
<marker lat="36.983" lon="-86.433" site="Bowling Green (Kentucky, United States)"/>
<marker lat="33.516" lon="-84.35" site="Jonesboro (Georgia, United States)"/>
<marker lat="40.366" lon="-84.283" site="St. Patricks (Ohio, United States)"/>
<marker lat="34.966" lon="-91.483" site="Des Arc (Arkansas, United States)"/>
<marker lat="34.666" lon="-87.4" site="Jonesborough (Alabama, United States)"/>
<marker lat="32.35" lon="-88.7" site="Meridian (Mississippi, United States)"/>
<marker lat="34.633" lon="-87.9" site="Buzzard Roost Creek (Alabama, United States)"/>
<marker lat="35.116" lon="-88.5" site="Muddy Creek (Tennessee, United States)"/>
<marker lat="39.166" lon="-91.866" site="Mexico, Mo. (Missouri, United States)"/>
<marker lat="34.9" lon="-87.7" site="Sharp's Mill (Alabama, United States)"/>
<marker lat="32.983" lon="-90.416" site="Crump (Mississippi, United States)"/>
<marker lat="37.33" lon="-89.183" site="Cairo, Ill. (Illinois, United States)"/>
<marker lat="44.0" lon="-105.833" site="Wyoming (Wyoming, United States)"/>
<marker lat="34.4" lon="-88.766" site="Birmingham (Mississippi, United States)"/>
<marker lat="30.733" lon="-91.416" site="Pointe Coupee (La.) (Louisiana, United States)"/>
<marker lat="36.85" lon="-83.883" site="Barbourville (Kentucky, United States)"/>
<marker lat="35.2" lon="-85.833" site="Battle Creek (Tennessee, United States)"/>
<marker lat="42.83" lon="-79.233" site="Jamestown, N. Y. (New York, United States)"/>
<marker lat="38.283" lon="-85.816" site="New Albany (Indiana, United States)"/>
</markers>