<markers>
<marker lat="42.25" lon="-71.833" site="Massachusetts (Massachusetts, United States)"/>
<marker lat="39.283" lon="-76.6" site="Baltimore, Md. (Maryland, United States)"/>
<marker lat="42.25" lon="-71.8" site="Worcester (Massachusetts, United States)"/>
<marker lat="39.0" lon="-105.0" site="Colorado (Colorado, United States)"/>
<marker lat="38.0" lon="-98.0" site="United States (United States)"/>
<marker lat="38.966" lon="-76.483" site="Annapolis (Maryland, United States)"/>
<marker lat="38.3" lon="-77.45" site="Fredericksburg, Va. (Virginia, United States)"/>
<marker lat="40.833" lon="-76.0" site="Pennsylvania (Pennsylvania, United States)"/>
<marker lat="38.366" lon="-78.66" site="Cedar Mountain (Virginia, United States)"/>
<marker lat="30.666" lon="-91.266" site="Port Hudson (Louisiana, United States)"/>
<marker lat="38.2" lon="-77.583" site="Spottsylvania (Virginia, United States)"/>
<marker lat="44.0" lon="-73.0" site="Vermont (Vermont, United States)"/>
<marker lat="38.3" lon="-77.633" site="Chancellorsville (Virginia, United States)"/>
<marker lat="31.0" lon="-92.0" site="Louisiana (Louisiana, United States)"/>
<marker lat="42.516" lon="-70.883" site="Salem (Massachusetts, United States)"/>
<marker lat="35.5" lon="-80.0" site="North Carolina (North Carolina, United States)"/>
<marker lat="32.716" lon="-79.95" site="James Island (South Carolina, United States)"/>
<marker lat="29.3" lon="-94.783" site="Galveston (Texas, United States)"/>
<marker lat="45.0" lon="-69.0" site="Maine (Maine, United States)"/>
<marker lat="46.0" lon="-94.0" site="Minnesota (Minnesota, United States)"/>
<marker lat="44.0" lon="-71.666" site="New Hampshire (New Hampshire, United States)"/>
<marker lat="45.0" lon="-90.0" site="Wisconsin (Wisconsin, United States)"/>
<marker lat="35.25" lon="-77.566" site="Kinston (North Carolina, United States)"/>
<marker lat="38.666" lon="-98.0" site="Kansas (Kansas, United States)"/>
<marker lat="37.433" lon="-77.233" site="Glendale, Va. (Virginia, United States)"/>
<marker lat="32.65" lon="-79.916" site="Folly Island, S. C. (South Carolina, United States)"/>
<marker lat="41.833" lon="-71.166" site="Bristol County (Massachusetts, United States)"/>
<marker lat="32.75" lon="-79.883" site="Charleston Harbor (South Carolina, United States)"/>
<marker lat="37.4" lon="-77.3" site="Deep Bottom (Virginia, United States)"/>
<marker lat="42.466" lon="-70.95" site="Lynn (Massachusetts, United States)"/>
<marker lat="41.7" lon="-71.15" site="Quiquechan River (Massachusetts, United States)"/>
<marker lat="35.866" lon="-76.733" site="Plymouth, N. C. (North Carolina, United States)"/>
<marker lat="39.16" lon="-78.3" site="Meadow Mills (Virginia, United States)"/>
<marker lat="37.516" lon="-76.783" site="West Point (Virginia, United States)"/>
<marker lat="35.866" lon="-75.65" site="Roanoke Island (North Carolina, United States)"/>
<marker lat="31.3" lon="-92.433" site="Alexandria (Louisiana, United States)"/>
<marker lat="37.766" lon="-122.416" site="San Francisco (California, United States)"/>
<marker lat="40.0" lon="-86.0" site="Indiana (Indiana, United States)"/>
<marker lat="38.966" lon="-77.633" site="Aldie (Virginia, United States)"/>
<marker lat="41.833" lon="-70.833" site="Plymouth County (Massachusetts, United States)"/>
<marker lat="37.216" lon="-77.4" site="Petersburg, Va. (Virginia, United States)"/>
<marker lat="41.666" lon="-71.5" site="Rhode Island (Rhode Island, United States)"/>
<marker lat="34.0" lon="-80.0" site="South Carolina (South Carolina, United States)"/>
<marker lat="41.816" lon="-71.4" site="Providence, R. I. (Rhode Island, United States)"/>
<marker lat="35.216" lon="-77.833" site="Whitehall (North Carolina, United States)"/>
<marker lat="51.5" lon="10.5" site="Germany (Germany)"/>
<marker lat="30.2" lon="-82.416" site="Olustee (Florida, United States)"/>
<marker lat="35.633" lon="-89.833" site="Fort Pillow (Tennessee, United States)"/>
<marker lat="39.55" lon="-76.66" site="Perryville, Md. (Maryland, United States)"/>
<marker lat="42.416" lon="-71.1" site="Medford (Massachusetts, United States)"/>
<marker lat="38.8" lon="-77.533" site="Groveton (Virginia, United States)"/>
<marker lat="33.733" lon="-84.383" site="Atlanta (Georgia, United States)"/>
<marker lat="38.5" lon="-77.883" site="Brandy Station (Virginia, United States)"/>
<marker lat="32.416" lon="-80.666" site="Beaufort, S. C. (South Carolina, United States)"/>
<marker lat="38.916" lon="-78.183" site="Front Royal (Virginia, United States)"/>
<marker lat="44.0" lon="-85.0" site="Michigan (Michigan, United States)"/>
<marker lat="40.0" lon="-75.0" site="New Jersey (New Jersey, United States)"/>
<marker lat="35.1" lon="-77.33" site="New Bern (North Carolina, United States)"/>
<marker lat="42.466" lon="-71.1" site="Stoneham (Massachusetts, United States)"/>
<marker lat="32.466" lon="-80.933" site="Honey Hill (South Carolina, United States)"/>
<marker lat="34.433" lon="-89.783" site="Cemetery Ridge (Mississippi, United States)"/>
<marker lat="37.233" lon="-76.5" site="Yorktown (Virginia, United States)"/>
<marker lat="38.883" lon="-77.416" site="Chantilly (Virginia, United States)"/>
<marker lat="42.5" lon="-71.333" site="Middlesex County (Massachusetts, United States)"/>
<marker lat="42.5" lon="-70.85" site="Marblehead (Massachusetts, United States)"/>
<marker lat="40.0" lon="-89.0" site="Illinois (Illinois, United States)"/>
<marker lat="32.633" lon="-80.85" site="Pocotaligo (South Carolina, United States)"/>
<marker lat="32.83" lon="-81.1" site="Savannah (Georgia, United States)"/>
<marker lat="41.95" lon="-70.666" site="Accomack (Massachusetts, United States)"/>
<marker lat="42.633" lon="-71.316" site="Lowell (Massachusetts, United States)"/>
<marker lat="37.55" lon="-77.45" site="Richmond (Virginia, United States)"/>
<marker lat="38.883" lon="-77.33" site="Washington (United States)"/>
<marker lat="32.283" lon="-90.183" site="Jackson (Mississippi, United States)"/>
<marker lat="38.983" lon="-78.35" site="Strasburg, Va. (Virginia, United States)"/>
<marker lat="41.833" lon="-72.833" site="Connecticut (Connecticut, United States)"/>
<marker lat="37.0" lon="-119.0" site="California (California, United States)"/>
<marker lat="34.633" lon="-77.95" site="Washington, N. C. (North Carolina, United States)"/>
<marker lat="37.66" lon="-77.583" site="Dinwiddie Court House (Virginia, United States)"/>
<marker lat="37.383" lon="-77.233" site="Malvern Hill (Virginia, United States)"/>
<marker lat="42.666" lon="-70.833" site="Essex County (Massachusetts, United States)"/>
<marker lat="35.95" lon="-83.916" site="Knoxville (Tennessee, United States)"/>
<marker lat="32.366" lon="-80.683" site="Port Royal (South Carolina, United States)"/>
<marker lat="32.766" lon="-79.916" site="Charleston (South Carolina, United States)"/>
<marker lat="33.5" lon="-89.4" site="Newtonville (Mississippi, United States)"/>
<marker lat="46.0" lon="2.0" site="France (France)"/>
<marker lat="44.366" lon="-87.783" site="Fontenoy (Wisconsin, United States)"/>
<marker lat="32.466" lon="-90.7" site="Oak Ridge (Mississippi, United States)"/>
<marker lat="42.333" lon="-71.83" site="Suffolk County (Massachusetts, United States)"/>
<marker lat="42.333" lon="-71.55" site="Marlboro, Mass. (Massachusetts, United States)"/>
<marker lat="38.15" lon="-78.83" site="North Anna (Virginia, United States)"/>
<marker lat="36.583" lon="-82.183" site="Bristol, Va. (Virginia, United States)"/>
<marker lat="35.95" lon="-87.366" site="Missionary Ridge, Tenn. (Tennessee, United States)"/>
<marker lat="38.283" lon="-77.466" site="Marye's Heights (Virginia, United States)"/>
<marker lat="35.383" lon="-77.983" site="Goldsboro (North Carolina, United States)"/>
<marker lat="37.233" lon="-78.233" site="Sailor's Creek (Virginia, United States)"/>
<marker lat="32.633" lon="-80.0" site="Snake Island (South Carolina, United States)"/>
<marker lat="42.333" lon="-73.25" site="Berkshire County (Massachusetts, United States)"/>
<marker lat="32.7" lon="-79.883" site="Morris Island (South Carolina, United States)"/>
<marker lat="44.5" lon="-69.66" site="Waldo, Me. (Maine, United States)"/>
<marker lat="39.0" lon="-76.833" site="Maryland (Maryland, United States)"/>
<marker lat="38.35" lon="-78.833" site="Cross Keys (Virginia, United States)"/>
<marker lat="38.0" lon="-98.0" site="Missouri (Missouri, United States)"/>
<marker lat="32.66" lon="-81.0" site="Wilmington River (Georgia, United States)"/>
<marker lat="35.66" lon="-77.183" site="Deep Gully (North Carolina, United States)"/>
<marker lat="29.683" lon="-91.2" site="Brashear City (Louisiana, United States)"/>
<marker lat="36.33" lon="-77.733" site="Battleboro (North Carolina, United States)"/>
<marker lat="38.2" lon="-78.883" site="Piedmont, Va. (Virginia, United States)"/>
<marker lat="39.133" lon="-77.416" site="Poolesville (Maryland, United States)"/>
<marker lat="37.3" lon="-78.383" site="Farmville (Virginia, United States)"/>
<marker lat="37.366" lon="-77.5" site="Chesterfield (Virginia, United States)"/>
<marker lat="42.35" lon="-71.5" site="Boston (Massachusetts, United States)"/>
<marker lat="38.6" lon="-78.783" site="Broadway (Virginia, United States)"/>
<marker lat="33.966" lon="-84.566" site="Kenesaw Mountain (Georgia, United States)"/>
<marker lat="39.233" lon="-77.95" site="Summit Point (West Virginia, United States)"/>
<marker lat="31.883" lon="-81.183" site="Fort McAllister (Georgia, United States)"/>
<marker lat="30.733" lon="-91.633" site="Bayou La Fourche (Louisiana, United States)"/>
<marker lat="42.66" lon="-72.216" site="Wales (Massachusetts, United States)"/>
<marker lat="38.733" lon="-77.7" site="Kettle Run, Va. (Virginia, United States)"/>
<marker lat="39.816" lon="-77.216" site="Cemetery Hill (Pennsylvania, United States)"/>
<marker lat="32.333" lon="-90.66" site="Luckney (Mississippi, United States)"/>
<marker lat="35.6" lon="-78.83" site="Black Creek (North Carolina, United States)"/>
<marker lat="35.15" lon="-88.316" site="Pittsburg Landing (Tennessee, United States)"/>
<marker lat="37.75" lon="-77.466" site="Ashland (Virginia, United States)"/>
<marker lat="42.216" lon="-71.0" site="Braintree (Massachusetts, United States)"/>
<marker lat="36.833" lon="-76.283" site="Norfolk (Virginia, United States)"/>
<marker lat="29.95" lon="-90.66" site="New Orleans (Louisiana, United States)"/>
<marker lat="31.933" lon="-80.95" site="Warsaw Sound (Georgia, United States)"/>
<marker lat="42.8" lon="-70.866" site="Newburyport (Massachusetts, United States)"/>
<marker lat="38.7" lon="-77.7" site="Auburn, Va. (Virginia, United States)"/>
<marker lat="42.516" lon="-70.866" site="Salem Harbor (Massachusetts, United States)"/>
<marker lat="1.0" lon="-40.0" site="Atlantic Ocean"/>
<marker lat="37.333" lon="-77.66" site="Charles City (Virginia, United States)"/>
<marker lat="37.633" lon="-77.45" site="Yellow Tavern (Virginia, United States)"/>
<marker lat="30.666" lon="-81.45" site="Fernandina, Fla. (Florida, United States)"/>
<marker lat="30.733" lon="-87.916" site="Blakely (Alabama, United States)"/>
<marker lat="37.4" lon="-79.133" site="Lynchburg (Virginia, United States)"/>
<marker lat="38.816" lon="-77.516" site="Bull Run, Va. (Virginia, United States)"/>
<marker lat="38.966" lon="-78.4" site="Fishers Hill (Virginia, United States)"/>
<marker lat="29.35" lon="-89.516" site="Buras (Louisiana, United States)"/>
<marker lat="34.9" lon="-77.216" site="Maysville (North Carolina, United States)"/>
<marker lat="42.566" lon="-70.916" site="Danvers (Massachusetts, United States)"/>
<marker lat="35.933" lon="-77.2" site="Hamilton, N. C. (North Carolina, United States)"/>
<marker lat="44.4" lon="-70.783" site="Bethel, Me. (Maine, United States)"/>
<marker lat="30.916" lon="-91.8" site="Yellow Bayou (Louisiana, United States)"/>
<marker lat="42.166" lon="-72.583" site="Hampden (Massachusetts, United States)"/>
<marker lat="39.183" lon="-78.15" site="Winchester, Va. (Virginia, United States)"/>
<marker lat="39.16" lon="-78.416" site="Tumbling Run (Virginia, United States)"/>
<marker lat="42.35" lon="-71.1" site="Cambridgeport (Massachusetts, United States)"/>
<marker lat="34.5" lon="-78.9" site="Gum Swamp (North Carolina, United States)"/>
<marker lat="42.66" lon="-70.933" site="Whitman (Massachusetts, United States)"/>
<marker lat="42.166" lon="-72.35" site="Chicopee (Massachusetts, United States)"/>
<marker lat="42.516" lon="-70.916" site="Peabody (Massachusetts, United States)"/>
<marker lat="52.516" lon="-3.5" site="Cambria (United Kingdom)"/>
<marker lat="37.16" lon="-76.416" site="Newmarket, Va. (Virginia, United States)"/>
<marker lat="42.0" lon="-93.0" site="Iowa (Iowa, United States)"/>
<marker lat="32.0" lon="-84.0" site="Georgia (Georgia, United States)"/>
<marker lat="39.0" lon="-75.666" site="Delaware (Delaware, United States)"/>
<marker lat="38.316" lon="-78.166" site="Twymans Mill (Virginia, United States)"/>
<marker lat="38.233" lon="-77.666" site="Todd's Tavern (Virginia, United States)"/>
<marker lat="38.983" lon="-78.333" site="Hupp Hill (Virginia, United States)"/>
<marker lat="33.6" lon="-88.65" site="West Point (Mississippi, United States)"/>
<marker lat="38.933" lon="-78.433" site="Tom's Brook (Virginia, United States)"/>
<marker lat="42.516" lon="-70.866" site="Winter Island (Massachusetts, United States)"/>
<marker lat="46.233" lon="-122.783" site="Headquarters (Washington, United States)"/>
<marker lat="42.45" lon="-73.233" site="Pittsfield (Massachusetts, United States)"/>
<marker lat="44.0" lon="-120.0" site="Oregon (Oregon, United States)"/>
<marker lat="42.333" lon="-71.833" site="Worcester County (Massachusetts, United States)"/>
<marker lat="32.366" lon="-86.3" site="Montgomery (Alabama, United States)"/>
<marker lat="37.416" lon="-77.45" site="Drewry's Bluff (Virginia, United States)"/>
<marker lat="38.25" lon="-85.75" site="Louisville (Kentucky, United States)"/>
<marker lat="39.316" lon="-77.733" site="Harper's Ferry (West Virginia, United States)"/>
<marker lat="39.833" lon="-81.966" site="Duncan Run (Ohio, United States)"/>
<marker lat="35.766" lon="-78.633" site="Raleigh (North Carolina, United States)"/>
<marker lat="35.783" lon="-84.25" site="Lenoirs (Tennessee, United States)"/>
<marker lat="41.9" lon="-71.83" site="Taunton (Massachusetts, United States)"/>
<marker lat="39.883" lon="-77.233" site="Willoughby Run (Pennsylvania, United States)"/>
<marker lat="42.216" lon="-70.816" site="James Hill (Massachusetts, United States)"/>
<marker lat="41.783" lon="-69.983" site="Orleans, Ma. (Massachusetts, United States)"/>
<marker lat="42.366" lon="-71.233" site="Waltham (Massachusetts, United States)"/>
<marker lat="42.366" lon="-71.183" site="Watertown (Massachusetts, United States)"/>
<marker lat="31.866" lon="-93.883" site="Sabine (United States)"/>
<marker lat="42.583" lon="-71.8" site="Fitchburg (Massachusetts, United States)"/>
<marker lat="23.0" lon="-102.0" site="Mexico (Mexico)"/>
<marker lat="35.5" lon="-85.0" site="Tennessee (Tennessee, United States)"/>
<marker lat="42.1" lon="-72.583" site="Springfield (Massachusetts, United States)"/>
<marker lat="42.6" lon="-71.566" site="Groton (Massachusetts, United States)"/>
<marker lat="42.766" lon="-71.66" site="Haverhill (Massachusetts, United States)"/>
<marker lat="41.733" lon="-70.7" site="Barney's Point (Massachusetts, United States)"/>
<marker lat="41.383" lon="-84.116" site="Napoleon (Ohio, United States)"/>
<marker lat="32.65" lon="-80.383" site="South Edisto River (South Carolina, United States)"/>
<marker lat="35.6" lon="-88.8" site="Jackson (Tennessee, United States)"/>
<marker lat="34.983" lon="-85.333" site="Lookout Mountain, Tenn. (Tennessee, United States)"/>
<marker lat="35.883" lon="-84.166" site="Station West (Tennessee, United States)"/>
<marker lat="32.7" lon="-79.933" site="Secessionville (South Carolina, United States)"/>
<marker lat="31.55" lon="-92.966" site="Cane (Louisiana, United States)"/>
<marker lat="42.333" lon="-72.583" site="Hampshire County (Massachusetts, United States)"/>
<marker lat="36.166" lon="-86.75" site="Edgefield (Tennessee, United States)"/>
<marker lat="36.216" lon="-76.45" site="Winfield (North Carolina, United States)"/>
<marker lat="35.783" lon="-77.3" site="Tranter's Creek (North Carolina, United States)"/>
<marker lat="42.7" lon="-73.2" site="Williamstown (Massachusetts, United States)"/>
</markers>