<markers>
<marker lat="41.883" lon="12.5" site="Roma (Italy)"/>
<marker lat="42.833" lon="12.833" site="Italy (Italy)"/>
<marker lat="43.783" lon="11.25" site="Florence (Italy)"/>
<marker lat="42.6" lon="-71.566" site="Groton (Massachusetts, United States)"/>
<marker lat="46.0" lon="2.0" site="France (France)"/>
<marker lat="42.4" lon="12.85" site="Rieti (Italy)"/>
<marker lat="48.866" lon="2.333" site="Department de Ville de Paris (France)"/>
<marker lat="34.25" lon="-85.15" site="Rome, Ga. (Georgia, United States)"/>
<marker lat="40.2" lon="-93.116" site="Milan, Sullivan County, Missouri (Missouri, United States)"/>
<marker lat="41.816" lon="-71.4" site="Providence, R. I. (Rhode Island, United States)"/>
<marker lat="42.3" lon="-71.116" site="Jamaica Plain (Massachusetts, United States)"/>
<marker lat="38.0" lon="-98.0" site="United States (United States)"/>
<marker lat="44.316" lon="-93.95" site="St. Peter (Minnesota, United States)"/>
<marker lat="45.433" lon="12.333" site="Venice (Italy)"/>
<marker lat="39.0" lon="22.0" site="Greece (Greece)"/>
<marker lat="45.666" lon="9.5" site="Lombardy (Italy)"/>
<marker lat="40.833" lon="14.25" site="Naples (Italy)"/>
<marker lat="51.5" lon="10.5" site="Germany (Germany)"/>
<marker lat="43.416" lon="11.0" site="Tuscany (Italy)"/>
<marker lat="60.0" lon="47.0" site="Russia (Russia)"/>
<marker lat="47.0" lon="8.0" site="Switzerland (Switzerland)"/>
<marker lat="44.5" lon="11.333" site="Bologna (Italy)"/>
<marker lat="43.55" lon="10.3" site="Leghorn (Italy)"/>
<marker lat="43.2" lon="-71.533" site="Concord, N. H. (New Hampshire, United States)"/>
<marker lat="59.883" lon="30.25" site="St. Petersburg (Russia)"/>
<marker lat="42.366" lon="-71.133" site="Mount Auburn (Massachusetts, United States)"/>
<marker lat="42.25" lon="-71.833" site="Massachusetts (Massachusetts, United States)"/>
<marker lat="45.55" lon="11.533" site="Vicenza (Italy)"/>
<marker lat="41.483" lon="-71.3" site="Newport (Rhode Island, United States)"/>
<marker lat="45.433" lon="11.0" site="Verona (Italy)"/>
<marker lat="44.7" lon="10.83" site="Parma (Italy)"/>
<marker lat="42.583" lon="-71.16" site="Middleton, Mass. (Massachusetts, United States)"/>
<marker lat="43.0" lon="13.0" site="Apennines (Italy)"/>
<marker lat="42.633" lon="-76.1" site="East River (New York, United States)"/>
<marker lat="42.983" lon="-71.45" site="Manchester (New Hampshire, United States)"/>
<marker lat="41.75" lon="-70.483" site="Sandwich, Mass. (Massachusetts, United States)"/>
<marker lat="40.733" lon="-75.3" site="Nazareth, Pennsylvania (Pennsylvania, United States)"/>
<marker lat="41.766" lon="12.3" site="Ostia (Italy)"/>
<marker lat="47.333" lon="13.333" site="Austria (Austria)"/>
<marker lat="52.0" lon="20.0" site="Poland (Poland)"/>
<marker lat="36.133" lon="-5.35" site="Gibraltar"/>
<marker lat="53.5" lon="-2.216" site="Manchester (United Kingdom)"/>
<marker lat="42.25" lon="-88.833" site="Belvidere (Illinois, United States)"/>
<marker lat="44.283" lon="-69.783" site="Hallowell (Maine, United States)"/>
<marker lat="50.983" lon="11.316" site="Weimar (Thuringia, Germany)"/>
<marker lat="42.566" lon="-70.766" site="Manchester (Massachusetts, United States)"/>
<marker lat="35.533" lon="-96.216" site="Oriental (Oklahoma, United States)"/>
<marker lat="41.15" lon="-79.65" site="Saint Petersburg (Pennsylvania, United States)"/>
<marker lat="43.166" lon="-78.766" site="Niagara County (New York, United States)"/>
<marker lat="42.35" lon="-71.5" site="Boston (Massachusetts, United States)"/>
<marker lat="42.15" lon="-71.133" site="Canton, Mass. (Massachusetts, United States)"/>
<marker lat="40.0" lon="-89.0" site="Illinois (Illinois, United States)"/>
<marker lat="42.433" lon="-71.866" site="Princeton, Mass. (Massachusetts, United States)"/>
<marker lat="44.5" lon="10.9" site="Modena (Italy)"/>
<marker lat="35.0" lon="105.0" site="China (China)"/>
<marker lat="44.0" lon="-120.0" site="Oregon (Oregon, United States)"/>
<marker lat="42.633" lon="-71.316" site="Lowell (Massachusetts, United States)"/>
<marker lat="42.5" lon="-73.9" site="Tivoli (New York, United States)"/>
<marker lat="42.366" lon="-71.233" site="Waltham (Massachusetts, United States)"/>
<marker lat="42.366" lon="-71.183" site="Watertown (Massachusetts, United States)"/>
<marker lat="41.533" lon="-73.883" site="Fishkill (New York, United States)"/>
<marker lat="42.45" lon="-71.35" site="Concord (Massachusetts, United States)"/>
<marker lat="41.383" lon="-84.116" site="Napoleon (Ohio, United States)"/>
<marker lat="44.416" lon="8.95" site="Genoa (Italy)"/>
<marker lat="42.25" lon="-71.8" site="Worcester (Massachusetts, United States)"/>
<marker lat="54.433" lon="-2.966" site="Ambleside (United Kingdom)"/>
<marker lat="42.266" lon="-71.15" site="West Roxbury, Mass. (Massachusetts, United States)"/>
<marker lat="42.316" lon="-71.83" site="Roxbury, Mass. (Massachusetts, United States)"/>
<marker lat="40.733" lon="-73.933" site="Long Island City (New York, United States)"/>
<marker lat="42.366" lon="-71.1" site="Cambridge (Massachusetts, United States)"/>
<marker lat="45.633" lon="10.3" site="Brescia (Italy)"/>
<marker lat="41.333" lon="-70.733" site="Chilmark (Massachusetts, United States)"/>
<marker lat="40.0" lon="-4.0" site="Spain (Spain)"/>
<marker lat="38.283" lon="-79.116" site="Parnassus (Virginia, United States)"/>
<marker lat="43.3" lon="5.366" site="Marseilles (France)"/>
<marker lat="40.65" lon="-83.883" site="West Newton (Ohio, United States)"/>
<marker lat="40.633" lon="-77.0" site="Oriental (Pennsylvania, United States)"/>
<marker lat="-43.0" lon="147.0" site="Tasmania (Tasmania, Australia)"/>
<marker lat="43.316" lon="11.316" site="Siena (Italy)"/>
<marker lat="42.233" lon="-71.83" site="Milton, Mass. (Massachusetts, United States)"/>
<marker lat="37.133" lon="-77.733" site="Ford, Va. (Virginia, United States)"/>
<marker lat="42.35" lon="-71.35" site="Wayland (Massachusetts, United States)"/>
<marker lat="30.733" lon="-91.633" site="Viva (Louisiana, United States)"/>
<marker lat="51.883" lon="-2.233" site="Gloucester (United Kingdom)"/>
<marker lat="39.0" lon="-76.833" site="Maryland (Maryland, United States)"/>
<marker lat="44.0" lon="-85.0" site="Michigan (Michigan, United States)"/>
<marker lat="38.0" lon="-98.0" site="Missouri (Missouri, United States)"/>
<marker lat="53.416" lon="-3.0" site="Liverpool (United Kingdom)"/>
<marker lat="44.0" lon="-71.666" site="New Hampshire (New Hampshire, United States)"/>
<marker lat="-9.183" lon="141.7" site="Mare (Papua New Guinea)"/>
<marker lat="42.583" lon="-72.6" site="Greenfield, Mass. (Massachusetts, United States)"/>
<marker lat="38.833" lon="-77.3" site="Fairfax, Va. (Virginia, United States)"/>
<marker lat="39.15" lon="-82.483" site="Puritan (Ohio, United States)"/>
<marker lat="41.7" lon="-71.266" site="Bristol, R. I. (Rhode Island, United States)"/>
<marker lat="42.316" lon="-71.116" site="Brookline (Massachusetts, United States)"/>
<marker lat="43.0" lon="-84.366" site="Ovid (Michigan, United States)"/>
<marker lat="41.583" lon="-70.466" site="Wills Hill (Massachusetts, United States)"/>
<marker lat="33.45" lon="-105.733" site="Christmas (New Mexico, United States)"/>
<marker lat="33.766" lon="-90.966" site="Christmas (Mississippi, United States)"/>
<marker lat="45.0" lon="-85.0" site="Great Lakes"/>
<marker lat="30.183" lon="-90.1" site="Lake Pontchartrain (Louisiana, United States)"/>
<marker lat="34.45" lon="-106.5" site="Sais (New Mexico, United States)"/>
<marker lat="48.866" lon="2.333" site="Paris (France)"/>
<marker lat="40.75" lon="-73.933" site="Blackwell's Island (New York, United States)"/>
<marker lat="43.66" lon="-70.75" site="Portsmouth (New Hampshire, United States)"/>
<marker lat="51.55" lon="-0.183" site="Hampstead (United Kingdom)"/>
<marker lat="30.6" lon="-81.716" site="Italia (Florida, United States)"/>
<marker lat="42.5" lon="-71.333" site="Middlesex County (Massachusetts, United States)"/>
<marker lat="40.616" lon="14.366" site="Sorrento (Italy)"/>
<marker lat="40.0" lon="9.0" site="Sardinia (Italy)"/>
<marker lat="37.5" lon="14.0" site="Sicily (Italy)"/>
<marker lat="42.25" lon="-71.0" site="Quincy (Massachusetts, United States)"/>
<marker lat="42.716" lon="-87.766" site="Racine (Wisconsin, United States)"/>
<marker lat="42.8" lon="-83.0" site="Romeo (Michigan, United States)"/>
<marker lat="42.233" lon="-70.8" site="Cohasset (Massachusetts, United States)"/>
<marker lat="42.35" lon="-71.1" site="Cambridgeport (Massachusetts, United States)"/>
<marker lat="41.266" lon="-74.466" site="Newport, New York (New York, United States)"/>
<marker lat="37.95" lon="23.816" site="Hymettus (Greece)"/>
<marker lat="43.816" lon="-88.16" site="Turtle Bay (Wisconsin, United States)"/>
<marker lat="55.75" lon="37.7" site="Moscow (Russia)"/>
<marker lat="57.0" lon="-4.0" site="Scotland (United Kingdom)"/>
<marker lat="38.683" lon="-77.9" site="Waterloo, Va. (Virginia, United States)"/>
<marker lat="38.3" lon="-77.65" site="Hazel Grove (Virginia, United States)"/>
<marker lat="42.516" lon="-70.883" site="Salem (Massachusetts, United States)"/>
<marker lat="35.616" lon="-87.833" site="Linden, Tenn. (Tennessee, United States)"/>
<marker lat="34.5" lon="-89.933" site="Como (Mississippi, United States)"/>
<marker lat="44.983" lon="-122.833" site="Selah (Oregon, United States)"/>
<marker lat="40.616" lon="-79.616" site="Westmoreland (Pennsylvania, United States)"/>
<marker lat="31.5" lon="34.75" site="Israel (Israel)"/>
<marker lat="34.216" lon="-82.183" site="Locksley Hall (South Carolina, United States)"/>
<marker lat="35.0" lon="38.0" site="Syria (Syria)"/>
<marker lat="41.666" lon="-71.5" site="Rhode Island (Rhode Island, United States)"/>
<marker lat="42.266" lon="-71.416" site="Framingham (Massachusetts, United States)"/>
<marker lat="43.716" lon="10.4" site="Pisa (Italy)"/>
<marker lat="39.316" lon="-77.7" site="Sandy Hook, Md. (Maryland, United States)"/>
<marker lat="45.55" lon="4.8" site="Loire (France)"/>
<marker lat="60.35" lon="-149.883" site="Russian River (Alaska, United States)"/>
<marker lat="37.0" lon="-119.0" site="California (California, United States)"/>
<marker lat="34.0" lon="9.0" site="Tunisia (Tunisia)"/>
<marker lat="41.666" lon="-74.866" site="Lake Superior (New York, United States)"/>
<marker lat="38.566" lon="-92.166" site="Jefferson City (Missouri, United States)"/>
<marker lat="51.5" lon="-0.166" site="Charles Lane (United Kingdom)"/>
<marker lat="35.266" lon="-90.583" site="Saint Francis (Arkansas, United States)"/>
<marker lat="52.383" lon="4.633" site="Haarlem (Netherlands)"/>
<marker lat="39.166" lon="-91.866" site="Mexico, Mo. (Missouri, United States)"/>
<marker lat="42.433" lon="-71.75" site="Sterling, Mass. (Massachusetts, United States)"/>
<marker lat="56.83" lon="-4.6" site="Loch Lomond (United Kingdom)"/>
<marker lat="43.266" lon="-75.15" site="Trenton Falls (New York, United States)"/>
<marker lat="51.5" lon="-0.166" site="National gallery (United Kingdom)"/>
<marker lat="29.716" lon="-98.566" site="Middleton Pond (Texas, United States)"/>
<marker lat="42.483" lon="-76.283" site="Dryden, Tompkins County, New York (New York, United States)"/>
<marker lat="-22.166" lon="-57.916" site="San Lazaro (Paraguay)"/>
<marker lat="40.416" lon="-3.716" site="Madrid (Spain)"/>
<marker lat="38.8" lon="-80.616" site="Dutch (West Virginia, United States)"/>
<marker lat="42.366" lon="-71.5" site="Charlestown, Mass. (Massachusetts, United States)"/>
<marker lat="39.383" lon="-84.733" site="Saint Charles (Ohio, United States)"/>
<marker lat="35.216" lon="-80.833" site="Charlotte (North Carolina, United States)"/>
<marker lat="42.533" lon="-71.65" site="Shirley (Massachusetts, United States)"/>
<marker lat="41.85" lon="-87.65" site="Chicago (Illinois, United States)"/>
<marker lat="38.933" lon="-74.9" site="Cape May (New Jersey, United States)"/>
<marker lat="62.0" lon="10.0" site="Norway (Norway)"/>
<marker lat="38.366" lon="-79.366" site="Highland County (Virginia, United States)"/>
<marker lat="43.683" lon="10.85" site="San Miniato (Italy)"/>
<marker lat="30.266" lon="-89.616" site="Chalons (Mississippi, United States)"/>
</markers>