<markers>
<marker lat="38.0" lon="-98.0" site="United States (United States)"/>
<marker lat="39.0" lon="-76.833" site="Maryland (Maryland, United States)"/>
<marker lat="35.5" lon="-80.0" site="North Carolina (North Carolina, United States)"/>
<marker lat="37.0" lon="-80.0" site="Virginia (Virginia, United States)"/>
<marker lat="38.0" lon="-98.0" site="Missouri (Missouri, United States)"/>
<marker lat="34.0" lon="-80.0" site="South Carolina (South Carolina, United States)"/>
<marker lat="42.316" lon="-70.916" site="Fort Warren (Massachusetts, United States)"/>
<marker lat="39.316" lon="-77.733" site="Harper's Ferry (West Virginia, United States)"/>
<marker lat="42.316" lon="-72.633" site="Northampton (Massachusetts, United States)"/>
<marker lat="39.0" lon="-80.0" site="West Virginia (West Virginia, United States)"/>
<marker lat="39.3" lon="-77.85" site="Jefferson (West Virginia, United States)"/>
<marker lat="29.83" lon="-90.466" site="Caillou Island (Louisiana, United States)"/>
<marker lat="31.0" lon="-92.0" site="Louisiana (Louisiana, United States)"/>
<marker lat="37.55" lon="-77.45" site="Richmond (Virginia, United States)"/>
<marker lat="35.5" lon="-85.0" site="Tennessee (Tennessee, United States)"/>
<marker lat="42.766" lon="-71.66" site="Haverhill (Massachusetts, United States)"/>
<marker lat="36.583" lon="-83.666" site="Cumberland Gap (Tennessee, United States)"/>
<marker lat="38.1" lon="-81.133" site="Cotton Hill, W. Va. (West Virginia, United States)"/>
<marker lat="34.85" lon="-82.383" site="Greenville (South Carolina, United States)"/>
<marker lat="36.966" lon="-76.35" site="Hampton Roads (Virginia, United States)"/>
<marker lat="35.1" lon="-77.33" site="New Bern (North Carolina, United States)"/>
<marker lat="36.983" lon="-89.133" site="Ohio (United States)"/>
<marker lat="37.66" lon="-94.1" site="Sarcoxie (Missouri, United States)"/>
<marker lat="38.15" lon="-81.183" site="Kanawha (West Virginia, United States)"/>
<marker lat="37.55" lon="-77.366" site="Henrico (Virginia, United States)"/>
<marker lat="38.9" lon="-77.25" site="Vienna (Virginia, United States)"/>
<marker lat="42.333" lon="-76.833" site="Havana, N. Y. (New York, United States)"/>
<marker lat="40.5" lon="-80.716" site="Wheeling, W. Va. (West Virginia, United States)"/>
<marker lat="32.516" lon="-80.45" site="Hutchinson's Island (South Carolina, United States)"/>
<marker lat="31.966" lon="-80.883" site="Tybee Island (Georgia, United States)"/>
<marker lat="38.33" lon="-93.7" site="Osceola, Mo. (Missouri, United States)"/>
<marker lat="37.433" lon="-84.633" site="Green (Kentucky, United States)"/>
<marker lat="42.833" lon="12.833" site="Italy (Italy)"/>
<marker lat="37.8" lon="-79.433" site="Rockbridge (Virginia, United States)"/>
<marker lat="52.0" lon="20.0" site="Poland (Poland)"/>
<marker lat="36.433" lon="-78.233" site="Ridgeway, N. C. (North Carolina, United States)"/>
<marker lat="37.516" lon="-76.783" site="York (Virginia, United States)"/>
<marker lat="37.933" lon="-80.833" site="Sewell Mountain (West Virginia, United States)"/>
<marker lat="36.583" lon="-94.383" site="Pineville (Missouri, United States)"/>
<marker lat="32.416" lon="-80.666" site="Beaufort, S. C. (South Carolina, United States)"/>
<marker lat="38.766" lon="-79.966" site="Rich Mountain (West Virginia, United States)"/>
<marker lat="36.383" lon="-78.966" site="Roxboro (North Carolina, United States)"/>
<marker lat="36.516" lon="-87.35" site="Clarksville (Tennessee, United States)"/>
<marker lat="35.183" lon="-75.716" site="Clark (North Carolina, United States)"/>
<marker lat="38.2" lon="-78.883" site="Piedmont, Va. (Virginia, United States)"/>
<marker lat="29.783" lon="-90.816" site="Thibodeaux (Louisiana, United States)"/>
<marker lat="38.416" lon="-81.783" site="Cross Lanes (West Virginia, United States)"/>
<marker lat="37.35" lon="-75.933" site="Northampton County (Virginia, United States)"/>
<marker lat="40.16" lon="-78.5" site="Fort Bedford (Pennsylvania, United States)"/>
<marker lat="41.333" lon="-73.65" site="Croton River (New York, United States)"/>
<marker lat="39.15" lon="-80.33" site="Philippi (West Virginia, United States)"/>
<marker lat="37.383" lon="-80.783" site="Peterstown (West Virginia, United States)"/>
<marker lat="38.216" lon="-81.533" site="Belle (West Virginia, United States)"/>
<marker lat="38.583" lon="-83.8" site="Mason County (Kentucky, United States)"/>
<marker lat="39.333" lon="-80.16" site="Grafton, W. Va. (West Virginia, United States)"/>
<marker lat="42.783" lon="-81.2" site="Saint Thomas (Canada)"/>
<marker lat="37.516" lon="-87.25" site="Rumsey (Kentucky, United States)"/>
<marker lat="36.833" lon="-86.883" site="Russellville (Kentucky, United States)"/>
<marker lat="36.966" lon="-89.116" site="Bird's Point, Mo. (Missouri, United States)"/>
<marker lat="38.816" lon="-77.516" site="Bull Run, Va. (Virginia, United States)"/>
<marker lat="37.516" lon="-76.783" site="West Point (Virginia, United States)"/>
<marker lat="37.766" lon="-87.1" site="Owensboro (Kentucky, United States)"/>
<marker lat="37.266" lon="-79.933" site="Big Lick (Virginia, United States)"/>
<marker lat="37.816" lon="-90.766" site="Hunter's Mill (Missouri, United States)"/>
<marker lat="40.483" lon="-88.833" site="McLean (Illinois, United States)"/>
<marker lat="37.683" lon="-77.83" site="King William County (Virginia, United States)"/>
<marker lat="43.7" lon="-79.416" site="York (Canada)"/>
<marker lat="38.7" lon="-93.216" site="Sedalia, Mo. (Missouri, United States)"/>
<marker lat="37.0" lon="-85.0" site="Kentucky (Kentucky, United States)"/>
<marker lat="32.0" lon="-84.0" site="Georgia (Georgia, United States)"/>
<marker lat="37.716" lon="-75.65" site="Accomac (Virginia, United States)"/>
<marker lat="36.7" lon="-81.966" site="Abingdon, Va. (Virginia, United States)"/>
<marker lat="30.566" lon="-81.683" site="Nassau River (Florida, United States)"/>
<marker lat="36.916" lon="-89.35" site="Charleston, Mo. (Missouri, United States)"/>
<marker lat="35.0" lon="-93.0" site="Arkansas (Arkansas, United States)"/>
<marker lat="27.933" lon="-82.45" site="Tampa (Florida, United States)"/>
<marker lat="34.716" lon="-76.733" site="Carolina City (North Carolina, United States)"/>
<marker lat="37.0" lon="-119.0" site="California (California, United States)"/>
<marker lat="37.66" lon="-80.683" site="Newbern (Virginia, United States)"/>
<marker lat="37.66" lon="-77.583" site="Dinwiddie Court House (Virginia, United States)"/>
<marker lat="44.633" lon="-63.583" site="Halifax (Canada)"/>
<marker lat="30.316" lon="-81.65" site="Jacksonville (Florida, United States)"/>
<marker lat="37.25" lon="-92.483" site="Gasconade (Missouri, United States)"/>
<marker lat="35.95" lon="-83.916" site="Knoxville (Tennessee, United States)"/>
<marker lat="38.3" lon="-76.616" site="St. Marys county (Maryland, United States)"/>
<marker lat="41.383" lon="-84.116" site="Napoleon (Ohio, United States)"/>
<marker lat="38.466" lon="-82.516" site="Scarey Creek (Ohio, United States)"/>
<marker lat="39.33" lon="-80.466" site="Weston, W. Va. (West Virginia, United States)"/>
<marker lat="37.35" lon="-77.4" site="Dutch Gap (Virginia, United States)"/>
<marker lat="37.33" lon="-89.183" site="Cairo, Ill. (Illinois, United States)"/>
<marker lat="39.83" lon="-77.65" site="Loudoun (Virginia, United States)"/>
<marker lat="37.95" lon="-76.65" site="Haynesville, Va. (Virginia, United States)"/>
<marker lat="36.766" lon="-89.383" site="East Prairie (Missouri, United States)"/>
<marker lat="50.9" lon="-1.4" site="Southampton (United Kingdom)"/>
<marker lat="37.583" lon="-81.316" site="Guyandotte (West Virginia, United States)"/>
<marker lat="34.65" lon="-80.166" site="Chesterfield (South Carolina, United States)"/>
<marker lat="32.366" lon="-80.683" site="Port Royal (South Carolina, United States)"/>
<marker lat="35.216" lon="-80.833" site="Charlotte (North Carolina, United States)"/>
<marker lat="32.766" lon="-79.916" site="Charleston (South Carolina, United States)"/>
<marker lat="42.316" lon="-83.33" site="Detroit (Michigan, United States)"/>
<marker lat="37.9" lon="-80.65" site="Meadow Bluff (West Virginia, United States)"/>
<marker lat="46.0" lon="2.0" site="France (France)"/>
<marker lat="47.333" lon="13.333" site="Austria (Austria)"/>
<marker lat="38.6" lon="-79.933" site="Cheat Mountain (West Virginia, United States)"/>
<marker lat="42.633" lon="-71.333" site="Middlesex Village (Massachusetts, United States)"/>
<marker lat="28.45" lon="-80.533" site="Cape Canaveral (Florida, United States)"/>
<marker lat="37.3" lon="-89.516" site="Cape Girardeau (Missouri, United States)"/>
<marker lat="38.366" lon="-79.366" site="Highland County (Virginia, United States)"/>
<marker lat="38.866" lon="-78.6" site="Shenandoah county (Virginia, United States)"/>
<marker lat="36.933" lon="-82.83" site="Russell County (Virginia, United States)"/>
<marker lat="43.733" lon="-71.583" site="Cotton Mountain (New Hampshire, United States)"/>
<marker lat="38.33" lon="-78.55" site="Albemarle (Virginia, United States)"/>
<marker lat="39.333" lon="-78.6" site="Hampshire County (West Virginia, United States)"/>
<marker lat="39.16" lon="-78.816" site="Hardy County (West Virginia, United States)"/>
<marker lat="37.566" lon="-79.783" site="Botetourt (Virginia, United States)"/>
</markers>