<markers>
<marker lat="42.216" lon="-71.0" site="Braintree (Massachusetts, United States)"/>
<marker lat="42.516" lon="-70.883" site="Salem (Massachusetts, United States)"/>
<marker lat="42.8" lon="-70.866" site="Newburyport (Massachusetts, United States)"/>
<marker lat="35.216" lon="-80.833" site="Charlotte (North Carolina, United States)"/>
<marker lat="42.466" lon="-71.1" site="Stoneham (Massachusetts, United States)"/>
<marker lat="41.833" lon="-72.833" site="Connecticut (Connecticut, United States)"/>
<marker lat="42.366" lon="-71.183" site="Watertown (Massachusetts, United States)"/>
<marker lat="42.466" lon="-70.95" site="Lynn (Massachusetts, United States)"/>
<marker lat="42.766" lon="-70.883" site="Newbury, Mass. (Massachusetts, United States)"/>
<marker lat="33.666" lon="-84.433" site="South River, Ga. (Georgia, United States)"/>
<marker lat="42.716" lon="-73.683" site="Troy, N. Y. (New York, United States)"/>
<marker lat="42.316" lon="-71.83" site="Roxbury, Mass. (Massachusetts, United States)"/>
<marker lat="42.383" lon="-71.33" site="Chelsea (Massachusetts, United States)"/>
<marker lat="34.0" lon="-80.0" site="South Carolina (South Carolina, United States)"/>
<marker lat="42.366" lon="-71.5" site="Charles (Massachusetts, United States)"/>
<marker lat="41.33" lon="-95.733" site="Glenwood, Mills County, Iowa (Iowa, United States)"/>
<marker lat="43.133" lon="-70.65" site="York, Me. (Maine, United States)"/>
<marker lat="42.416" lon="-71.1" site="Medford (Massachusetts, United States)"/>
<marker lat="42.65" lon="-71.133" site="Andover (Massachusetts, United States)"/>
<marker lat="44.0" lon="-71.666" site="New Hampshire (New Hampshire, United States)"/>
<marker lat="42.466" lon="-71.5" site="Mystic River (Massachusetts, United States)"/>
<marker lat="43.65" lon="-70.25" site="Portland (Maine, United States)"/>
<marker lat="42.5" lon="-70.85" site="Marblehead (Massachusetts, United States)"/>
<marker lat="41.166" lon="-82.216" site="Wellington (Ohio, United States)"/>
<marker lat="38.0" lon="-98.0" site="United States (United States)"/>
<marker lat="42.666" lon="-70.833" site="Essex County (Massachusetts, United States)"/>
<marker lat="42.45" lon="-71.35" site="Concord (Massachusetts, United States)"/>
<marker lat="50.633" lon="-1.333" site="Vectis (United Kingdom)"/>
<marker lat="50.9" lon="-1.4" site="Southampton (United Kingdom)"/>
<marker lat="42.283" lon="-71.66" site="Dorchester, Mass. (Massachusetts, United States)"/>
<marker lat="43.6" lon="-73.166" site="Castleton (Vermont, United States)"/>
<marker lat="44.616" lon="-67.366" site="Pettegrove Mountain (Maine, United States)"/>
<marker lat="42.83" lon="-70.7" site="Marshfield (Massachusetts, United States)"/>
<marker lat="42.6" lon="-70.883" site="Wenham (Massachusetts, United States)"/>
<marker lat="42.25" lon="-71.833" site="Massachusetts (Massachusetts, United States)"/>
<marker lat="42.366" lon="-70.75" site="Massachusetts Bay (Massachusetts, United States)"/>
<marker lat="45.0" lon="-69.0" site="Maine (Maine, United States)"/>
<marker lat="41.783" lon="-72.366" site="Coventry (Connecticut, United States)"/>
<marker lat="42.55" lon="-71.266" site="Billerica (Massachusetts, United States)"/>
<marker lat="41.983" lon="-70.5" site="Dangerfield (Massachusetts, United States)"/>
<marker lat="51.5" lon="-0.166" site="Chelsea bridge (United Kingdom)"/>
<marker lat="32.0" lon="53.0" site="Persia (Iran)"/>
<marker lat="47.183" lon="-68.833" site="Bradbury (Maine, United States)"/>
<marker lat="42.5" lon="-71.183" site="Burlington (Massachusetts, United States)"/>
<marker lat="38.1" lon="-82.6" site="Louisa, Ky. (Kentucky, United States)"/>
<marker lat="45.583" lon="-69.7" site="Kennebec (Maine, United States)"/>
<marker lat="53.16" lon="-1.533" site="Derbyshire (United Kingdom)"/>
<marker lat="25.0" lon="-90.0" site="Gulf of Mexico"/>
<marker lat="41.266" lon="-78.7" site="Hellen (Pennsylvania, United States)"/>
<marker lat="51.75" lon="-0.333" site="Hertfordshire (United Kingdom)"/>
<marker lat="43.833" lon="-66.133" site="Yarmouth (Canada)"/>
<marker lat="42.566" lon="-70.916" site="Danvers (Massachusetts, United States)"/>
<marker lat="42.633" lon="-70.95" site="Topsfield (Massachusetts, United States)"/>
<marker lat="42.45" lon="-71.66" site="Melrose (Massachusetts, United States)"/>
<marker lat="41.883" lon="-70.9" site="Middleborough (Massachusetts, United States)"/>
<marker lat="43.633" lon="-72.0" site="Canaan, N. H. (New Hampshire, United States)"/>
<marker lat="60.0" lon="47.0" site="Russia (Russia)"/>
<marker lat="44.166" lon="-71.966" site="Bath, N. H. (New Hampshire, United States)"/>
<marker lat="42.466" lon="-71.266" site="Shawsheen (Massachusetts, United States)"/>
<marker lat="45.6" lon="-68.516" site="Penobscot (Maine, United States)"/>
<marker lat="51.45" lon="0.4" site="Gravesend (United Kingdom)"/>
<marker lat="36.0" lon="138.0" site="Japan (Japan)"/>
<marker lat="51.5" lon="-0.166" site="St. Swithin's lane (United Kingdom)"/>
<marker lat="42.583" lon="-70.816" site="Essex (Massachusetts, United States)"/>
<marker lat="42.366" lon="-71.233" site="Waltham (Massachusetts, United States)"/>
<marker lat="41.95" lon="-71.7" site="Saxonville (Rhode Island, United States)"/>
<marker lat="51.5" lon="-0.166" site="Bridge row (United Kingdom)"/>
<marker lat="42.433" lon="-71.1" site="Pasture Hill (Massachusetts, United States)"/>
<marker lat="42.416" lon="-71.133" site="Mystick River (Massachusetts, United States)"/>
<marker lat="44.0" lon="-73.0" site="Vermont (Vermont, United States)"/>
<marker lat="42.233" lon="-70.883" site="Hingham (Massachusetts, United States)"/>
<marker lat="41.5" lon="-73.533" site="Stamford, Conn. (Connecticut, United States)"/>
<marker lat="42.35" lon="-71.233" site="Mount Feake (Massachusetts, United States)"/>
<marker lat="44.633" lon="-63.583" site="Halifax (Canada)"/>
<marker lat="53.166" lon="-0.333" site="Lincolnshire (United Kingdom)"/>
<marker lat="41.983" lon="-70.85" site="Halifax (Massachusetts, United States)"/>
<marker lat="52.883" lon="-2.33" site="Staffordshire (United Kingdom)"/>
<marker lat="51.5" lon="-0.166" site="St. Swithin's church (United Kingdom)"/>
<marker lat="42.366" lon="-72.733" site="Marble Brook (Massachusetts, United States)"/>
<marker lat="39.95" lon="-76.716" site="York, Pa. (Pennsylvania, United States)"/>
<marker lat="41.75" lon="-72.683" site="Hartford (Connecticut, United States)"/>
<marker lat="50.75" lon="-1.3" site="Cowes (United Kingdom)"/>
<marker lat="43.83" lon="-70.733" site="Kittery (Maine, United States)"/>
<marker lat="34.266" lon="-82.316" site="Brick House (South Carolina, United States)"/>
<marker lat="42.666" lon="-70.833" site="Ipswich, Mass. (Massachusetts, United States)"/>
<marker lat="43.366" lon="-70.416" site="Cape Porpoise (Maine, United States)"/>
<marker lat="54.0" lon="-72.0" site="Quebec (Canada)"/>
<marker lat="33.466" lon="-82.16" site="Augusta (Georgia, United States)"/>
<marker lat="39.966" lon="-75.5" site="Delair Junction (New Jersey, United States)"/>
<marker lat="42.533" lon="-71.9" site="Westminster (Massachusetts, United States)"/>
<marker lat="40.683" lon="-73.8" site="Jamaica, L. I. (New York, United States)"/>
<marker lat="42.633" lon="-70.633" site="Cape Ann (Massachusetts, United States)"/>
<marker lat="44.383" lon="-68.8" site="Castine (Maine, United States)"/>
<marker lat="39.283" lon="-75.6" site="Smyrna, Del. (Delaware, United States)"/>
<marker lat="42.633" lon="-71.333" site="Middlesex Village (Massachusetts, United States)"/>
<marker lat="42.833" lon="-70.85" site="Salisbury, Mass. (Massachusetts, United States)"/>
<marker lat="42.9" lon="-72.5" site="Dublin, N.H. (New Hampshire, United States)"/>
<marker lat="45.133" lon="7.33" site="Segusio (Italy)"/>
<marker lat="42.483" lon="-71.366" site="Plain (Massachusetts, United States)"/>
</markers>