<markers>
<marker lat="38.0" lon="-98.0" site="United States (United States)"/>
<marker lat="35.5" lon="-80.0" site="North Carolina (North Carolina, United States)"/>
<marker lat="33.0" lon="-90.0" site="Mississippi (Mississippi, United States)"/>
<marker lat="34.0" lon="-80.0" site="South Carolina (South Carolina, United States)"/>
<marker lat="37.0" lon="-119.0" site="California (California, United States)"/>
<marker lat="38.0" lon="-98.0" site="Missouri (Missouri, United States)"/>
<marker lat="33.0" lon="-87.0" site="Alabama (Alabama, United States)"/>
<marker lat="37.316" lon="-77.266" site="City Point (Virginia, United States)"/>
<marker lat="37.55" lon="-77.45" site="Richmond (Virginia, United States)"/>
<marker lat="37.366" lon="-77.66" site="Charles City (Virginia, United States)"/>
<marker lat="37.3" lon="-79.566" site="Bedford County (Virginia, United States)"/>
<marker lat="51.5" lon="-3.216" site="Cardiff (United Kingdom)"/>
<marker lat="33.95" lon="-84.55" site="Marietta (Georgia, United States)"/>
<marker lat="29.3" lon="-94.783" site="Galveston (Texas, United States)"/>
<marker lat="35.383" lon="-77.983" site="Goldsboro (North Carolina, United States)"/>
<marker lat="39.0" lon="-76.833" site="Maryland (Maryland, United States)"/>
<marker lat="35.1" lon="-84.65" site="Orrs Island (Tennessee, United States)"/>
<marker lat="53.416" lon="-3.0" site="Liverpool (United Kingdom)"/>
<marker lat="40.0" lon="-75.0" site="New Jersey (New Jersey, United States)"/>
<marker lat="47.233" lon="-95.2" site="Mississippi (United States)"/>
<marker lat="35.683" lon="-85.766" site="McMinnville (Tennessee, United States)"/>
<marker lat="40.616" lon="14.366" site="Sorrento (Italy)"/>
<marker lat="35.5" lon="-88.433" site="Monterey, Tenn. (Tennessee, United States)"/>
<marker lat="38.516" lon="-77.6" site="Aquia Creek (Virginia, United States)"/>
<marker lat="22.5" lon="88.333" site="Calcutta (West Bengal, India)"/>
<marker lat="60.0" lon="47.0" site="Russia (Russia)"/>
<marker lat="53.0" lon="-2.0" site="England (United Kingdom)"/>
<marker lat="57.0" lon="-4.0" site="Scotland (United Kingdom)"/>
<marker lat="40.616" lon="-80.116" site="Westmoreland County (Pennsylvania, United States)"/>
<marker lat="31.0" lon="-92.0" site="Louisiana (Louisiana, United States)"/>
<marker lat="37.766" lon="-122.416" site="San Francisco (California, United States)"/>
<marker lat="32.0" lon="-84.0" site="Georgia (Georgia, United States)"/>
<marker lat="33.666" lon="-84.433" site="South River, Ga. (Georgia, United States)"/>
<marker lat="30.566" lon="-81.683" site="Nassau River (Florida, United States)"/>
<marker lat="9.5" lon="2.25" site="Benin (Benin)"/>
<marker lat="37.75" lon="-77.483" site="Hanover County (Virginia, United States)"/>
<marker lat="55.883" lon="-4.25" site="Glasgow (United Kingdom)"/>
<marker lat="37.55" lon="-77.366" site="Henrico (Virginia, United States)"/>
<marker lat="36.2" lon="-86.283" site="Lebanon (Tennessee, United States)"/>
<marker lat="36.433" lon="-89.416" site="Wright (Tennessee, United States)"/>
<marker lat="47.0" lon="8.0" site="Switzerland (Switzerland)"/>
<marker lat="39.45" lon="-77.733" site="Sharpsburg (Maryland, United States)"/>
<marker lat="44.633" lon="-63.583" site="Halifax (Canada)"/>
<marker lat="25.916" lon="-97.15" site="Rio Grande"/>
<marker lat="33.9" lon="-83.35" site="Whitehall (Georgia, United States)"/>
<marker lat="51.5" lon="-0.166" site="Custom house (United Kingdom)"/>
<marker lat="37.383" lon="-77.6" site="Chesterfield (Virginia, United States)"/>
<marker lat="35.966" lon="-88.933" site="Trenton, Tenn. (Tennessee, United States)"/>
<marker lat="35.35" lon="-86.2" site="Tullahoma (Tennessee, United States)"/>
<marker lat="46.0" lon="2.0" site="France (France)"/>
<marker lat="35.9" lon="-79.5" site="Chapel Hill, N. C. (North Carolina, United States)"/>
<marker lat="34.233" lon="-80.6" site="Camden, S. C. (South Carolina, United States)"/>
<marker lat="52.0" lon="-6.0" site="St. George's Channel"/>
<marker lat="39.466" lon="-74.666" site="Atlantic (New Jersey, United States)"/>
<marker lat="37.4" lon="-78.816" site="Appomattox (Virginia, United States)"/>
<marker lat="38.316" lon="-77.466" site="Falmouth, Va. (Virginia, United States)"/>
<marker lat="34.15" lon="-84.8" site="Cartersville (Georgia, United States)"/>
<marker lat="42.833" lon="12.833" site="Italy (Italy)"/>
<marker lat="39.5" lon="-8.0" site="Portugal (Portugal)"/>
<marker lat="37.733" lon="-77.916" site="Goochland (Virginia, United States)"/>
<marker lat="35.33" lon="-89.233" site="La Grange (Tennessee, United States)"/>
<marker lat="34.75" lon="-77.416" site="Jacksonville, N. C. (North Carolina, United States)"/>
<marker lat="38.416" lon="-78.266" site="Madison County (Virginia, United States)"/>
<marker lat="36.75" lon="-78.933" site="Halifax county (Virginia, United States)"/>
</markers>