<markers>
<marker lat="34.566" lon="-84.933" site="Resaca (Georgia, United States)"/>
<marker lat="38.0" lon="-98.0" site="United States (United States)"/>
<marker lat="35.5" lon="-80.0" site="North Carolina (North Carolina, United States)"/>
<marker lat="37.55" lon="-77.45" site="Richmond (Virginia, United States)"/>
<marker lat="33.733" lon="-84.383" site="Atlanta (Georgia, United States)"/>
<marker lat="32.0" lon="-84.0" site="Georgia (Georgia, United States)"/>
<marker lat="34.0" lon="-80.0" site="South Carolina (South Carolina, United States)"/>
<marker lat="34.65" lon="-84.116" site="Etowah (Georgia, United States)"/>
<marker lat="39.8" lon="-76.983" site="McAllister (Pennsylvania, United States)"/>
<marker lat="38.2" lon="-77.583" site="Spottsylvania (Virginia, United States)"/>
<marker lat="32.66" lon="-99.83" site="Red River (Texas, United States)"/>
<marker lat="37.75" lon="-77.466" site="Ashland (Virginia, United States)"/>
<marker lat="31.0" lon="-92.0" site="Louisiana (Louisiana, United States)"/>
<marker lat="32.716" lon="-79.95" site="James Island (South Carolina, United States)"/>
<marker lat="33.916" lon="-84.833" site="Dallas, Ga. (Georgia, United States)"/>
<marker lat="37.55" lon="-77.933" site="Fine Creek (Virginia, United States)"/>
<marker lat="32.65" lon="-79.916" site="Folly Island, S. C. (South Carolina, United States)"/>
<marker lat="32.7" lon="-79.933" site="Secessionville (South Carolina, United States)"/>
<marker lat="37.566" lon="-77.916" site="Powhatan (Virginia, United States)"/>
<marker lat="38.33" lon="-76.316" site="Point Lookout, Md. (Maryland, United States)"/>
<marker lat="30.983" lon="-91.8" site="Simsport (Louisiana, United States)"/>
<marker lat="30.733" lon="-91.583" site="Morganza (Louisiana, United States)"/>
<marker lat="39.0" lon="-76.833" site="Maryland (Maryland, United States)"/>
<marker lat="34.5" lon="-84.666" site="Ackworth, Ga. (Georgia, United States)"/>
<marker lat="38.983" lon="-76.15" site="Queenstown, Md. (Maryland, United States)"/>
<marker lat="35.583" lon="-78.8" site="Varina (North Carolina, United States)"/>
<marker lat="37.183" lon="-78.2" site="Burkeville (Virginia, United States)"/>
<marker lat="38.133" lon="-78.183" site="Gordonsville (Virginia, United States)"/>
<marker lat="30.533" lon="-92.66" site="Opelousas (Louisiana, United States)"/>
<marker lat="29.866" lon="-89.866" site="Sebastopol (Louisiana, United States)"/>
<marker lat="37.516" lon="-77.383" site="Rocketts (Virginia, United States)"/>
<marker lat="33.466" lon="-79.166" site="Schooner Creek (South Carolina, United States)"/>
<marker lat="41.95" lon="-70.666" site="Accomack (Massachusetts, United States)"/>
<marker lat="37.55" lon="-77.366" site="Henrico (Virginia, United States)"/>
<marker lat="32.866" lon="-85.183" site="West Point (Georgia, United States)"/>
<marker lat="37.16" lon="-78.883" site="Patrick Henry (Virginia, United States)"/>
<marker lat="34.666" lon="-84.233" site="Buzzard Roost (Georgia, United States)"/>
<marker lat="43.666" lon="-92.66" site="Preston (Minnesota, United States)"/>
<marker lat="39.95" lon="-82.983" site="Franklin (Ohio, United States)"/>
<marker lat="37.366" lon="-77.66" site="Charles City (Virginia, United States)"/>
<marker lat="37.0" lon="-80.0" site="Virginia (Virginia, United States)"/>
<marker lat="34.716" lon="-86.583" site="Huntsville (Alabama, United States)"/>
<marker lat="35.216" lon="-80.833" site="Charlotte (North Carolina, United States)"/>
<marker lat="30.85" lon="-91.0" site="Clinton, La. (Louisiana, United States)"/>
<marker lat="19.416" lon="-99.166" site="Mexico (Mexico, Mexico)"/>
<marker lat="46.0" lon="2.0" site="France (France)"/>
<marker lat="34.233" lon="-84.85" site="Cassville (Georgia, United States)"/>
<marker lat="29.733" lon="-91.283" site="Atchafalaya River (Louisiana, United States)"/>
<marker lat="37.2" lon="-78.45" site="Prince Edward (Virginia, United States)"/>
</markers>