<markers>
<marker lat="38.0" lon="-98.0" site="United States (United States)"/>
<marker lat="4.633" lon="-74.83" site="Santa Fe (Colombia)"/>
<marker lat="37.33" lon="-89.183" site="Cairo, Ill. (Illinois, United States)"/>
<marker lat="35.5" lon="-85.0" site="Tennessee (Tennessee, United States)"/>
<marker lat="33.466" lon="-82.16" site="Augusta (Georgia, United States)"/>
<marker lat="40.433" lon="-84.55" site="Carthagena (Ohio, United States)"/>
<marker lat="39.133" lon="-92.683" site="Fayette, Mo. (Missouri, United States)"/>
<marker lat="39.0" lon="-76.833" site="Maryland (Maryland, United States)"/>
<marker lat="35.5" lon="-80.0" site="North Carolina (North Carolina, United States)"/>
<marker lat="8.95" lon="-79.5" site="Panama City (Panama)"/>
<marker lat="46.0" lon="2.0" site="France (France)"/>
<marker lat="45.0" lon="-69.0" site="Maine (Maine, United States)"/>
<marker lat="38.0" lon="-98.0" site="Missouri (Missouri, United States)"/>
<marker lat="35.133" lon="-90.33" site="Memphis (Tennessee, United States)"/>
<marker lat="40.833" lon="-76.0" site="Pennsylvania (Pennsylvania, United States)"/>
<marker lat="37.75" lon="-77.483" site="Hanover County (Virginia, United States)"/>
<marker lat="39.316" lon="-77.733" site="Harper's Ferry (West Virginia, United States)"/>
<marker lat="38.3" lon="-77.45" site="Fredericksburg, Va. (Virginia, United States)"/>
<marker lat="40.833" lon="14.25" site="Naples (Italy)"/>
<marker lat="9.35" lon="-79.9" site="Aspinwall (Panama)"/>
<marker lat="47.333" lon="13.333" site="Austria (Austria)"/>
<marker lat="42.833" lon="12.833" site="Italy (Italy)"/>
<marker lat="33.733" lon="-84.383" site="Atlanta (Georgia, United States)"/>
<marker lat="45.433" lon="12.333" site="Venice (Italy)"/>
<marker lat="47.233" lon="-95.2" site="Mississippi (United States)"/>
<marker lat="34.25" lon="-85.15" site="Rome, Ga. (Georgia, United States)"/>
<marker lat="38.366" lon="-88.35" site="Fairfield, Wayne County, Illinois (Illinois, United States)"/>
<marker lat="37.766" lon="-122.416" site="San Francisco (California, United States)"/>
<marker lat="32.0" lon="-84.0" site="Georgia (Georgia, United States)"/>
<marker lat="37.55" lon="-77.45" site="Richmond (Virginia, United States)"/>
<marker lat="39.0" lon="-80.0" site="West Virginia (West Virginia, United States)"/>
<marker lat="16.85" lon="-99.916" site="Acapulco (Guerrero, Mexico)"/>
<marker lat="35.216" lon="-80.833" site="Charlotte (North Carolina, United States)"/>
<marker lat="19.416" lon="-99.166" site="Mexico (Mexico, Mexico)"/>
<marker lat="40.0" lon="-4.0" site="Spain (Spain)"/>
<marker lat="38.516" lon="-78.883" site="Rockingham (Virginia, United States)"/>
<marker lat="38.166" lon="-79.116" site="Augusta county (Virginia, United States)"/>
<marker lat="42.383" lon="-2.85" site="Canas (Spain)"/>
<marker lat="37.15" lon="-88.716" site="Metropolis, Massac County, Illinois (Illinois, United States)"/>
<marker lat="41.633" lon="-85.416" site="La Grange (Indiana, United States)"/>
<marker lat="39.7" lon="-76.65" site="Maryland Line (Maryland, United States)"/>
<marker lat="42.25" lon="-71.833" site="Massachusetts (Massachusetts, United States)"/>
<marker lat="41.2" lon="-73.633" site="Bedford, N. Y. (New York, United States)"/>
<marker lat="43.0" lon="-75.0" site="New York State (New York, United States)"/>
<marker lat="44.5" lon="11.333" site="Bologna (Italy)"/>
<marker lat="38.983" lon="-76.15" site="Queenstown, Md. (Maryland, United States)"/>
<marker lat="37.83" lon="-89.15" site="Mound City (Illinois, United States)"/>
<marker lat="38.2" lon="-78.883" site="Piedmont, Va. (Virginia, United States)"/>
<marker lat="38.85" lon="-77.35" site="Fairfax (Virginia, United States)"/>
<marker lat="37.116" lon="-80.4" site="Christiansburg (Virginia, United States)"/>
<marker lat="33.533" lon="-90.166" site="Yazoo River (United States)"/>
<marker lat="36.983" lon="-89.133" site="Ohio (United States)"/>
<marker lat="40.233" lon="-80.33" site="Venetia (Pennsylvania, United States)"/>
<marker lat="25.0" lon="-90.0" site="Gulf of Mexico"/>
<marker lat="51.66" lon="-1.25" site="Hampshire (United Kingdom)"/>
<marker lat="41.7" lon="-73.916" site="Poughkeepsie (New York, United States)"/>
<marker lat="19.0" lon="-70.666" site="Dominican Republic (Dominican Republic)"/>
<marker lat="33.95" lon="-90.183" site="Tallahatchie county (Mississippi, United States)"/>
<marker lat="36.966" lon="-89.116" site="Bird's Point, Mo. (Missouri, United States)"/>
<marker lat="37.516" lon="-76.783" site="West Point (Virginia, United States)"/>
<marker lat="43.2" lon="-75.45" site="Fort Stanwix (New York, United States)"/>
<marker lat="30.833" lon="-83.966" site="Thomasville (Georgia, United States)"/>
<marker lat="37.266" lon="-79.933" site="Big Lick (Virginia, United States)"/>
<marker lat="38.516" lon="-77.6" site="Aquia Creek (Virginia, United States)"/>
<marker lat="55.0" lon="-7.316" site="Londonderry (United Kingdom)"/>
<marker lat="35.633" lon="-91.3" site="Jacksonport (Arkansas, United States)"/>
<marker lat="37.766" lon="-79.383" site="South River (Virginia, United States)"/>
<marker lat="40.33" lon="-76.3" site="Lancaster (Pennsylvania, United States)"/>
<marker lat="39.0" lon="35.0" site="Turquie (Turkey)"/>
<marker lat="35.0" lon="38.0" site="Syria (Syria)"/>
<marker lat="34.0" lon="-80.0" site="South Carolina (South Carolina, United States)"/>
<marker lat="40.433" lon="-79.983" site="Pittsburgh (Pennsylvania, United States)"/>
<marker lat="40.716" lon="-80.283" site="Marion Hill (Pennsylvania, United States)"/>
<marker lat="39.0" lon="-105.0" site="Colorado (Colorado, United States)"/>
<marker lat="34.183" lon="-79.75" site="Florence, S. C. (South Carolina, United States)"/>
<marker lat="40.883" lon="-72.383" site="Southampton, L. I. (New York, United States)"/>
<marker lat="40.416" lon="-79.85" site="Braddock (Pennsylvania, United States)"/>
<marker lat="39.0" lon="16.5" site="Bruttium (Italy)"/>
<marker lat="37.2" lon="-93.283" site="Springfield, Mo. (Missouri, United States)"/>
<marker lat="37.333" lon="-80.75" site="Bluff City (Virginia, United States)"/>
<marker lat="41.983" lon="-70.85" site="Halifax (Massachusetts, United States)"/>
<marker lat="53.266" lon="-9.5" site="Galway (Irish Republic)"/>
<marker lat="41.383" lon="-84.116" site="Napoleon (Ohio, United States)"/>
<marker lat="36.633" lon="-80.25" site="Stuart (Virginia, United States)"/>
<marker lat="42.716" lon="-73.683" site="Troy, N. Y. (New York, United States)"/>
<marker lat="11.1" lon="-74.85" site="Magdalena (Colombia)"/>
<marker lat="36.166" lon="-86.75" site="Edgefield (Tennessee, United States)"/>
<marker lat="51.5" lon="10.5" site="Germany (Germany)"/>
<marker lat="44.533" lon="-68.416" site="Ellsworth (Maine, United States)"/>
<marker lat="40.5" lon="-80.716" site="Wheeling, W. Va. (West Virginia, United States)"/>
<marker lat="43.0" lon="-84.55" site="St. Johns (Michigan, United States)"/>
<marker lat="44.0" lon="-69.416" site="Bremen, Me. (Maine, United States)"/>
<marker lat="35.95" lon="-80.0" site="High Point, N. C. (North Carolina, United States)"/>
<marker lat="51.85" lon="-8.283" site="Queenstown (Irish Republic)"/>
<marker lat="39.283" lon="-80.33" site="Webster, West-virginia (West Virginia, United States)"/>
<marker lat="54.0" lon="-72.0" site="Quebec (Canada)"/>
<marker lat="36.9" lon="-92.483" site="Vera Cruz, Mo. (Missouri, United States)"/>
<marker lat="30.683" lon="-88.33" site="Mobile, Ala. (Alabama, United States)"/>
<marker lat="44.833" lon="11.633" site="Ferrara (Italy)"/>
<marker lat="40.683" lon="-73.8" site="Jamaica, L. I. (New York, United States)"/>
<marker lat="36.75" lon="-78.916" site="Halifax, Va. (Virginia, United States)"/>
<marker lat="33.283" lon="-88.83" site="Pickens (Alabama, United States)"/>
<marker lat="42.233" lon="-71.166" site="Dedham (Massachusetts, United States)"/>
<marker lat="36.7" lon="-78.35" site="Mecklenburg (Virginia, United States)"/>
<marker lat="35.25" lon="-88.983" site="Bolivar, Tenn. (Tennessee, United States)"/>
<marker lat="37.8" lon="-79.433" site="Rockbridge (Virginia, United States)"/>
<marker lat="39.16" lon="-78.816" site="Hardy County (West Virginia, United States)"/>
</markers>