<markers>
<marker lat="34.0" lon="-80.0" site="South Carolina (South Carolina, United States)"/>
<marker lat="38.0" lon="-98.0" site="United States (United States)"/>
<marker lat="35.0" lon="105.0" site="China (China)"/>
<marker lat="32.0" lon="-84.0" site="Georgia (Georgia, United States)"/>
<marker lat="33.0" lon="-87.0" site="Alabama (Alabama, United States)"/>
<marker lat="40.0" lon="-86.0" site="Indiana (Indiana, United States)"/>
<marker lat="41.216" lon="13.6" site="Gaeta (Italy)"/>
<marker lat="42.1" lon="-72.583" site="Springfield (Massachusetts, United States)"/>
<marker lat="46.0" lon="2.0" site="France (France)"/>
<marker lat="37.966" lon="-81.516" site="Big Coal River (West Virginia, United States)"/>
<marker lat="39.516" lon="-87.116" site="Brazil, Clay County, Indiana (Indiana, United States)"/>
<marker lat="38.1" lon="-82.6" site="Louisa, Ky. (Kentucky, United States)"/>
<marker lat="40.0" lon="9.0" site="Sardinia (Italy)"/>
<marker lat="44.1" lon="-69.1" site="Rockland, Me. (Maine, United States)"/>
<marker lat="22.3" lon="-97.866" site="Tampico (Tamaulipas, Mexico)"/>
<marker lat="32.83" lon="-81.1" site="Savannah (Georgia, United States)"/>
<marker lat="39.483" lon="-80.133" site="Palatine (West Virginia, United States)"/>
<marker lat="37.55" lon="-77.45" site="Richmond (Virginia, United States)"/>
<marker lat="37.55" lon="-77.366" site="Henrico (Virginia, United States)"/>
<marker lat="31.1" lon="121.366" site="Shanghai (China)"/>
<marker lat="33.466" lon="-82.16" site="Augusta (Georgia, United States)"/>
<marker lat="19.416" lon="-99.166" site="Mexico (Mexico, Mexico)"/>
<marker lat="38.166" lon="-79.116" site="Augusta county (Virginia, United States)"/>
<marker lat="38.566" lon="-76.166" site="Hudson River (Maryland, United States)"/>
<marker lat="43.3" lon="5.366" site="Marseilles (France)"/>
<marker lat="42.6" lon="-70.65" site="Glocester (Massachusetts, United States)"/>
<marker lat="33.733" lon="-84.383" site="Atlanta (Georgia, United States)"/>
<marker lat="37.233" lon="-80.2" site="Roanoke (United States)"/>
<marker lat="42.583" lon="-71.716" site="Lunenburg, Ma. (Massachusetts, United States)"/>
<marker lat="40.266" lon="-86.5" site="Frankfort, Clinton County, Indiana (Indiana, United States)"/>
<marker lat="44.0" lon="-85.0" site="Michigan (Michigan, United States)"/>
<marker lat="33.0" lon="-90.0" site="Mississippi (Mississippi, United States)"/>
<marker lat="38.0" lon="-98.0" site="Missouri (Missouri, United States)"/>
<marker lat="-22.883" lon="-43.283" site="Rio De Janeiro (Rio de Janeiro, Brazil)"/>
<marker lat="45.433" lon="12.333" site="Venice (Italy)"/>
<marker lat="42.3" lon="-72.583" site="Mount Holyoke (Massachusetts, United States)"/>
<marker lat="43.166" lon="-78.766" site="Niagara County (New York, United States)"/>
<marker lat="37.366" lon="-77.5" site="Chesterfield (Virginia, United States)"/>
<marker lat="40.16" lon="-78.5" site="Fort Bedford (Pennsylvania, United States)"/>
<marker lat="38.2" lon="-77.583" site="Spottsylvania (Virginia, United States)"/>
<marker lat="42.316" lon="-72.633" site="Northampton (Massachusetts, United States)"/>
<marker lat="37.333" lon="-77.66" site="Charles City (Virginia, United States)"/>
<marker lat="27.5" lon="-82.283" site="Manatee (Florida, United States)"/>
<marker lat="51.66" lon="-1.25" site="Hampshire (United Kingdom)"/>
<marker lat="37.783" lon="-78.483" site="Scottsville (Virginia, United States)"/>
<marker lat="38.833" lon="-82.133" site="Point Pleasant (West Virginia, United States)"/>
<marker lat="37.266" lon="-79.933" site="Big Lick (Virginia, United States)"/>
<marker lat="42.316" lon="-72.333" site="Enfield (Massachusetts, United States)"/>
<marker lat="37.733" lon="-76.433" site="Lancaster County (Virginia, United States)"/>
<marker lat="38.8" lon="-77.33" site="Alexandria (Virginia, United States)"/>
<marker lat="29.416" lon="-98.483" site="San Antonio (Texas, United States)"/>
<marker lat="40.0" lon="-89.0" site="Illinois (Illinois, United States)"/>
<marker lat="42.516" lon="-70.883" site="Salem (Massachusetts, United States)"/>
<marker lat="33.66" lon="-83.216" site="Milledgeville (Georgia, United States)"/>
<marker lat="38.0" lon="23.733" site="Athens (Greece)"/>
<marker lat="60.0" lon="-96.0" site="Canada (Canada)"/>
<marker lat="34.1" lon="-93.233" site="Hollywood (Arkansas, United States)"/>
<marker lat="36.3" lon="-76.216" site="Elizabeth City (North Carolina, United States)"/>
<marker lat="40.25" lon="-76.25" site="Lancaster County (Pennsylvania, United States)"/>
<marker lat="35.5" lon="-80.0" site="North Carolina (North Carolina, United States)"/>
<marker lat="37.216" lon="-77.4" site="Petersburg, Va. (Virginia, United States)"/>
<marker lat="32.366" lon="-86.3" site="Montgomery (Alabama, United States)"/>
<marker lat="40.216" lon="-74.733" site="Chambersburg (New Jersey, United States)"/>
<marker lat="35.766" lon="-78.633" site="Raleigh (North Carolina, United States)"/>
<marker lat="32.283" lon="-90.183" site="Jackson (Mississippi, United States)"/>
<marker lat="37.333" lon="-77.966" site="Amelia Court House (Virginia, United States)"/>
<marker lat="35.16" lon="-77.4" site="Jones (North Carolina, United States)"/>
<marker lat="20.666" lon="-103.333" site="Guadalajara (Jalisco, Mexico)"/>
<marker lat="41.783" lon="-69.983" site="Orleans, Ma. (Massachusetts, United States)"/>
<marker lat="33.916" lon="-80.333" site="Sumterville (South Carolina, United States)"/>
<marker lat="37.0" lon="-119.0" site="California (California, United States)"/>
<marker lat="34.633" lon="-77.95" site="Washington, N. C. (North Carolina, United States)"/>
<marker lat="13.0" lon="-85.0" site="Nicaragua (Nicaragua)"/>
<marker lat="35.5" lon="-85.0" site="Tennessee (Tennessee, United States)"/>
<marker lat="42.25" lon="-72.566" site="South Hadley (Massachusetts, United States)"/>
<marker lat="37.95" lon="-121.283" site="Stockton (California, United States)"/>
<marker lat="33.733" lon="-82.733" site="Washington, Ga. (Georgia, United States)"/>
<marker lat="44.633" lon="-63.583" site="Halifax (Canada)"/>
<marker lat="44.833" lon="-0.566" site="Bordeaux (France)"/>
<marker lat="23.33" lon="-81.2" site="Cardenas (Cuba)"/>
<marker lat="38.733" lon="-77.816" site="Fauquier (Virginia, United States)"/>
<marker lat="33.55" lon="-82.25" site="Columbia County (Georgia, United States)"/>
<marker lat="35.95" lon="-83.916" site="Knoxville (Tennessee, United States)"/>
<marker lat="36.383" lon="-78.15" site="Warrenton (North Carolina, United States)"/>
<marker lat="41.383" lon="-84.116" site="Napoleon (Ohio, United States)"/>
<marker lat="40.766" lon="-111.883" site="Capitol (Utah, United States)"/>
<marker lat="36.45" lon="-83.566" site="Tazewell, Tenn. (Tennessee, United States)"/>
<marker lat="31.7" lon="-91.5" site="Fayette (Mississippi, United States)"/>
<marker lat="42.216" lon="-72.716" site="Southampton, Mass. (Massachusetts, United States)"/>
<marker lat="36.166" lon="-86.75" site="Edgefield (Tennessee, United States)"/>
<marker lat="39.83" lon="-77.65" site="Loudoun (Virginia, United States)"/>
<marker lat="32.0" lon="-80.833" site="Tybee Island (Georgia, United States)"/>
<marker lat="34.0" lon="-81.33" site="Columbia (South Carolina, United States)"/>
<marker lat="44.0" lon="-105.833" site="Wyoming (Wyoming, United States)"/>
<marker lat="32.75" lon="-79.85" site="Fort Moultrie (South Carolina, United States)"/>
<marker lat="31.133" lon="-81.483" site="Brunswick, Ga. (Georgia, United States)"/>
<marker lat="37.75" lon="-77.366" site="Hanover Court House (Virginia, United States)"/>
<marker lat="54.0" lon="-72.0" site="Quebec (Canada)"/>
<marker lat="10.0" lon="-80.0" site="Central America"/>
<marker lat="34.7" lon="-80.766" site="Lancaster County (South Carolina, United States)"/>
<marker lat="38.8" lon="-80.616" site="Dutch (West Virginia, United States)"/>
<marker lat="35.216" lon="-80.833" site="Charlotte (North Carolina, United States)"/>
<marker lat="40.766" lon="-74.216" site="Orange, N. J. (New Jersey, United States)"/>
<marker lat="43.2" lon="-77.416" site="Webster (New York, United States)"/>
<marker lat="32.15" lon="-86.633" site="Lowndes (Alabama, United States)"/>
<marker lat="42.633" lon="-71.333" site="Middlesex Village (Massachusetts, United States)"/>
<marker lat="37.733" lon="-77.916" site="Goochland (Virginia, United States)"/>
<marker lat="37.0" lon="-79.866" site="Franklin county (Virginia, United States)"/>
<marker lat="37.85" lon="-78.266" site="Fluvanna (Virginia, United States)"/>
<marker lat="37.783" lon="-78.783" site="Nelson (Virginia, United States)"/>
<marker lat="37.133" lon="-78.66" site="Nottoway (Virginia, United States)"/>
<marker lat="37.983" lon="-77.966" site="Louisa (Virginia, United States)"/>
<marker lat="36.816" lon="-79.4" site="Pittsylvania (Virginia, United States)"/>
<marker lat="37.8" lon="-79.433" site="Rockbridge (Virginia, United States)"/>
<marker lat="38.666" lon="-78.15" site="Rappahannock (Virginia, United States)"/>
<marker lat="36.916" lon="-81.5" site="Wythe (Virginia, United States)"/>
<marker lat="38.333" lon="-81.566" site="Kanawha (West Virginia, United States)"/>
</markers>