<markers>
<marker lat="48.866" lon="2.333" site="Department de Ville de Paris (France)"/>
<marker lat="34.25" lon="-85.15" site="Rome, Ga. (Georgia, United States)"/>
<marker lat="51.5" lon="10.5" site="Germany (Germany)"/>
<marker lat="38.0" lon="-98.0" site="United States (United States)"/>
<marker lat="46.0" lon="2.0" site="France (France)"/>
<marker lat="41.85" lon="-87.65" site="Chicago (Illinois, United States)"/>
<marker lat="45.0" lon="-69.0" site="Maine (Maine, United States)"/>
<marker lat="42.25" lon="-71.833" site="Massachusetts (Massachusetts, United States)"/>
<marker lat="53.0" lon="-2.0" site="England (United Kingdom)"/>
<marker lat="42.633" lon="-76.166" site="Homer, N. Y. (New York, United States)"/>
<marker lat="35.533" lon="-96.216" site="Oriental (Oklahoma, United States)"/>
<marker lat="41.483" lon="-71.3" site="Newport (Rhode Island, United States)"/>
<marker lat="52.516" lon="-3.5" site="Cambria (United Kingdom)"/>
<marker lat="35.0" lon="105.0" site="China (China)"/>
<marker lat="53.333" lon="-6.25" site="Dublin (Irish Republic)"/>
<marker lat="37.216" lon="-77.4" site="Petersburg, Va. (Virginia, United States)"/>
<marker lat="38.3" lon="-77.45" site="Fredericksburg, Va. (Virginia, United States)"/>
<marker lat="39.0" lon="-105.0" site="Colorado (Colorado, United States)"/>
<marker lat="34.183" lon="-79.75" site="Florence, S. C. (South Carolina, United States)"/>
<marker lat="37.866" lon="-80.133" site="Alleghany Mountains (United States)"/>
<marker lat="42.366" lon="-71.1" site="Cambridge (Massachusetts, United States)"/>
<marker lat="42.833" lon="12.833" site="Italy (Italy)"/>
<marker lat="43.8" lon="4.65" site="Tarascon (France)"/>
<marker lat="42.5" lon="-71.866" site="Webster (Massachusetts, United States)"/>
<marker lat="32.416" lon="-80.666" site="Beaufort, S. C. (South Carolina, United States)"/>
<marker lat="39.283" lon="-76.6" site="Baltimore, Md. (Maryland, United States)"/>
<marker lat="44.0" lon="-85.0" site="Michigan (Michigan, United States)"/>
<marker lat="50.383" lon="-4.166" site="Plymouth (United Kingdom)"/>
<marker lat="37.683" lon="-81.616" site="Oceana (West Virginia, United States)"/>
<marker lat="32.0" lon="53.0" site="Persia (Iran)"/>
<marker lat="43.25" lon="-72.516" site="Litchfield Hill (Vermont, United States)"/>
<marker lat="1.0" lon="-40.0" site="Atlantic Ocean"/>
<marker lat="25.0" lon="45.0" site="Arabia"/>
<marker lat="36.166" lon="-93.7" site="Forum (Arkansas, United States)"/>
<marker lat="42.716" lon="-87.766" site="Racine (Wisconsin, United States)"/>
<marker lat="43.216" lon="2.35" site="Carcaso (France)"/>
<marker lat="38.666" lon="-98.0" site="Kansas (Kansas, United States)"/>
<marker lat="31.0" lon="-92.0" site="Louisiana (Louisiana, United States)"/>
<marker lat="40.0" lon="-86.0" site="Indiana (Indiana, United States)"/>
<marker lat="44.516" lon="33.583" site="Balaklava (Ukraine)"/>
<marker lat="41.733" lon="-73.183" site="Litchfield, Conn. (Connecticut, United States)"/>
<marker lat="34.216" lon="-82.183" site="Locksley Hall (South Carolina, United States)"/>
<marker lat="47.383" lon="0.7" site="Turones (France)"/>
<marker lat="38.2" lon="-84.866" site="Frankfort (Kentucky, United States)"/>
<marker lat="42.633" lon="-71.316" site="Lowell (Massachusetts, United States)"/>
<marker lat="43.66" lon="-72.416" site="Walpole (New Hampshire, United States)"/>
<marker lat="-42.0" lon="174.0" site="New Zealand (New Zealand)"/>
<marker lat="60.35" lon="-149.883" site="Russian River (Alaska, United States)"/>
<marker lat="51.9" lon="-8.466" site="Cork (Irish Republic)"/>
<marker lat="40.833" lon="14.25" site="Naples (Italy)"/>
<marker lat="38.9" lon="-77.25" site="Vienna (Virginia, United States)"/>
<marker lat="35.5" lon="-85.0" site="Tennessee (Tennessee, United States)"/>
<marker lat="38.566" lon="-92.166" site="Jefferson City (Missouri, United States)"/>
<marker lat="42.45" lon="-71.35" site="Concord (Massachusetts, United States)"/>
<marker lat="41.383" lon="-84.116" site="Napoleon (Ohio, United States)"/>
<marker lat="42.1" lon="-77.233" site="Addison, Steuben County, New York (New York, United States)"/>
<marker lat="43.233" lon="-78.183" site="Albion (New York, United States)"/>
<marker lat="40.2" lon="-93.116" site="Milan, Sullivan County, Missouri (Missouri, United States)"/>
<marker lat="43.266" lon="-75.15" site="Trenton Falls (New York, United States)"/>
<marker lat="38.866" lon="-77.1" site="Arlington (Virginia, United States)"/>
<marker lat="38.833" lon="-104.816" site="Colorado Springs (Colorado, United States)"/>
<marker lat="51.5" lon="-0.166" site="St. Margaret's church (United Kingdom)"/>
<marker lat="40.583" lon="-74.15" site="Staten Island (New York, United States)"/>
<marker lat="54.0" lon="-72.0" site="Quebec (Canada)"/>
<marker lat="19.416" lon="-99.166" site="Mexico (Mexico, Mexico)"/>
<marker lat="39.0" lon="22.0" site="Greece (Greece)"/>
<marker lat="41.483" lon="-81.683" site="Cleveland (Ohio, United States)"/>
<marker lat="62.0" lon="15.0" site="Sweden (Sweden)"/>
<marker lat="40.0" lon="-4.0" site="Spain (Spain)"/>
</markers>