<markers>
<marker lat="32.766" lon="-79.916" site="Charleston (South Carolina, United States)"/>
<marker lat="38.0" lon="-98.0" site="United States (United States)"/>
<marker lat="38.883" lon="-77.33" site="Washington (United States)"/>
<marker lat="34.0" lon="-80.0" site="South Carolina (South Carolina, United States)"/>
<marker lat="39.283" lon="-76.6" site="Baltimore, Md. (Maryland, United States)"/>
<marker lat="39.0" lon="-76.833" site="Maryland (Maryland, United States)"/>
<marker lat="32.0" lon="-84.0" site="Georgia (Georgia, United States)"/>
<marker lat="32.366" lon="-86.3" site="Montgomery (Alabama, United States)"/>
<marker lat="30.0" lon="-100.0" site="Texas (Texas, United States)"/>
<marker lat="38.0" lon="-98.0" site="Missouri (Missouri, United States)"/>
<marker lat="37.0" lon="-85.0" site="Kentucky (Kentucky, United States)"/>
<marker lat="33.0" lon="-90.0" site="Mississippi (Mississippi, United States)"/>
<marker lat="35.5" lon="-85.0" site="Tennessee (Tennessee, United States)"/>
<marker lat="33.0" lon="-87.0" site="Alabama (Alabama, United States)"/>
<marker lat="35.5" lon="-80.0" site="North Carolina (North Carolina, United States)"/>
<marker lat="42.25" lon="-71.833" site="Massachusetts (Massachusetts, United States)"/>
<marker lat="30.316" lon="-87.283" site="Fort Pickens (Florida, United States)"/>
<marker lat="31.0" lon="-92.0" site="Louisiana (Louisiana, United States)"/>
<marker lat="40.833" lon="-76.0" site="Pennsylvania (Pennsylvania, United States)"/>
<marker lat="32.75" lon="-79.85" site="Fort Moultrie (South Carolina, United States)"/>
<marker lat="40.0" lon="-80.833" site="Ohio (Ohio, United States)"/>
<marker lat="28.0" lon="-82.0" site="Florida (Florida, United States)"/>
<marker lat="39.316" lon="-77.733" site="Harper's Ferry (West Virginia, United States)"/>
<marker lat="40.0" lon="-89.0" site="Illinois (Illinois, United States)"/>
<marker lat="35.0" lon="-93.0" site="Arkansas (Arkansas, United States)"/>
<marker lat="38.816" lon="-77.516" site="Bull Run, Va. (Virginia, United States)"/>
<marker lat="53.0" lon="-2.0" site="England (United Kingdom)"/>
<marker lat="38.616" lon="-90.183" site="St. Louis (Missouri, United States)"/>
<marker lat="40.0" lon="-86.0" site="Indiana (Indiana, United States)"/>
<marker lat="32.75" lon="-79.883" site="Charleston Harbor (South Carolina, United States)"/>
<marker lat="40.0" lon="-75.0" site="New Jersey (New Jersey, United States)"/>
<marker lat="39.0" lon="-80.0" site="West Virginia (West Virginia, United States)"/>
<marker lat="39.0" lon="-75.666" site="Delaware (Delaware, United States)"/>
<marker lat="36.833" lon="-76.283" site="Norfolk (Virginia, United States)"/>
<marker lat="38.966" lon="-76.483" site="Annapolis (Maryland, United States)"/>
<marker lat="33.916" lon="-80.333" site="Sumterville (South Carolina, United States)"/>
<marker lat="37.0" lon="-80.0" site="Virginia (Virginia, United States)"/>
<marker lat="38.8" lon="-77.33" site="Alexandria (Virginia, United States)"/>
<marker lat="39.65" lon="-78.75" site="Cumberland (Maryland, United States)"/>
<marker lat="30.416" lon="-87.216" site="Pensacola (Florida, United States)"/>
<marker lat="39.33" lon="-76.66" site="Centreville (Maryland, United States)"/>
<marker lat="24.566" lon="-81.8" site="Key West (Florida, United States)"/>
<marker lat="41.666" lon="-71.5" site="Rhode Island (Rhode Island, United States)"/>
<marker lat="44.0" lon="-71.666" site="New Hampshire (New Hampshire, United States)"/>
<marker lat="32.35" lon="-90.866" site="Vicksburg (Mississippi, United States)"/>
<marker lat="39.183" lon="-78.15" site="Winchester, Va. (Virginia, United States)"/>
<marker lat="19.416" lon="-99.166" site="Mexico (Mexico, Mexico)"/>
<marker lat="41.833" lon="-72.833" site="Connecticut (Connecticut, United States)"/>
<marker lat="41.483" lon="-71.3" site="Newport (Rhode Island, United States)"/>
<marker lat="40.7" lon="-74.0" site="New York (New York, United States)"/>
<marker lat="45.0" lon="-69.0" site="Maine (Maine, United States)"/>
<marker lat="40.5" lon="-80.716" site="Wheeling, W. Va. (West Virginia, United States)"/>
<marker lat="34.0" lon="-81.33" site="Columbia (South Carolina, United States)"/>
<marker lat="38.833" lon="-79.866" site="Beverly (West Virginia, United States)"/>
<marker lat="32.83" lon="-81.1" site="Savannah (Georgia, United States)"/>
<marker lat="32.7" lon="-79.883" site="Morris Island (South Carolina, United States)"/>
<marker lat="44.0" lon="-73.0" site="Vermont (Vermont, United States)"/>
<marker lat="39.333" lon="-80.16" site="Grafton, W. Va. (West Virginia, United States)"/>
<marker lat="41.85" lon="-87.65" site="Chicago (Illinois, United States)"/>
<marker lat="42.0" lon="-93.0" site="Iowa (Iowa, United States)"/>
<marker lat="37.16" lon="-76.333" site="Hampton (Virginia, United States)"/>
<marker lat="39.15" lon="-80.33" site="Philippi (West Virginia, United States)"/>
<marker lat="39.333" lon="-78.75" site="Romney (West Virginia, United States)"/>
<marker lat="39.15" lon="-84.45" site="Cincinnati (Ohio, United States)"/>
<marker lat="37.33" lon="-89.183" site="Cairo, Ill. (Illinois, United States)"/>
<marker lat="40.1" lon="-96.15" site="Pawnee City (Nebraska, United States)"/>
<marker lat="37.0" lon="-119.0" site="California (California, United States)"/>
<marker lat="40.266" lon="-76.883" site="Harrisburg, Pa. (Pennsylvania, United States)"/>
<marker lat="30.683" lon="-88.33" site="Mobile, Ala. (Alabama, United States)"/>
<marker lat="39.633" lon="-76.466" site="Federal Hill (Maryland, United States)"/>
<marker lat="33.66" lon="-83.216" site="Milledgeville (Georgia, United States)"/>
<marker lat="44.0" lon="-120.0" site="Oregon (Oregon, United States)"/>
<marker lat="46.0" lon="-94.0" site="Minnesota (Minnesota, United States)"/>
<marker lat="39.8" lon="-89.633" site="Springfield (Illinois, United States)"/>
<marker lat="40.683" lon="-73.966" site="Brooklyn (New York, United States)"/>
<marker lat="24.616" lon="-82.866" site="Fort Jefferson (Florida, United States)"/>
<marker lat="38.75" lon="-77.466" site="Manassas, Va. (Virginia, United States)"/>
<marker lat="38.666" lon="-98.0" site="Kansas (Kansas, United States)"/>
<marker lat="29.416" lon="-98.483" site="San Antonio (Texas, United States)"/>
<marker lat="44.0" lon="-85.0" site="Michigan (Michigan, United States)"/>
<marker lat="30.316" lon="-87.3" site="Fort McRae (Florida, United States)"/>
<marker lat="37.55" lon="-77.45" site="Richmond (Virginia, United States)"/>
<marker lat="38.566" lon="-92.166" site="Jefferson City (Missouri, United States)"/>
<marker lat="30.45" lon="-91.15" site="Baton Rouge (Louisiana, United States)"/>
<marker lat="37.583" lon="-77.1" site="Tunstall (Virginia, United States)"/>
<marker lat="39.45" lon="-77.95" site="Martinsburg (West Virginia, United States)"/>
<marker lat="38.833" lon="-77.416" site="Centreville (Virginia, United States)"/>
<marker lat="38.966" lon="-92.733" site="Boonville (Missouri, United States)"/>
<marker lat="36.966" lon="-76.35" site="Hampton Roads (Virginia, United States)"/>
<marker lat="47.233" lon="-95.2" site="Mississippi (United States)"/>
<marker lat="36.983" lon="-89.133" site="Ohio (United States)"/>
<marker lat="45.0" lon="-90.0" site="Wisconsin (Wisconsin, United States)"/>
<marker lat="32.716" lon="-79.866" site="Cumming's Point (South Carolina, United States)"/>
<marker lat="46.0" lon="2.0" site="France (France)"/>
<marker lat="33.733" lon="-84.383" site="Atlanta (Georgia, United States)"/>
<marker lat="38.25" lon="-85.75" site="Louisville (Kentucky, United States)"/>
<marker lat="32.75" lon="-79.833" site="Sullivan's Island (South Carolina, United States)"/>
<marker lat="35.33" lon="-89.183" site="Grand Junction (Tennessee, United States)"/>
<marker lat="42.65" lon="-73.75" site="Albany (New York, United States)"/>
<marker lat="32.716" lon="-79.916" site="Three Trees (South Carolina, United States)"/>
<marker lat="27.516" lon="-82.566" site="Palmetto (Florida, United States)"/>
<marker lat="38.9" lon="-77.25" site="Vienna (Virginia, United States)"/>
<marker lat="39.4" lon="-77.4" site="Frederick, Md. (Maryland, United States)"/>
<marker lat="36.166" lon="-86.75" site="Edgefield (Tennessee, United States)"/>
<marker lat="37.516" lon="-76.783" site="West Point (Virginia, United States)"/>
<marker lat="35.133" lon="-90.33" site="Memphis (Tennessee, United States)"/>
<marker lat="60.0" lon="-96.0" site="Canada (Canada)"/>
<marker lat="40.216" lon="-74.733" site="Chambersburg (New Jersey, United States)"/>
<marker lat="32.716" lon="-79.95" site="James Island (South Carolina, United States)"/>
<marker lat="43.0" lon="-75.0" site="New York State (New York, United States)"/>
<marker lat="30.333" lon="-87.283" site="Fort Barrancas (Florida, United States)"/>
<marker lat="42.716" lon="-73.683" site="Troy, N. Y. (New York, United States)"/>
<marker lat="37.233" lon="-76.5" site="Yorktown (Virginia, United States)"/>
<marker lat="33.466" lon="-82.16" site="Augusta (Georgia, United States)"/>
<marker lat="37.0" lon="-76.0" site="Chesapeake Bay (United States)"/>
<marker lat="30.383" lon="-87.266" site="Warrington, Fla. (Florida, United States)"/>
<marker lat="29.35" lon="-89.45" site="Fort Jackson (Louisiana, United States)"/>
<marker lat="35.633" lon="-89.833" site="Fort Pillow (Tennessee, United States)"/>
<marker lat="39.766" lon="-86.15" site="Indianapolis (Indiana, United States)"/>
<marker lat="35.83" lon="-89.8" site="Germantown (Tennessee, United States)"/>
<marker lat="41.816" lon="-71.4" site="Providence, R. I. (Rhode Island, United States)"/>
<marker lat="32.283" lon="-90.183" site="Jackson (Mississippi, United States)"/>
<marker lat="38.933" lon="-77.433" site="Cub Run, Va. (Virginia, United States)"/>
<marker lat="38.7" lon="-77.83" site="Mount Vernon (Virginia, United States)"/>
<marker lat="25.0" lon="-90.0" site="Gulf of Mexico"/>
<marker lat="35.5" lon="-78.866" site="Fayetteville (North Carolina, United States)"/>
<marker lat="60.0" lon="47.0" site="Russia (Russia)"/>
<marker lat="38.133" lon="-76.5" site="Swan Point (Maryland, United States)"/>
<marker lat="35.0" lon="-98.0" site="Oklahoma (Oklahoma, United States)"/>
<marker lat="36.95" lon="-76.316" site="Sewell's Point (Virginia, United States)"/>
<marker lat="30.433" lon="-84.266" site="Newton (Florida, United States)"/>
<marker lat="40.433" lon="-79.983" site="Pittsburgh (Pennsylvania, United States)"/>
<marker lat="30.216" lon="-88.16" site="Fort Morgan (Alabama, United States)"/>
<marker lat="42.633" lon="-71.316" site="Lowell (Massachusetts, United States)"/>
<marker lat="40.683" lon="-76.183" site="Pottsville (Pennsylvania, United States)"/>
<marker lat="38.133" lon="-79.66" site="Staunton, Va. (Virginia, United States)"/>
<marker lat="32.866" lon="-85.183" site="West Point (Georgia, United States)"/>
<marker lat="33.733" lon="-87.25" site="America (Alabama, United States)"/>
<marker lat="39.166" lon="-91.866" site="Mexico, Mo. (Missouri, United States)"/>
<marker lat="39.383" lon="-84.55" site="Fort Hamilton (Ohio, United States)"/>
<marker lat="39.633" lon="-77.716" site="Hagerstown (Maryland, United States)"/>
<marker lat="41.75" lon="-72.683" site="Hartford (Connecticut, United States)"/>
<marker lat="34.216" lon="-77.933" site="Wilmington, N. C. (North Carolina, United States)"/>
<marker lat="36.833" lon="-76.283" site="Elizabeth (Virginia, United States)"/>
<marker lat="36.833" lon="-76.283" site="Portsmouth, Va. (Virginia, United States)"/>
<marker lat="36.966" lon="-89.116" site="Bird's Point, Mo. (Missouri, United States)"/>
<marker lat="38.516" lon="-77.6" site="Aquia Creek (Virginia, United States)"/>
<marker lat="39.466" lon="-76.633" site="Cockeysville (Maryland, United States)"/>
<marker lat="30.366" lon="-87.2" site="Pensacola Bay (Florida, United States)"/>
<marker lat="39.933" lon="-77.65" site="Chambersburg, Pa. (Pennsylvania, United States)"/>
<marker lat="39.55" lon="-76.66" site="Perryville, Md. (Maryland, United States)"/>
<marker lat="37.5" lon="-76.333" site="Back River, Va. (Virginia, United States)"/>
<marker lat="34.35" lon="-89.516" site="Oxford (Mississippi, United States)"/>
<marker lat="35.383" lon="-94.383" site="Fort Smith (Arkansas, United States)"/>
<marker lat="35.766" lon="-78.633" site="Raleigh (North Carolina, United States)"/>
<marker lat="40.333" lon="-78.766" site="Saint Michael (Pennsylvania, United States)"/>
<marker lat="38.933" lon="-78.183" site="Shenandoah (United States)"/>
<marker lat="42.316" lon="-70.916" site="Fort Warren (Massachusetts, United States)"/>
<marker lat="38.2" lon="-78.883" site="Piedmont, Va. (Virginia, United States)"/>
<marker lat="37.433" lon="-76.416" site="Hampton Creek (Virginia, United States)"/>
<marker lat="43.0" lon="-75.0" site="Mohawk (New York, United States)"/>
<marker lat="39.1" lon="-77.55" site="Leesburg (Virginia, United States)"/>
<marker lat="35.6" lon="-88.8" site="Jackson (Tennessee, United States)"/>
<marker lat="38.866" lon="-77.1" site="Arlington (Virginia, United States)"/>
<marker lat="32.45" lon="-84.983" site="Columbus (Georgia, United States)"/>
<marker lat="35.866" lon="-76.733" site="Plymouth, N. C. (North Carolina, United States)"/>
<marker lat="37.866" lon="-80.133" site="Alleghany Mountains (United States)"/>
<marker lat="38.466" lon="-79.966" site="Valley River (West Virginia, United States)"/>
<marker lat="32.833" lon="-83.616" site="Macon (Georgia, United States)"/>
<marker lat="38.466" lon="-81.416" site="Youngs Branch (West Virginia, United States)"/>
<marker lat="36.883" lon="-76.35" site="Craney Island (Virginia, United States)"/>
<marker lat="34.5" lon="-97.116" site="Davis (Oklahoma, United States)"/>
<marker lat="42.216" lon="-78.266" site="Cuba, N. Y. (New York, United States)"/>
<marker lat="28.716" lon="-95.883" site="Gulf (Texas, United States)"/>
<marker lat="33.666" lon="-84.433" site="South River, Ga. (Georgia, United States)"/>
<marker lat="37.316" lon="-78.283" site="Jamestown (Virginia) (Virginia, United States)"/>
<marker lat="35.666" lon="-92.733" site="Arkansas (United States)"/>
<marker lat="34.733" lon="-92.283" site="Little Rock (Arkansas, United States)"/>
<marker lat="36.8" lon="-76.316" site="Gosport (Virginia, United States)"/>
<marker lat="40.33" lon="-76.3" site="Lancaster (Pennsylvania, United States)"/>
<marker lat="35.266" lon="-80.85" site="Mecklenburg (North Carolina, United States)"/>
<marker lat="38.2" lon="-84.866" site="Frankfort (Kentucky, United States)"/>
<marker lat="29.3" lon="-94.783" site="Galveston (Texas, United States)"/>
<marker lat="34.716" lon="-76.733" site="Carolina City (North Carolina, United States)"/>
<marker lat="38.816" lon="-90.183" site="Missouri (United States)"/>
<marker lat="41.933" lon="-75.266" site="South river (United States)"/>
<marker lat="38.7" lon="-79.966" site="Huttonsville (West Virginia, United States)"/>
<marker lat="39.333" lon="-78.5" site="Bunker Hill (West Virginia, United States)"/>
<marker lat="38.983" lon="-80.216" site="Buckhannon (West Virginia, United States)"/>
<marker lat="30.266" lon="-97.733" site="Austin (Texas, United States)"/>
<marker lat="41.9" lon="-71.83" site="Taunton (Massachusetts, United States)"/>
<marker lat="35.9" lon="-94.966" site="Tahlequah (Oklahoma, United States)"/>
<marker lat="39.166" lon="-79.7" site="St. George, W. Va. (West Virginia, United States)"/>
<marker lat="51.5" lon="-0.166" site="London (United Kingdom)"/>
<marker lat="37.83" lon="-78.25" site="Laurel Hill, Va. (Virginia, United States)"/>
<marker lat="42.6" lon="-71.566" site="Groton (Massachusetts, United States)"/>
<marker lat="37.733" lon="-79.35" site="Buena Vista (Virginia, United States)"/>
<marker lat="37.266" lon="-76.883" site="Pig Point (Virginia, United States)"/>
<marker lat="38.683" lon="-77.483" site="Occoquan River (Virginia, United States)"/>
<marker lat="32.316" lon="-90.916" site="Delta (Louisiana, United States)"/>
</markers>