<markers>
<marker lat="38.0" lon="-98.0" site="United States (United States)"/>
<marker lat="35.833" lon="-86.383" site="Murfreesboro (Tennessee, United States)"/>
<marker lat="36.483" lon="-87.85" site="Fort Donelson (Tennessee, United States)"/>
<marker lat="35.0" lon="-93.0" site="Arkansas (Arkansas, United States)"/>
<marker lat="35.5" lon="-85.0" site="Tennessee (Tennessee, United States)"/>
<marker lat="39.366" lon="-87.0" site="Bowling Green (Indiana, United States)"/>
<marker lat="36.966" lon="-76.35" site="Hampton Roads (Virginia, United States)"/>
<marker lat="35.1" lon="-77.33" site="New Bern (North Carolina, United States)"/>
<marker lat="33.55" lon="-107.5" site="Paraje (New Mexico, United States)"/>
<marker lat="36.45" lon="-94.0" site="Elkhorn Tavern (Arkansas, United States)"/>
<marker lat="37.6" lon="-76.566" site="Middlesex County (Virginia, United States)"/>
<marker lat="37.55" lon="-77.366" site="Henrico (Virginia, United States)"/>
<marker lat="42.333" lon="-76.833" site="Havana, N. Y. (New York, United States)"/>
<marker lat="44.416" lon="8.95" site="Genoa (Italy)"/>
<marker lat="37.0" lon="-80.0" site="Virginia (Virginia, United States)"/>
<marker lat="39.0" lon="22.0" site="Greece (Greece)"/>
<marker lat="40.0" lon="-4.0" site="Spain (Spain)"/>
<marker lat="37.983" lon="-88.916" site="Benton, Illinois (Illinois, United States)"/>
<marker lat="35.85" lon="-86.4" site="Rutherford (Tennessee, United States)"/>
<marker lat="35.9" lon="-86.9" site="Williamson (Tennessee, United States)"/>
<marker lat="39.483" lon="-0.4" site="Valencia (Spain)"/>
<marker lat="37.516" lon="-76.783" site="York (Virginia, United States)"/>
<marker lat="39.25" lon="22.75" site="Magnesia (Greece)"/>
<marker lat="38.183" lon="-80.0" site="Huntersville (West Virginia, United States)"/>
<marker lat="35.6" lon="-87.33" site="Columbia, Tenn. (Tennessee, United States)"/>
<marker lat="39.1" lon="-77.833" site="Snickersville (Virginia, United States)"/>
<marker lat="48.533" lon="-123.15" site="Andrews Bay (Washington, United States)"/>
<marker lat="42.25" lon="-71.833" site="Massachusetts (Massachusetts, United States)"/>
<marker lat="35.633" lon="-87.66" site="Maury (Tennessee, United States)"/>
<marker lat="39.0" lon="-76.833" site="Maryland (Maryland, United States)"/>
<marker lat="35.233" lon="-87.33" site="Giles (Tennessee, United States)"/>
<marker lat="35.216" lon="-93.15" site="Dardanelle (Arkansas, United States)"/>
<marker lat="38.983" lon="-76.15" site="Queenstown, Md. (Maryland, United States)"/>
<marker lat="35.666" lon="-80.466" site="Salisbury, N. C. (North Carolina, United States)"/>
<marker lat="35.55" lon="-77.83" site="Pamlico (North Carolina, United States)"/>
<marker lat="30.133" lon="-97.816" site="Manchaca (Texas, United States)"/>
<marker lat="41.7" lon="-73.916" site="Poughkeepsie (New York, United States)"/>
<marker lat="57.0" lon="-4.0" site="Scotland (United Kingdom)"/>
<marker lat="36.85" lon="-81.733" site="Saltville (Virginia, United States)"/>
<marker lat="38.266" lon="-77.15" site="King George county (Virginia, United States)"/>
<marker lat="31.0" lon="-92.0" site="Louisiana (Louisiana, United States)"/>
<marker lat="32.0" lon="-84.0" site="Georgia (Georgia, United States)"/>
<marker lat="38.33" lon="-84.5" site="Lexington (Kentucky, United States)"/>
<marker lat="34.733" lon="-92.283" site="Little Rock (Arkansas, United States)"/>
<marker lat="38.333" lon="-118.183" site="Douglass (Nevada, United States)"/>
<marker lat="35.5" lon="-80.0" site="North Carolina (North Carolina, United States)"/>
<marker lat="34.0" lon="-80.0" site="South Carolina (South Carolina, United States)"/>
<marker lat="39.316" lon="-77.733" site="Harper's Ferry (West Virginia, United States)"/>
<marker lat="39.0" lon="-80.0" site="West Virginia (West Virginia, United States)"/>
<marker lat="41.783" lon="-69.983" site="Orleans, Ma. (Massachusetts, United States)"/>
<marker lat="32.6" lon="-90.33" site="Canton (Mississippi, United States)"/>
<marker lat="37.0" lon="-119.0" site="California (California, United States)"/>
<marker lat="34.633" lon="-77.95" site="Washington, N. C. (North Carolina, United States)"/>
<marker lat="22.166" lon="-80.45" site="Cienfuegos (Cuba)"/>
<marker lat="40.25" lon="-80.25" site="Menden (Pennsylvania, United States)"/>
<marker lat="36.983" lon="-85.9" site="Glasgow, Ky. (Kentucky, United States)"/>
<marker lat="36.716" lon="-76.583" site="Suffolk, Va. (Virginia, United States)"/>
<marker lat="37.7" lon="-86.166" site="Arch (Kentucky, United States)"/>
<marker lat="38.9" lon="-77.5" site="George-Town (United States)"/>
<marker lat="38.366" lon="-106.816" site="Post Ridge (Colorado, United States)"/>
<marker lat="34.716" lon="-86.583" site="Huntsville (Alabama, United States)"/>
<marker lat="51.5" lon="-0.83" site="Southwark (United Kingdom)"/>
<marker lat="31.133" lon="-81.483" site="Brunswick, Ga. (Georgia, United States)"/>
<marker lat="40.416" lon="-3.716" site="Madrid (Spain)"/>
<marker lat="46.0" lon="2.0" site="France (France)"/>
<marker lat="42.633" lon="-71.333" site="Middlesex Village (Massachusetts, United States)"/>
<marker lat="51.5" lon="-0.183" site="Kensington (United Kingdom)"/>
<marker lat="39.916" lon="-75.116" site="Camden, N. J. (New Jersey, United States)"/>
<marker lat="46.5" lon="-66.75" site="New Brunswick (Canada)"/>
<marker lat="33.7" lon="-106.916" site="Valverde, N. M. (New Mexico, United States)"/>
<marker lat="42.833" lon="12.833" site="Italy (Italy)"/>
<marker lat="35.33" lon="-89.233" site="La Grange (Tennessee, United States)"/>
<marker lat="36.85" lon="-81.516" site="Smyth (Virginia, United States)"/>
<marker lat="37.1" lon="-82.716" site="Cumberland River (Kentucky, United States)"/>
</markers>