<markers>
<marker lat="38.0" lon="-98.0" site="United States (United States)"/>
<marker lat="34.0" lon="-80.0" site="South Carolina (South Carolina, United States)"/>
<marker lat="32.0" lon="-84.0" site="Georgia (Georgia, United States)"/>
<marker lat="40.833" lon="-76.0" site="Pennsylvania (Pennsylvania, United States)"/>
<marker lat="62.0" lon="15.0" site="Sweden (Sweden)"/>
<marker lat="53.5" lon="-2.216" site="Manchester (United Kingdom)"/>
<marker lat="39.0" lon="-75.666" site="Delaware (Delaware, United States)"/>
<marker lat="33.0" lon="-87.0" site="Alabama (Alabama, United States)"/>
<marker lat="37.55" lon="-77.45" site="Richmond (Virginia, United States)"/>
<marker lat="46.0" lon="2.0" site="France (France)"/>
<marker lat="32.75" lon="-79.883" site="Charleston Harbor (South Carolina, United States)"/>
<marker lat="43.3" lon="5.366" site="Marseilles (France)"/>
<marker lat="43.33" lon="-87.9" site="Milwaukee (Wisconsin, United States)"/>
<marker lat="40.0" lon="-75.0" site="New Jersey (New Jersey, United States)"/>
<marker lat="53.7" lon="-2.666" site="Lancaster (United Kingdom)"/>
<marker lat="38.666" lon="-98.0" site="Kansas (Kansas, United States)"/>
<marker lat="32.83" lon="-81.1" site="Savannah (Georgia, United States)"/>
<marker lat="40.216" lon="-74.733" site="Chambersburg (New Jersey, United States)"/>
<marker lat="37.55" lon="-77.366" site="Henrico (Virginia, United States)"/>
<marker lat="38.3" lon="-77.45" site="Fredericksburg, Va. (Virginia, United States)"/>
<marker lat="35.0" lon="-79.75" site="Richmond county (North Carolina, United States)"/>
<marker lat="32.75" lon="-79.85" site="Fort Moultrie (South Carolina, United States)"/>
<marker lat="32.766" lon="-79.916" site="Charleston (South Carolina, United States)"/>
<marker lat="38.5" lon="-77.966" site="Culpeper (Virginia, United States)"/>
<marker lat="35.3" lon="-86.95" site="Odd Fellows Hall (Tennessee, United States)"/>
<marker lat="38.416" lon="-77.466" site="Stafford (Virginia, United States)"/>
<marker lat="35.5" lon="-89.4" site="Moscow, Tenn. (Tennessee, United States)"/>
<marker lat="30.266" lon="-97.733" site="Austin (Texas, United States)"/>
<marker lat="39.0" lon="-76.833" site="Maryland (Maryland, United States)"/>
<marker lat="33.0" lon="-90.0" site="Mississippi (Mississippi, United States)"/>
<marker lat="38.0" lon="-98.0" site="Missouri (Missouri, United States)"/>
<marker lat="44.0" lon="-71.666" site="New Hampshire (New Hampshire, United States)"/>
<marker lat="40.7" lon="-74.0" site="New York (New York, United States)"/>
<marker lat="43.0" lon="-75.0" site="New York State (New York, United States)"/>
<marker lat="37.483" lon="-77.0" site="New Kent (Virginia, United States)"/>
<marker lat="40.133" lon="-74.7" site="Bordentown (New Jersey, United States)"/>
<marker lat="42.716" lon="-84.55" site="Lansing (Michigan, United States)"/>
<marker lat="38.2" lon="-77.583" site="Spottsylvania (Virginia, United States)"/>
<marker lat="39.266" lon="-81.55" site="Parkersburg (West Virginia, United States)"/>
<marker lat="38.233" lon="-78.1" site="Orange Court House (Virginia, United States)"/>
<marker lat="51.66" lon="-1.25" site="Hampshire (United Kingdom)"/>
<marker lat="35.3" lon="-88.166" site="Cerro Gordo, Tenn. (Tennessee, United States)"/>
<marker lat="37.783" lon="-78.483" site="Scottsville (Virginia, United States)"/>
<marker lat="35.133" lon="-90.33" site="Memphis (Tennessee, United States)"/>
<marker lat="38.4" lon="-79.566" site="Monterey (Virginia, United States)"/>
<marker lat="34.433" lon="-82.85" site="Savannah River (United States)"/>
<marker lat="37.3" lon="-76.766" site="James City (Virginia, United States)"/>
<marker lat="38.266" lon="-77.15" site="King George county (Virginia, United States)"/>
<marker lat="37.683" lon="-77.83" site="King William County (Virginia, United States)"/>
<marker lat="42.0" lon="-93.0" site="Iowa (Iowa, United States)"/>
<marker lat="37.766" lon="-79.383" site="South River (Virginia, United States)"/>
<marker lat="40.616" lon="-79.616" site="Westmoreland (Pennsylvania, United States)"/>
<marker lat="60.0" lon="-96.0" site="Canada (Canada)"/>
<marker lat="35.0" lon="105.0" site="China (China)"/>
<marker lat="40.0" lon="-80.833" site="Ohio (Ohio, United States)"/>
<marker lat="37.216" lon="-77.4" site="Petersburg, Va. (Virginia, United States)"/>
<marker lat="37.75" lon="-77.483" site="Hanover County (Virginia, United States)"/>
<marker lat="37.416" lon="-76.55" site="Gloucester county (Virginia, United States)"/>
<marker lat="38.16" lon="-78.0" site="Louisa Court House (Virginia, United States)"/>
<marker lat="40.916" lon="-90.933" site="Oquawka (Illinois, United States)"/>
<marker lat="40.833" lon="14.25" site="Naples (Italy)"/>
<marker lat="35.5" lon="-85.0" site="Tennessee (Tennessee, United States)"/>
<marker lat="32.8" lon="-83.666" site="Bibb (Georgia, United States)"/>
<marker lat="37.66" lon="-77.633" site="Dinwiddie (Virginia, United States)"/>
<marker lat="38.733" lon="-77.816" site="Fauquier (Virginia, United States)"/>
<marker lat="43.0" lon="-75.0" site="Mohawk (New York, United States)"/>
<marker lat="37.95" lon="-76.95" site="Essex County (Virginia, United States)"/>
<marker lat="41.383" lon="-84.116" site="Napoleon (Ohio, United States)"/>
<marker lat="37.16" lon="-78.883" site="Patrick Henry (Virginia, United States)"/>
<marker lat="35.583" lon="-95.333" site="Muskogee (Oklahoma, United States)"/>
<marker lat="39.95" lon="-76.716" site="York, Pa. (Pennsylvania, United States)"/>
<marker lat="38.7" lon="-77.483" site="Prince William (Virginia, United States)"/>
<marker lat="32.0" lon="-80.833" site="Tybee Island (Georgia, United States)"/>
<marker lat="30.166" lon="-96.383" site="Brenham (Texas, United States)"/>
<marker lat="37.0" lon="-80.0" site="Virginia (Virginia, United States)"/>
<marker lat="38.33" lon="-77.35" site="Caroline (Virginia, United States)"/>
<marker lat="40.75" lon="-73.816" site="Flushing, L. I. (New York, United States)"/>
<marker lat="37.533" lon="-77.4" site="Church Hill (Virginia, United States)"/>
<marker lat="31.583" lon="-87.333" site="Monroe County, Alabama (Alabama, United States)"/>
<marker lat="37.4" lon="-78.816" site="Appomattox (Virginia, United States)"/>
<marker lat="29.35" lon="-89.45" site="Fort Jackson (Louisiana, United States)"/>
<marker lat="43.183" lon="-70.866" site="Dover, N. H. (New Hampshire, United States)"/>
<marker lat="40.0" lon="-4.0" site="Spain (Spain)"/>
<marker lat="37.733" lon="-77.916" site="Goochland (Virginia, United States)"/>
<marker lat="37.5" lon="-78.25" site="Cumberland County (Virginia, United States)"/>
<marker lat="36.95" lon="-78.25" site="Lunenburg (Virginia, United States)"/>
<marker lat="36.816" lon="-79.4" site="Pittsylvania (Virginia, United States)"/>
<marker lat="37.566" lon="-79.783" site="Botetourt (Virginia, United States)"/>
</markers>