<markers>
<marker lat="38.0" lon="-98.0" site="United States (United States)"/>
<marker lat="42.25" lon="-71.833" site="Massachusetts (Massachusetts, United States)"/>
<marker lat="35.5" lon="-80.0" site="North Carolina (North Carolina, United States)"/>
<marker lat="39.0" lon="-76.833" site="Maryland (Maryland, United States)"/>
<marker lat="34.0" lon="-80.0" site="South Carolina (South Carolina, United States)"/>
<marker lat="30.316" lon="-87.283" site="Fort Pickens (Florida, United States)"/>
<marker lat="39.316" lon="-77.733" site="Harper's Ferry (West Virginia, United States)"/>
<marker lat="53.0" lon="-2.0" site="England (United Kingdom)"/>
<marker lat="30.316" lon="-81.65" site="Jacksonville (Florida, United States)"/>
<marker lat="32.766" lon="-79.916" site="Charleston (South Carolina, United States)"/>
<marker lat="47.333" lon="13.333" site="Austria (Austria)"/>
<marker lat="37.316" lon="-77.266" site="City Point (Virginia, United States)"/>
<marker lat="37.4" lon="-79.133" site="Lynchburg (Virginia, United States)"/>
<marker lat="38.8" lon="-77.33" site="Alexandria (Virginia, United States)"/>
<marker lat="37.55" lon="-77.45" site="Richmond (Virginia, United States)"/>
<marker lat="40.5" lon="-80.716" site="Wheeling, W. Va. (West Virginia, United States)"/>
<marker lat="38.16" lon="-78.466" site="Charlottesville (Virginia, United States)"/>
<marker lat="56.0" lon="10.0" site="Denmark (Denmark)"/>
<marker lat="34.683" lon="-76.666" site="Fort Macon (North Carolina, United States)"/>
<marker lat="36.583" lon="-79.383" site="Danville (Virginia, United States)"/>
<marker lat="36.566" lon="-89.183" site="Hickman, Ky. (Kentucky, United States)"/>
<marker lat="41.7" lon="-71.15" site="Quiquechan River (Massachusetts, United States)"/>
<marker lat="33.0" lon="-87.0" site="Alabama (Alabama, United States)"/>
<marker lat="37.116" lon="-80.4" site="Christiansburg (Virginia, United States)"/>
<marker lat="35.1" lon="-77.33" site="New Bern (North Carolina, United States)"/>
<marker lat="30.666" lon="-81.45" site="Fernandina, Fla. (Florida, United States)"/>
<marker lat="41.566" lon="-77.233" site="Plank (Pennsylvania, United States)"/>
<marker lat="38.7" lon="-77.783" site="Warrenton (Virginia, United States)"/>
<marker lat="60.0" lon="-96.0" site="Canada (Canada)"/>
<marker lat="37.75" lon="-77.483" site="Hanover County (Virginia, United States)"/>
<marker lat="38.883" lon="-77.33" site="Washington (United States)"/>
<marker lat="34.716" lon="-76.733" site="Carolina City (North Carolina, United States)"/>
<marker lat="38.3" lon="-77.45" site="Fredericksburg, Va. (Virginia, United States)"/>
<marker lat="32.75" lon="-79.833" site="Sullivan's Island (South Carolina, United States)"/>
<marker lat="44.633" lon="-63.583" site="Halifax (Canada)"/>
<marker lat="43.9" lon="-69.816" site="Bath, Me. (Maine, United States)"/>
<marker lat="47.0" lon="20.0" site="Hungary (Hungary)"/>
<marker lat="33.466" lon="-82.16" site="Augusta (Georgia, United States)"/>
<marker lat="30.683" lon="-88.33" site="Mobile, Ala. (Alabama, United States)"/>
<marker lat="46.0" lon="2.0" site="France (France)"/>
<marker lat="37.483" lon="-79.866" site="Fincastle (Virginia, United States)"/>
<marker lat="42.833" lon="12.833" site="Italy (Italy)"/>
<marker lat="34.766" lon="-89.433" site="Holly Springs (Mississippi, United States)"/>
<marker lat="37.516" lon="-76.783" site="York (Virginia, United States)"/>
<marker lat="37.733" lon="-78.633" site="Howardsville (Virginia, United States)"/>
<marker lat="33.366" lon="-79.283" site="Georgetown, S. C. (South Carolina, United States)"/>
<marker lat="38.966" lon="-76.483" site="Annapolis (Maryland, United States)"/>
<marker lat="29.5" lon="-80.933" site="New Smyrna (Florida, United States)"/>
<marker lat="38.183" lon="15.55" site="Messana (Italy)"/>
<marker lat="38.916" lon="-78.183" site="Front Royal (Virginia, United States)"/>
<marker lat="39.283" lon="-76.6" site="Baltimore, Md. (Maryland, United States)"/>
<marker lat="32.7" lon="-79.883" site="Morris Island (South Carolina, United States)"/>
<marker lat="35.233" lon="-87.33" site="Giles (Tennessee, United States)"/>
<marker lat="44.0" lon="-85.0" site="Michigan (Michigan, United States)"/>
<marker lat="33.0" lon="-90.0" site="Mississippi (Mississippi, United States)"/>
<marker lat="37.3" lon="-78.383" site="Farmville (Virginia, United States)"/>
<marker lat="33.483" lon="-80.85" site="Orangeburg, S. C. (South Carolina, United States)"/>
<marker lat="30.366" lon="-86.916" site="Santa Rosa Island (Florida, United States)"/>
<marker lat="37.233" lon="-78.916" site="Spring Mills (Virginia, United States)"/>
<marker lat="32.5" lon="-91.33" site="Australia Island (Louisiana, United States)"/>
<marker lat="39.266" lon="-81.55" site="Parkersburg (West Virginia, United States)"/>
<marker lat="37.75" lon="-77.466" site="Ashland (Virginia, United States)"/>
<marker lat="38.216" lon="-80.516" site="Cherry River (West Virginia, United States)"/>
<marker lat="36.833" lon="-76.283" site="Norfolk (Virginia, United States)"/>
<marker lat="40.233" lon="-80.33" site="Venetia (Pennsylvania, United States)"/>
<marker lat="39.333" lon="-80.16" site="Grafton, W. Va. (West Virginia, United States)"/>
<marker lat="37.233" lon="-76.5" site="Yorktown (Virginia, United States)"/>
<marker lat="34.25" lon="-85.15" site="Rome, Ga. (Georgia, United States)"/>
<marker lat="40.1" lon="-96.15" site="Pawnee City (Nebraska, United States)"/>
<marker lat="37.316" lon="-80.733" site="Pearisburg (Virginia, United States)"/>
<marker lat="35.0" lon="-83.833" site="Shewbird (North Carolina, United States)"/>
<marker lat="18.233" lon="-66.55" site="Porto Rico"/>
<marker lat="37.783" lon="-78.483" site="Scottsville (Virginia, United States)"/>
<marker lat="36.2" lon="-88.483" site="Tumbling Creek (Tennessee, United States)"/>
<marker lat="40.533" lon="-89.55" site="Tazewell (Illinois, United States)"/>
<marker lat="37.516" lon="-77.383" site="Rocketts (Virginia, United States)"/>
<marker lat="40.616" lon="-80.116" site="Westmoreland County (Pennsylvania, United States)"/>
<marker lat="38.266" lon="-77.15" site="King George county (Virginia, United States)"/>
<marker lat="43.7" lon="-79.416" site="York (Canada)"/>
<marker lat="38.666" lon="-98.0" site="Kansas (Kansas, United States)"/>
<marker lat="32.0" lon="-84.0" site="Georgia (Georgia, United States)"/>
<marker lat="38.866" lon="-78.1" site="Rappahannock (Virginia, United States)"/>
<marker lat="39.0" lon="-75.666" site="Delaware (Delaware, United States)"/>
<marker lat="32.83" lon="-81.1" site="Savannah (Georgia, United States)"/>
<marker lat="34.733" lon="-92.283" site="Little Rock (Arkansas, United States)"/>
<marker lat="35.0" lon="105.0" site="China (China)"/>
<marker lat="36.516" lon="-83.216" site="Sneedsville (Tennessee, United States)"/>
<marker lat="39.483" lon="-80.133" site="Palatine (West Virginia, United States)"/>
<marker lat="31.833" lon="-81.5" site="Liberty county, Ga. (Georgia, United States)"/>
<marker lat="41.666" lon="-71.5" site="Rhode Island (Rhode Island, United States)"/>
<marker lat="40.833" lon="-76.0" site="Pennsylvania (Pennsylvania, United States)"/>
<marker lat="36.933" lon="-79.183" site="Mount Airy (Virginia, United States)"/>
<marker lat="42.266" lon="-70.866" site="White Head (Massachusetts, United States)"/>
<marker lat="40.433" lon="-79.983" site="Pittsburgh (Pennsylvania, United States)"/>
<marker lat="40.216" lon="-74.733" site="Chambersburg (New Jersey, United States)"/>
<marker lat="38.16" lon="-78.0" site="Louisa Court House (Virginia, United States)"/>
<marker lat="32.283" lon="-90.183" site="Jackson (Mississippi, United States)"/>
<marker lat="39.516" lon="-77.916" site="Hainesville (West Virginia, United States)"/>
<marker lat="55.716" lon="12.566" site="Copenhagen (Denmark)"/>
<marker lat="37.0" lon="-119.0" site="California (California, United States)"/>
<marker lat="32.516" lon="-93.75" site="Shreveport (Louisiana, United States)"/>
<marker lat="35.5" lon="-85.0" site="Tennessee (Tennessee, United States)"/>
<marker lat="39.833" lon="-80.7" site="Rosbys Rock (West Virginia, United States)"/>
<marker lat="39.5" lon="-78.366" site="Lebanon Church (Virginia, United States)"/>
<marker lat="15.0" lon="-86.5" site="Honduras (Honduras)"/>
<marker lat="36.45" lon="-83.566" site="Tazewell, Tenn. (Tennessee, United States)"/>
<marker lat="39.2" lon="-80.4" site="West Milford (West Virginia, United States)"/>
<marker lat="37.33" lon="-89.183" site="Cairo, Ill. (Illinois, United States)"/>
<marker lat="36.166" lon="-86.75" site="Edgefield (Tennessee, United States)"/>
<marker lat="51.5" lon="10.5" site="Germany (Germany)"/>
<marker lat="37.383" lon="-77.6" site="Chesterfield (Virginia, United States)"/>
<marker lat="37.0" lon="-80.0" site="Virginia (Virginia, United States)"/>
<marker lat="39.45" lon="-77.95" site="Martinsburg (West Virginia, United States)"/>
<marker lat="33.716" lon="-112.5" site="Union Hills (Arizona, United States)"/>
<marker lat="19.416" lon="-99.166" site="Mexico (Mexico, Mexico)"/>
<marker lat="40.366" lon="-80.5" site="Washington county (Pennsylvania, United States)"/>
<marker lat="31.883" lon="-85.45" site="Barbour (Alabama, United States)"/>
<marker lat="39.6" lon="-77.7" site="Funkstown (Maryland, United States)"/>
<marker lat="41.483" lon="-81.683" site="Cleveland (Ohio, United States)"/>
<marker lat="36.816" lon="-79.4" site="Pittsylvania (Virginia, United States)"/>
<marker lat="38.666" lon="-78.15" site="Rappahannock (Virginia, United States)"/>
<marker lat="38.966" lon="-80.516" site="Lewis County (West Virginia, United States)"/>
<marker lat="37.616" lon="-79.25" site="Amherst county (Virginia, United States)"/>
</markers>