<markers>
<marker lat="32.8" lon="35.533" site="Tiberias (Israel)"/>
<marker lat="31.766" lon="35.233" site="Jerusalem (Israel)"/>
<marker lat="32.9" lon="35.333" site="Galilee (Israel)"/>
<marker lat="32.733" lon="35.283" site="Sepphoris (Israel)"/>
<marker lat="33.16" lon="35.45" site="Gischala (Israel)"/>
<marker lat="41.9" lon="12.4833" site="Rome (Italy)"/>
<marker lat="35.0" lon="38.0" site="Syria (Syria)"/>
<marker lat="32.916" lon="35.66" site="Ptolemais (Israel)"/>
<marker lat="34.766" lon="48.583" site="Ecbatana (Iran)"/>
<marker lat="39.75" lon="-117.766" site="Bernice (Nevada, United States)"/>
<marker lat="32.5" lon="35.5" site="Scythopolis (Israel)"/>
<marker lat="31.75" lon="35.583" site="Jordan"/>
<marker lat="32.5" lon="34.883" site="Caesarea (Israel)"/>
<marker lat="33.883" lon="35.5" site="Berytus (Lebanon)"/>
<marker lat="31.2" lon="29.9" site="Alexandria (Egypt)"/>
<marker lat="32.683" lon="35.4" site="Mount Tabor (Israel)"/>
<marker lat="32.7" lon="20.916" site="Ptolemais (Libya)"/>
<marker lat="32.833" lon="21.866" site="Cyrene (Libya)"/>
<marker lat="36.183" lon="44.16" site="Arbela (Iraq)"/>
<marker lat="33.266" lon="35.183" site="Tyre (Lebanon)"/>
<marker lat="43.0" lon="16.0" site="Adriatic Sea"/>
<marker lat="33.5" lon="36.316" site="Damascus (Syria)"/>
<marker lat="48.6" lon="21.333" site="Cana (Slovakia)"/>
<marker lat="35.166" lon="25.0" site="Crete (Greece)"/>
<marker lat="36.6" lon="2.183" site="Caesarea (Algeria)"/>
<marker lat="32.55" lon="44.4" site="Babylon (Iraq)"/>
<marker lat="32.883" lon="35.566" site="Capernaum (Israel)"/>
<marker lat="32.616" lon="34.916" site="Dora (Israel)"/>
<marker lat="44.933" lon="-93.83" site="St. Paul (Minnesota, United States)"/>
<marker lat="40.8167" lon="14.1167" site="Puteoli (Italy)"/>
<marker lat="-26.116" lon="28.1" site="Alexandra (South Africa)"/>
</markers>