<markers>
<marker lat="38.0" lon="-98.0" site="United States (United States)"/>
<marker lat="36.533" lon="-82.55" site="Kingsport (Tennessee, United States)"/>
<marker lat="53.0" lon="-2.0" site="England (United Kingdom)"/>
<marker lat="34.9" lon="-85.1" site="Ringgold, Ga. (Georgia, United States)"/>
<marker lat="35.5" lon="-85.0" site="Tennessee (Tennessee, United States)"/>
<marker lat="33.733" lon="-84.383" site="Atlanta (Georgia, United States)"/>
<marker lat="32.0" lon="-84.0" site="Georgia (Georgia, United States)"/>
<marker lat="46.0" lon="2.0" site="France (France)"/>
<marker lat="34.25" lon="-85.15" site="Rome, Ga. (Georgia, United States)"/>
<marker lat="60.0" lon="-96.0" site="Canada (Canada)"/>
<marker lat="34.766" lon="-84.966" site="Dalton, Ga. (Georgia, United States)"/>
<marker lat="36.466" lon="-89.466" site="Island Number Ten (Missouri, United States)"/>
<marker lat="37.0" lon="-80.0" site="Virginia (Virginia, United States)"/>
<marker lat="36.466" lon="-82.25" site="Zollicoffer (Tennessee, United States)"/>
<marker lat="36.733" lon="-77.1" site="Southampton county (Virginia, United States)"/>
<marker lat="33.95" lon="-84.55" site="Marietta (Georgia, United States)"/>
<marker lat="43.0" lon="-75.0" site="New York State (New York, United States)"/>
<marker lat="38.433" lon="-77.9" site="Stevensburg (Virginia, United States)"/>
<marker lat="33.0" lon="-87.0" site="Alabama (Alabama, United States)"/>
<marker lat="37.366" lon="-77.5" site="Chesterfield (Virginia, United States)"/>
<marker lat="37.75" lon="-77.466" site="Ashland (Virginia, United States)"/>
<marker lat="38.233" lon="-78.1" site="Orange Court House (Virginia, United States)"/>
<marker lat="35.266" lon="-92.366" site="Pea Vine Creek (Arkansas, United States)"/>
<marker lat="60.0" lon="47.0" site="Russia (Russia)"/>
<marker lat="40.616" lon="-80.116" site="Westmoreland County (Pennsylvania, United States)"/>
<marker lat="44.983" lon="-73.35" site="Rouse's Point (New York, United States)"/>
<marker lat="34.0" lon="-80.0" site="South Carolina (South Carolina, United States)"/>
<marker lat="35.0" lon="-93.0" site="Arkansas (Arkansas, United States)"/>
<marker lat="48.383" lon="-4.5" site="Brest (France)"/>
<marker lat="45.5" lon="-73.6" site="Montreal (Canada)"/>
<marker lat="34.983" lon="-85.333" site="Lookout Mountain, Tenn. (Tennessee, United States)"/>
<marker lat="37.383" lon="-77.6" site="Chesterfield (Virginia, United States)"/>
<marker lat="35.216" lon="-80.833" site="Charlotte (North Carolina, United States)"/>
<marker lat="37.733" lon="-77.916" site="Goochland (Virginia, United States)"/>
<marker lat="36.75" lon="-78.933" site="Halifax county (Virginia, United States)"/>
<marker lat="36.816" lon="-79.4" site="Pittsylvania (Virginia, United States)"/>
<marker lat="37.566" lon="-79.783" site="Botetourt (Virginia, United States)"/>
</markers>