<markers>
<marker lat="38.0" lon="-98.0" site="United States (United States)"/>
<marker lat="33.733" lon="-84.383" site="Atlanta (Georgia, United States)"/>
<marker lat="32.0" lon="-84.0" site="Georgia (Georgia, United States)"/>
<marker lat="37.416" lon="-77.45" site="Drewry's Bluff (Virginia, United States)"/>
<marker lat="34.5" lon="-87.716" site="Russellville (Alabama, United States)"/>
<marker lat="53.5" lon="-2.216" site="Manchester (United Kingdom)"/>
<marker lat="34.85" lon="-82.383" site="Greenville (South Carolina, United States)"/>
<marker lat="37.116" lon="-80.4" site="Christiansburg (Virginia, United States)"/>
<marker lat="38.233" lon="-78.1" site="Orange Court House (Virginia, United States)"/>
<marker lat="34.25" lon="-85.15" site="Rome, Ga. (Georgia, United States)"/>
<marker lat="38.7" lon="-77.783" site="Warrenton (Virginia, United States)"/>
<marker lat="51.433" lon="0.766" site="Sheerness (United Kingdom)"/>
<marker lat="37.283" lon="-80.5" site="Roanoke County (Virginia, United States)"/>
<marker lat="35.0" lon="-98.0" site="Oklahoma (Oklahoma, United States)"/>
<marker lat="37.216" lon="-77.4" site="Petersburg, Va. (Virginia, United States)"/>
<marker lat="34.0" lon="-80.0" site="South Carolina (South Carolina, United States)"/>
<marker lat="37.55" lon="-77.45" site="Richmond (Virginia, United States)"/>
<marker lat="35.5" lon="-85.0" site="Tennessee (Tennessee, United States)"/>
<marker lat="44.316" lon="-93.95" site="St. Peter (Minnesota, United States)"/>
<marker lat="37.95" lon="-76.95" site="Essex County (Virginia, United States)"/>
<marker lat="32.7" lon="-79.933" site="Secessionville (South Carolina, United States)"/>
<marker lat="34.0" lon="-81.33" site="Columbia (South Carolina, United States)"/>
<marker lat="37.0" lon="-80.0" site="Virginia (Virginia, United States)"/>
<marker lat="34.65" lon="-80.166" site="Chesterfield (South Carolina, United States)"/>
<marker lat="36.583" lon="-79.383" site="Danville (Virginia, United States)"/>
<marker lat="42.833" lon="12.833" site="Italy (Italy)"/>
<marker lat="50.716" lon="1.616" site="Boulogne (France)"/>
<marker lat="38.166" lon="-79.116" site="Augusta county (Virginia, United States)"/>
<marker lat="37.35" lon="-78.16" site="Amelia (Virginia, United States)"/>
</markers>