<markers>
<marker lat="41.816" lon="-71.4" site="Providence, R. I. (Rhode Island, United States)"/>
<marker lat="38.583" lon="-28.7" site="Fayal (Portugal)"/>
<marker lat="37.766" lon="-91.0" site="Quaker (Missouri, United States)"/>
<marker lat="38.666" lon="-98.0" site="Kansas (Kansas, United States)"/>
<marker lat="34.0" lon="-80.0" site="South Carolina (South Carolina, United States)"/>
<marker lat="42.6" lon="-70.65" site="Glocester (Massachusetts, United States)"/>
<marker lat="30.383" lon="-88.883" site="Biloxi (Mississippi, United States)"/>
<marker lat="46.16" lon="-83.816" site="Surveyors Island (Michigan, United States)"/>
<marker lat="46.483" lon="-84.6" site="St. Marys Strait (Michigan, United States)"/>
<marker lat="41.483" lon="-71.3" site="Newport (Rhode Island, United States)"/>
<marker lat="41.666" lon="-71.5" site="Rhode Island (Rhode Island, United States)"/>
<marker lat="41.433" lon="-71.35" site="Brenton's Point (Rhode Island, United States)"/>
<marker lat="35.533" lon="-96.216" site="Oriental (Oklahoma, United States)"/>
<marker lat="51.883" lon="-2.233" site="Gloucester (United Kingdom)"/>
<marker lat="42.25" lon="-71.833" site="Massachusetts (Massachusetts, United States)"/>
<marker lat="45.0" lon="-69.0" site="Maine (Maine, United States)"/>
<marker lat="41.5" lon="-100.0" site="Nebraska (Nebraska, United States)"/>
<marker lat="42.483" lon="-71.0" site="Walden Pond (Massachusetts, United States)"/>
<marker lat="33.0" lon="-87.0" site="Alabama (Alabama, United States)"/>
<marker lat="36.35" lon="-85.733" site="Rough Point (Tennessee, United States)"/>
<marker lat="39.15" lon="-82.483" site="Puritan (Ohio, United States)"/>
<marker lat="41.45" lon="-71.45" site="Narragansett (Rhode Island, United States)"/>
<marker lat="41.616" lon="-71.2" site="Tiverton (Rhode Island, United States)"/>
<marker lat="41.283" lon="-70.83" site="Nantucket (Massachusetts, United States)"/>
<marker lat="34.25" lon="-85.15" site="Rome, Ga. (Georgia, United States)"/>
<marker lat="36.833" lon="-76.283" site="Portsmouth, Va. (Virginia, United States)"/>
<marker lat="44.1" lon="-69.1" site="Rockland, Me. (Maine, United States)"/>
<marker lat="44.866" lon="-68.666" site="Orono, Maine (Maine, United States)"/>
<marker lat="19.0" lon="-72.0" site="Hispaniola"/>
<marker lat="46.33" lon="-107.85" site="Randalls Island (Montana, United States)"/>
<marker lat="38.0" lon="-98.0" site="United States (United States)"/>
<marker lat="41.483" lon="-71.333" site="Rose Island (Rhode Island, United States)"/>
<marker lat="57.0" lon="-4.0" site="Scotland (United Kingdom)"/>
<marker lat="40.0" lon="-89.0" site="Illinois (Illinois, United States)"/>
<marker lat="47.5" lon="8.283" site="Lucerna (Switzerland)"/>
<marker lat="36.0" lon="138.0" site="Japan (Japan)"/>
<marker lat="35.0" lon="105.0" site="China (China)"/>
<marker lat="35.0" lon="38.0" site="Syria (Syria)"/>
<marker lat="9.5" lon="2.25" site="Benin (Benin)"/>
<marker lat="40.833" lon="-76.0" site="Pennsylvania (Pennsylvania, United States)"/>
<marker lat="43.183" lon="-84.6" site="Pompeii (Michigan, United States)"/>
<marker lat="40.0" lon="45.0" site="Armenia (Armenia)"/>
<marker lat="37.0" lon="-119.0" site="California (California, United States)"/>
<marker lat="42.5" lon="-96.4" site="Sioux City (Iowa, United States)"/>
<marker lat="41.666" lon="-74.866" site="Lake Superior (New York, United States)"/>
<marker lat="41.466" lon="-71.333" site="Brenton Cove (Rhode Island, United States)"/>
<marker lat="35.5" lon="-85.0" site="Tennessee (Tennessee, United States)"/>
<marker lat="45.5" lon="-73.6" site="Montreal (Canada)"/>
<marker lat="45.9" lon="-68.916" site="Mount Katahdin (Maine, United States)"/>
<marker lat="43.75" lon="-73.75" site="Adirondack (New York, United States)"/>
<marker lat="42.666" lon="-70.633" site="Pigeon Cove (Massachusetts, United States)"/>
<marker lat="39.716" lon="-77.816" site="Nova (Pennsylvania, United States)"/>
<marker lat="42.25" lon="-71.8" site="Worcester (Massachusetts, United States)"/>
<marker lat="41.6" lon="-71.316" site="Narragansett Bay (Rhode Island, United States)"/>
<marker lat="10.0" lon="-80.0" site="Central America"/>
<marker lat="41.5" lon="-71.316" site="Coaster's Harbor (Rhode Island, United States)"/>
<marker lat="42.633" lon="-70.633" site="Cape Ann (Massachusetts, United States)"/>
<marker lat="46.0" lon="2.0" site="France (France)"/>
<marker lat="39.0" lon="22.0" site="Greece (Greece)"/>
<marker lat="41.35" lon="-71.466" site="Point Judith (Rhode Island, United States)"/>
<marker lat="48.866" lon="2.333" site="Department de Ville de Paris (France)"/>
<marker lat="42.833" lon="12.833" site="Italy (Italy)"/>
<marker lat="41.45" lon="-71.35" site="Graves Point (Rhode Island, United States)"/>
</markers>