<markers>
<marker lat="33.733" lon="-84.383" site="Atlanta (Georgia, United States)"/>
<marker lat="37.55" lon="-77.366" site="Henrico (Virginia, United States)"/>
<marker lat="39.0" lon="-76.833" site="Maryland (Maryland, United States)"/>
<marker lat="38.0" lon="-98.0" site="Missouri (Missouri, United States)"/>
<marker lat="38.0" lon="-98.0" site="United States (United States)"/>
<marker lat="32.0" lon="-84.0" site="Georgia (Georgia, United States)"/>
<marker lat="35.5" lon="-85.0" site="Tennessee (Tennessee, United States)"/>
<marker lat="49.633" lon="-1.616" site="Cherbourg (France)"/>
<marker lat="32.866" lon="-85.183" site="West Point (Georgia, United States)"/>
<marker lat="37.4" lon="-78.816" site="Appomattox (Virginia, United States)"/>
<marker lat="36.283" lon="-83.833" site="Union, Tenn. (Tennessee, United States)"/>
<marker lat="43.5" lon="-77.6" site="Henrietta (New York, United States)"/>
<marker lat="33.95" lon="-84.55" site="Marietta (Georgia, United States)"/>
<marker lat="33.0" lon="-90.0" site="Mississippi (Mississippi, United States)"/>
<marker lat="32.466" lon="-84.983" site="Chattahoochee River, Ga. (Georgia, United States)"/>
<marker lat="33.0" lon="-87.0" site="Alabama (Alabama, United States)"/>
<marker lat="38.416" lon="-77.4" site="Stafford Court House (Virginia, United States)"/>
<marker lat="48.8" lon="2.133" site="Versailles (France)"/>
<marker lat="49.5" lon="0.1" site="Havre (France)"/>
<marker lat="37.3" lon="-77.15" site="Westover (Virginia, United States)"/>
<marker lat="31.716" lon="-91.5" site="Jefferson (Mississippi, United States)"/>
<marker lat="37.683" lon="-77.83" site="King William County (Virginia, United States)"/>
<marker lat="40.0" lon="-89.0" site="Illinois (Illinois, United States)"/>
<marker lat="38.316" lon="-78.166" site="Twymans Mill (Virginia, United States)"/>
<marker lat="30.566" lon="-81.683" site="Nassau River (Florida, United States)"/>
<marker lat="41.166" lon="-84.733" site="Antwerp, Paulding County, Ohio (Ohio, United States)"/>
<marker lat="51.383" lon="0.533" site="Chatham (United Kingdom)"/>
<marker lat="37.55" lon="-77.45" site="Richmond (Virginia, United States)"/>
<marker lat="37.816" lon="-81.45" site="Peachtree Ridge (West Virginia, United States)"/>
<marker lat="50.833" lon="4.333" site="Brussels (Belgium)"/>
<marker lat="52.483" lon="-8.416" site="Hospital (Irish Republic)"/>
<marker lat="51.5" lon="10.5" site="Germany (Germany)"/>
<marker lat="46.0" lon="2.0" site="France (France)"/>
<marker lat="37.8" lon="-79.433" site="Rockbridge (Virginia, United States)"/>
<marker lat="39.116" lon="-77.966" site="Clarke (Virginia, United States)"/>
<marker lat="42.25" lon="-77.416" site="Oregon Hill (New York, United States)"/>
</markers>