<markers>
<marker lat="38.0" lon="-98.0" site="United States (United States)"/>
<marker lat="36.583" lon="-79.383" site="Danville (Virginia, United States)"/>
<marker lat="35.5" lon="-85.0" site="Tennessee (Tennessee, United States)"/>
<marker lat="39.0" lon="-76.833" site="Maryland (Maryland, United States)"/>
<marker lat="38.0" lon="-98.0" site="Missouri (Missouri, United States)"/>
<marker lat="32.0" lon="-84.0" site="Georgia (Georgia, United States)"/>
<marker lat="35.5" lon="-80.0" site="North Carolina (North Carolina, United States)"/>
<marker lat="40.833" lon="-76.0" site="Pennsylvania (Pennsylvania, United States)"/>
<marker lat="39.316" lon="-77.733" site="Harper's Ferry (West Virginia, United States)"/>
<marker lat="39.0" lon="-80.0" site="West Virginia (West Virginia, United States)"/>
<marker lat="42.833" lon="12.833" site="Italy (Italy)"/>
<marker lat="35.25" lon="-88.983" site="Bolivar, Tenn. (Tennessee, United States)"/>
<marker lat="36.733" lon="-77.1" site="Southampton county (Virginia, United States)"/>
<marker lat="42.116" lon="-80.83" site="Erie (Pennsylvania, United States)"/>
<marker lat="40.0" lon="-89.0" site="Illinois (Illinois, United States)"/>
<marker lat="37.75" lon="-77.483" site="Hanover County (Virginia, United States)"/>
<marker lat="35.0" lon="-93.0" site="Arkansas (Arkansas, United States)"/>
<marker lat="30.316" lon="-81.65" site="Jacksonville (Florida, United States)"/>
<marker lat="36.716" lon="-76.583" site="Suffolk, Va. (Virginia, United States)"/>
<marker lat="37.583" lon="-81.316" site="Guyandotte (West Virginia, United States)"/>
<marker lat="37.75" lon="-77.366" site="Hanover Court House (Virginia, United States)"/>
<marker lat="34.433" lon="-89.9" site="Danville (Mississippi, United States)"/>
<marker lat="34.716" lon="-88.95" site="Ripley (Mississippi, United States)"/>
<marker lat="39.366" lon="-79.16" site="New Creek (West Virginia, United States)"/>
<marker lat="38.616" lon="-78.316" site="Hazel River (Virginia, United States)"/>
<marker lat="42.4" lon="-71.116" site="College Hill (Massachusetts, United States)"/>
<marker lat="37.316" lon="-79.15" site="Flat Creek (Virginia, United States)"/>
<marker lat="26.4" lon="-99.0" site="Roma-Los Saenz (Texas, United States)"/>
<marker lat="38.916" lon="-78.183" site="Front Royal (Virginia, United States)"/>
<marker lat="38.166" lon="-78.216" site="South Anna (Virginia, United States)"/>
<marker lat="42.25" lon="-71.833" site="Massachusetts (Massachusetts, United States)"/>
<marker lat="35.45" lon="-84.233" site="Monroe County (Tennessee, United States)"/>
<marker lat="44.0" lon="-85.0" site="Michigan (Michigan, United States)"/>
<marker lat="40.7" lon="-74.0" site="New York (New York, United States)"/>
<marker lat="43.0" lon="-75.0" site="New York State (New York, United States)"/>
<marker lat="37.716" lon="-76.916" site="Stevensville, Virginia (Virginia, United States)"/>
<marker lat="39.55" lon="-77.966" site="North Mountain (West Virginia, United States)"/>
<marker lat="38.2" lon="-78.883" site="Piedmont, Va. (Virginia, United States)"/>
<marker lat="33.0" lon="-87.0" site="Alabama (Alabama, United States)"/>
<marker lat="38.85" lon="-77.35" site="Fairfax (Virginia, United States)"/>
<marker lat="37.75" lon="-77.466" site="Ashland (Virginia, United States)"/>
<marker lat="36.983" lon="-89.133" site="Ohio (United States)"/>
<marker lat="38.733" lon="-93.3" site="Pettis County (Missouri, United States)"/>
<marker lat="34.25" lon="-85.15" site="Rome, Ga. (Georgia, United States)"/>
<marker lat="38.716" lon="-82.983" site="Portsmouth, Ohio (Ohio, United States)"/>
<marker lat="53.7" lon="-2.666" site="Lancaster (United Kingdom)"/>
<marker lat="37.25" lon="-85.483" site="Greensburg (Kentucky, United States)"/>
<marker lat="38.7" lon="-77.783" site="Warrenton (Virginia, United States)"/>
<marker lat="37.516" lon="-76.783" site="West Point (Virginia, United States)"/>
<marker lat="36.483" lon="-87.85" site="Fort Donelson (Tennessee, United States)"/>
<marker lat="41.366" lon="-74.7" site="Matamoras (Pennsylvania, United States)"/>
<marker lat="53.0" lon="-2.0" site="England (United Kingdom)"/>
<marker lat="38.3" lon="-83.166" site="Olive Hill (Kentucky, United States)"/>
<marker lat="39.616" lon="-91.366" site="Salt River, Mo. (Missouri, United States)"/>
<marker lat="38.833" lon="-82.2" site="Hanersville (Ohio, United States)"/>
<marker lat="31.0" lon="-92.0" site="Louisiana (Louisiana, United States)"/>
<marker lat="35.5" lon="-78.866" site="Cumberland county (North Carolina, United States)"/>
<marker lat="40.0" lon="-86.0" site="Indiana (Indiana, United States)"/>
<marker lat="33.666" lon="-84.433" site="South River, Ga. (Georgia, United States)"/>
<marker lat="60.0" lon="-96.0" site="Canada (Canada)"/>
<marker lat="34.0" lon="-80.0" site="South Carolina (South Carolina, United States)"/>
<marker lat="37.55" lon="-77.45" site="Richmond (Virginia, United States)"/>
<marker lat="38.483" lon="-76.983" site="Charles county (Maryland, United States)"/>
<marker lat="36.433" lon="-76.7" site="Gates county (North Carolina, United States)"/>
<marker lat="39.0" lon="-105.0" site="Colorado (Colorado, United States)"/>
<marker lat="35.75" lon="-88.983" site="Cypress Creek (Tennessee, United States)"/>
<marker lat="38.9" lon="-77.25" site="Vienna (Virginia, United States)"/>
<marker lat="44.0" lon="-73.0" site="Vermont (Vermont, United States)"/>
<marker lat="37.116" lon="-77.216" site="Disputanta (Virginia, United States)"/>
<marker lat="33.55" lon="-81.716" site="Plunkett (South Carolina, United States)"/>
<marker lat="37.66" lon="-77.633" site="Dinwiddie (Virginia, United States)"/>
<marker lat="51.2" lon="-0.5" site="Surrey (United Kingdom)"/>
<marker lat="38.3" lon="-76.616" site="St. Marys county (Maryland, United States)"/>
<marker lat="41.75" lon="-72.683" site="Hartford (Connecticut, United States)"/>
<marker lat="32.45" lon="-84.983" site="Columbus (Georgia, United States)"/>
<marker lat="40.5" lon="-80.716" site="Wheeling, W. Va. (West Virginia, United States)"/>
<marker lat="45.0" lon="-90.0" site="Wisconsin (Wisconsin, United States)"/>
<marker lat="37.0" lon="-80.0" site="Virginia (Virginia, United States)"/>
<marker lat="32.566" lon="-89.333" site="Sebastapol (Mississippi, United States)"/>
<marker lat="38.33" lon="-77.35" site="Caroline (Virginia, United States)"/>
<marker lat="39.45" lon="-77.95" site="Martinsburg (West Virginia, United States)"/>
<marker lat="36.583" lon="-83.666" site="Cumberland Gap (Tennessee, United States)"/>
<marker lat="42.25" lon="-71.116" site="Hyde Park, Mass. (Massachusetts, United States)"/>
<marker lat="35.216" lon="-80.833" site="Charlotte (North Carolina, United States)"/>
<marker lat="37.8" lon="-85.466" site="Bardstown (Kentucky, United States)"/>
<marker lat="46.0" lon="2.0" site="France (France)"/>
<marker lat="38.5" lon="-77.966" site="Culpeper (Virginia, United States)"/>
<marker lat="37.566" lon="-77.916" site="Powhatan (Virginia, United States)"/>
<marker lat="38.333" lon="-81.566" site="Kanawha (West Virginia, United States)"/>
</markers>