<markers>
<marker lat="39.316" lon="-77.733" site="Harper's Ferry (West Virginia, United States)"/>
<marker lat="39.45" lon="-77.733" site="Sharpsburg (Maryland, United States)"/>
<marker lat="39.0" lon="-76.833" site="Maryland (Maryland, United States)"/>
<marker lat="39.633" lon="-77.716" site="Hagerstown (Maryland, United States)"/>
<marker lat="36.583" lon="-79.383" site="Danville (Virginia, United States)"/>
<marker lat="39.5" lon="-77.65" site="Boonsboro (Maryland, United States)"/>
<marker lat="38.0" lon="-98.0" site="United States (United States)"/>
<marker lat="34.25" lon="-85.15" site="Rome, Ga. (Georgia, United States)"/>
<marker lat="37.55" lon="-77.366" site="Henrico (Virginia, United States)"/>
<marker lat="53.0" lon="-2.0" site="England (United Kingdom)"/>
<marker lat="40.833" lon="-76.0" site="Pennsylvania (Pennsylvania, United States)"/>
<marker lat="39.333" lon="-77.716" site="Maryland Heights (Maryland, United States)"/>
<marker lat="39.3" lon="-77.716" site="Loudoun Heights (Virginia, United States)"/>
<marker lat="46.0" lon="2.0" site="France (France)"/>
<marker lat="42.833" lon="12.833" site="Italy (Italy)"/>
<marker lat="38.183" lon="-77.65" site="Spotsylvania county (Virginia, United States)"/>
<marker lat="35.5" lon="-80.0" site="North Carolina (North Carolina, United States)"/>
<marker lat="39.383" lon="-84.55" site="Fort Hamilton (Ohio, United States)"/>
<marker lat="36.583" lon="-83.666" site="Cumberland Gap (Tennessee, United States)"/>
<marker lat="39.55" lon="-77.55" site="Catoctin Creek (Maryland, United States)"/>
<marker lat="40.15" lon="-80.933" site="Shepherdstown (Ohio, United States)"/>
<marker lat="39.583" lon="-75.566" site="Fort Delaware (Delaware, United States)"/>
<marker lat="39.716" lon="-77.6" site="Antietam Creek (United States)"/>
<marker lat="36.733" lon="-77.1" site="Southampton county (Virginia, United States)"/>
<marker lat="35.366" lon="-93.766" site="Roseville (Arkansas, United States)"/>
<marker lat="39.4" lon="-81.45" site="Campus Martius (Ohio, United States)"/>
<marker lat="36.15" lon="-82.816" site="Greenville, Tenn. (Tennessee, United States)"/>
<marker lat="42.25" lon="-71.833" site="Massachusetts (Massachusetts, United States)"/>
<marker lat="38.0" lon="-98.0" site="Missouri (Missouri, United States)"/>
<marker lat="39.15" lon="-82.483" site="Puritan (Ohio, United States)"/>
<marker lat="30.666" lon="-91.266" site="Port Hudson (Louisiana, United States)"/>
<marker lat="36.966" lon="-76.35" site="Hampton Roads (Virginia, United States)"/>
<marker lat="39.616" lon="-85.9" site="London Heights (Indiana, United States)"/>
<marker lat="41.83" lon="-89.85" site="Toulon (Illinois, United States)"/>
<marker lat="36.983" lon="-89.133" site="Ohio (United States)"/>
<marker lat="38.816" lon="-77.516" site="Bull Run, Va. (Virginia, United States)"/>
<marker lat="37.516" lon="-76.783" site="West Point (Virginia, United States)"/>
<marker lat="30.516" lon="-88.983" site="Camp Hill (Mississippi, United States)"/>
<marker lat="36.483" lon="-87.85" site="Fort Donelson (Tennessee, United States)"/>
<marker lat="37.516" lon="-77.383" site="Rocketts (Virginia, United States)"/>
<marker lat="39.483" lon="-77.7" site="Keedysville (Maryland, United States)"/>
<marker lat="38.516" lon="-77.6" site="Aquia Creek (Virginia, United States)"/>
<marker lat="40.283" lon="-75.866" site="Gibraltar (Pennsylvania, United States)"/>
<marker lat="40.616" lon="-80.116" site="Westmoreland County (Pennsylvania, United States)"/>
<marker lat="38.833" lon="-82.2" site="Hanersville (Ohio, United States)"/>
<marker lat="38.8" lon="-77.33" site="Alexandria (Virginia, United States)"/>
<marker lat="36.15" lon="-76.65" site="Chowan (North Carolina, United States)"/>
<marker lat="39.933" lon="-77.65" site="Chambersburg, Pa. (Pennsylvania, United States)"/>
<marker lat="37.316" lon="-78.283" site="Jamestown (Virginia) (Virginia, United States)"/>
<marker lat="38.933" lon="-81.75" site="Ravenswood (West Virginia, United States)"/>
<marker lat="40.0" lon="-80.833" site="Ohio (Ohio, United States)"/>
<marker lat="35.0" lon="-93.0" site="Arkansas (Arkansas, United States)"/>
<marker lat="37.55" lon="-77.45" site="Richmond (Virginia, United States)"/>
<marker lat="38.833" lon="-76.85" site="Prince Georges (Maryland, United States)"/>
<marker lat="36.383" lon="-79.95" site="Madison, N. C. (North Carolina, United States)"/>
<marker lat="36.433" lon="-76.7" site="Gates county (North Carolina, United States)"/>
<marker lat="44.0" lon="-4.0" site="Mare Cantabricum"/>
<marker lat="34.183" lon="-79.75" site="Florence, S. C. (South Carolina, United States)"/>
<marker lat="35.5" lon="-85.0" site="Tennessee (Tennessee, United States)"/>
<marker lat="38.733" lon="-77.816" site="Fauquier (Virginia, United States)"/>
<marker lat="41.383" lon="-84.116" site="Napoleon (Ohio, United States)"/>
<marker lat="39.4" lon="-77.4" site="Frederick, Md. (Maryland, United States)"/>
<marker lat="37.16" lon="-78.883" site="Patrick Henry (Virginia, United States)"/>
<marker lat="36.716" lon="-76.583" site="Suffolk, Va. (Virginia, United States)"/>
<marker lat="39.83" lon="-77.65" site="Loudoun (Virginia, United States)"/>
<marker lat="38.7" lon="-77.483" site="Prince William (Virginia, United States)"/>
<marker lat="37.383" lon="-77.6" site="Chesterfield (Virginia, United States)"/>
<marker lat="37.416" lon="-85.733" site="Bacon Creek, Ky. (Kentucky, United States)"/>
<marker lat="38.33" lon="-77.35" site="Caroline (Virginia, United States)"/>
<marker lat="37.75" lon="-77.366" site="Hanover Court House (Virginia, United States)"/>
<marker lat="40.416" lon="-3.716" site="Madrid (Spain)"/>
<marker lat="42.316" lon="-71.83" site="Roxbury, Mass. (Massachusetts, United States)"/>
<marker lat="35.35" lon="-86.2" site="Tullahoma (Tennessee, United States)"/>
<marker lat="19.416" lon="-99.166" site="Mexico (Mexico, Mexico)"/>
<marker lat="34.716" lon="-88.95" site="Ripley (Mississippi, United States)"/>
<marker lat="39.6" lon="-77.7" site="Funkstown (Maryland, United States)"/>
<marker lat="37.433" lon="-84.633" site="Green (Kentucky, United States)"/>
<marker lat="40.283" lon="-84.15" site="Sydney (Ohio, United States)"/>
<marker lat="39.5" lon="-8.0" site="Portugal (Portugal)"/>
<marker lat="40.0" lon="-4.0" site="Spain (Spain)"/>
<marker lat="37.8" lon="-79.433" site="Rockbridge (Virginia, United States)"/>
<marker lat="39.35" lon="-82.5" site="Athens county (Ohio, United States)"/>
<marker lat="39.433" lon="-77.65" site="Rohrersville (Maryland, United States)"/>
<marker lat="39.3" lon="-77.85" site="Jefferson (West Virginia, United States)"/>
<marker lat="37.1" lon="-82.716" site="Cumberland River (Kentucky, United States)"/>
</markers>