<markers>
<marker lat="38.0" lon="-98.0" site="United States (United States)"/>
<marker lat="40.0" lon="-4.0" site="Spain (Spain)"/>
<marker lat="53.0" lon="-2.0" site="England (United Kingdom)"/>
<marker lat="46.0" lon="2.0" site="France (France)"/>
<marker lat="39.933" lon="-91.4" site="Quincy, Ill. (Illinois, United States)"/>
<marker lat="37.516" lon="-76.783" site="West Point (Virginia, United States)"/>
<marker lat="30.316" lon="-87.283" site="Fort Pickens (Florida, United States)"/>
<marker lat="38.683" lon="-77.483" site="Occoquan River (Virginia, United States)"/>
<marker lat="35.0" lon="105.0" site="China (China)"/>
<marker lat="35.683" lon="-75.716" site="Old Point (North Carolina, United States)"/>
<marker lat="35.866" lon="-75.65" site="Roanoke Island (North Carolina, United States)"/>
<marker lat="32.0" lon="-84.0" site="Georgia (Georgia, United States)"/>
<marker lat="36.7" lon="-81.966" site="Abingdon, Va. (Virginia, United States)"/>
<marker lat="37.55" lon="-77.45" site="Richmond (Virginia, United States)"/>
<marker lat="39.0" lon="-80.0" site="West Virginia (West Virginia, United States)"/>
<marker lat="37.55" lon="-77.366" site="Henrico (Virginia, United States)"/>
<marker lat="37.0" lon="-119.0" site="California (California, United States)"/>
<marker lat="37.2" lon="-93.283" site="Springfield, Mo. (Missouri, United States)"/>
<marker lat="39.383" lon="-84.55" site="Fort Hamilton (Ohio, United States)"/>
<marker lat="37.0" lon="-80.0" site="Virginia (Virginia, United States)"/>
<marker lat="40.483" lon="-88.983" site="Bloomington (Illinois, United States)"/>
<marker lat="32.35" lon="-90.866" site="Vicksburg (Mississippi, United States)"/>
<marker lat="36.95" lon="-76.316" site="Sewell's Point (Virginia, United States)"/>
<marker lat="54.966" lon="-1.733" site="Newburn (United Kingdom)"/>
<marker lat="38.816" lon="-90.183" site="Missouri (United States)"/>
<marker lat="38.766" lon="-79.966" site="Rich Mountain (West Virginia, United States)"/>
<marker lat="38.0" lon="-98.0" site="Missouri (Missouri, United States)"/>
<marker lat="30.45" lon="-91.15" site="Baton Rouge (Louisiana, United States)"/>
<marker lat="30.366" lon="-86.916" site="Santa Rosa Island (Florida, United States)"/>
<marker lat="37.266" lon="-76.883" site="Pig Point (Virginia, United States)"/>
<marker lat="37.833" lon="-78.2" site="Wilmington, Fluvanna county, Va. (Virginia, United States)"/>
<marker lat="40.683" lon="-75.216" site="Easton, Pa. (Pennsylvania, United States)"/>
<marker lat="38.816" lon="-77.516" site="Bull Run, Va. (Virginia, United States)"/>
<marker lat="13.83" lon="80.3" site="Fort St. George (Tamil Nadu, India)"/>
<marker lat="37.83" lon="-88.6" site="Paducah (Kentucky, United States)"/>
<marker lat="34.366" lon="-84.33" site="Lumpkin, Ga. (Georgia, United States)"/>
<marker lat="37.683" lon="-77.9" site="Cedar Point (Virginia, United States)"/>
<marker lat="37.766" lon="-80.816" site="Big Sewell Mountain (West Virginia, United States)"/>
<marker lat="38.8" lon="-77.33" site="Alexandria (Virginia, United States)"/>
<marker lat="38.666" lon="-98.0" site="Kansas (Kansas, United States)"/>
<marker lat="31.0" lon="-92.0" site="Louisiana (Louisiana, United States)"/>
<marker lat="35.133" lon="-77.66" site="Craven County (North Carolina, United States)"/>
<marker lat="40.0" lon="-86.0" site="Indiana (Indiana, United States)"/>
<marker lat="42.0" lon="-93.0" site="Iowa (Iowa, United States)"/>
<marker lat="40.0" lon="-89.0" site="Illinois (Illinois, United States)"/>
<marker lat="39.766" lon="-94.833" site="St. Joseph, Mo. (Missouri, United States)"/>
<marker lat="32.83" lon="-81.1" site="Savannah (Georgia, United States)"/>
<marker lat="60.0" lon="-96.0" site="Canada (Canada)"/>
<marker lat="7.0" lon="81.0" site="Ceylon (Sri Lanka)"/>
<marker lat="35.5" lon="-80.0" site="North Carolina (North Carolina, United States)"/>
<marker lat="37.216" lon="-77.4" site="Petersburg, Va. (Virginia, United States)"/>
<marker lat="34.0" lon="-80.0" site="South Carolina (South Carolina, United States)"/>
<marker lat="40.833" lon="-76.0" site="Pennsylvania (Pennsylvania, United States)"/>
<marker lat="38.883" lon="-77.33" site="Washington (United States)"/>
<marker lat="32.283" lon="-90.183" site="Jackson (Mississippi, United States)"/>
<marker lat="41.466" lon="-71.266" site="Easton Point (Rhode Island, United States)"/>
<marker lat="41.833" lon="-72.833" site="Connecticut (Connecticut, United States)"/>
<marker lat="23.0" lon="-102.0" site="Mexico (Mexico)"/>
<marker lat="18.933" lon="72.85" site="Bombay (Maharashtra, India)"/>
<marker lat="27.0" lon="30.0" site="Egypt (Egypt)"/>
<marker lat="36.716" lon="-76.583" site="Suffolk, Va. (Virginia, United States)"/>
<marker lat="33.883" lon="-78.16" site="Fort Caswell (North Carolina, United States)"/>
<marker lat="40.183" lon="-79.516" site="Southwest (Pennsylvania, United States)"/>
<marker lat="38.766" lon="-76.66" site="Easton (Maryland, United States)"/>
<marker lat="37.75" lon="-77.366" site="Hanover Court House (Virginia, United States)"/>
<marker lat="10.0" lon="-80.0" site="Central America"/>
<marker lat="41.416" lon="-84.383" site="Evansport (Ohio, United States)"/>
<marker lat="40.683" lon="-73.8" site="Jamaica, L. I. (New York, United States)"/>
<marker lat="39.133" lon="-77.65" site="Hamilton (Virginia, United States)"/>
<marker lat="38.6" lon="-79.933" site="Cheat Mountain (West Virginia, United States)"/>
<marker lat="51.483" lon="-0.15" site="Chelsea (United Kingdom)"/>
<marker lat="38.666" lon="-87.516" site="Vincennes (Indiana, United States)"/>
<marker lat="38.866" lon="-77.166" site="Fall's Church (Virginia, United States)"/>
<marker lat="37.85" lon="-78.266" site="Fluvanna (Virginia, United States)"/>
<marker lat="39.183" lon="-93.866" site="Lexington, Lafayette County (Missouri, United States)"/>
<marker lat="37.55" lon="-78.566" site="Buckingham county (Virginia, United States)"/>
</markers>