<markers>
<marker lat="42.45" lon="-71.35" site="Concord (Massachusetts, United States)"/>
<marker lat="42.35" lon="-71.5" site="Boston (Massachusetts, United States)"/>
<marker lat="39.15" lon="-82.483" site="Puritan (Ohio, United States)"/>
<marker lat="38.0" lon="-98.0" site="United States (United States)"/>
<marker lat="42.25" lon="-71.833" site="Massachusetts (Massachusetts, United States)"/>
<marker lat="41.75" lon="-72.683" site="Hartford (Connecticut, United States)"/>
<marker lat="46.0" lon="2.0" site="France (France)"/>
<marker lat="40.833" lon="-76.0" site="Pennsylvania (Pennsylvania, United States)"/>
<marker lat="42.633" lon="-71.316" site="Lowell (Massachusetts, United States)"/>
<marker lat="34.25" lon="-85.15" site="Rome, Ga. (Georgia, United States)"/>
<marker lat="42.516" lon="-70.883" site="Salem (Massachusetts, United States)"/>
<marker lat="42.366" lon="-71.1" site="Cambridge (Massachusetts, United States)"/>
<marker lat="41.833" lon="-72.833" site="Connecticut (Connecticut, United States)"/>
<marker lat="37.0" lon="-119.0" site="California (California, United States)"/>
<marker lat="39.283" lon="-76.6" site="Baltimore, Md. (Maryland, United States)"/>
<marker lat="51.5" lon="10.5" site="Germany (Germany)"/>
<marker lat="32.766" lon="-79.916" site="Charleston (South Carolina, United States)"/>
<marker lat="35.916" lon="-86.166" site="Milton, Tenn. (Tennessee, United States)"/>
<marker lat="43.433" lon="-71.65" site="Merrimack (United States)"/>
<marker lat="38.5" lon="-82.416" site="Quaker (West Virginia, United States)"/>
<marker lat="42.366" lon="-72.516" site="Amherst (Massachusetts, United States)"/>
<marker lat="60.0" lon="-96.0" site="Canada (Canada)"/>
<marker lat="42.766" lon="-71.66" site="Haverhill (Massachusetts, United States)"/>
<marker lat="54.0" lon="-72.0" site="Quebec (Canada)"/>
<marker lat="40.0" lon="-4.0" site="Spain (Spain)"/>
<marker lat="44.0" lon="-71.666" site="New Hampshire (New Hampshire, United States)"/>
<marker lat="32.833" lon="-87.883" site="Eutaw (Alabama, United States)"/>
<marker lat="43.65" lon="-70.25" site="Portland (Maine, United States)"/>
<marker lat="41.666" lon="-71.5" site="Rhode Island (Rhode Island, United States)"/>
<marker lat="37.55" lon="-77.45" site="Richmond (Virginia, United States)"/>
<marker lat="38.883" lon="-77.33" site="Washington (United States)"/>
<marker lat="42.633" lon="-83.283" site="Pontiac (Michigan, United States)"/>
<marker lat="42.366" lon="-71.183" site="Watertown (Massachusetts, United States)"/>
<marker lat="37.766" lon="-91.0" site="Quaker (Missouri, United States)"/>
<marker lat="40.766" lon="-73.916" site="Astoria, N. Y. (New York, United States)"/>
<marker lat="38.8" lon="-80.616" site="Dutch (West Virginia, United States)"/>
<marker lat="41.85" lon="-87.65" site="Chicago (Illinois, United States)"/>
<marker lat="19.416" lon="-99.166" site="Mexico (Mexico, Mexico)"/>
<marker lat="39.0" lon="22.0" site="Greece (Greece)"/>
<marker lat="42.833" lon="12.833" site="Italy (Italy)"/>
<marker lat="42.633" lon="-76.166" site="Homer, N. Y. (New York, United States)"/>
<marker lat="31.8" lon="-81.416" site="Midway (Georgia, United States)"/>
<marker lat="42.233" lon="-71.83" site="Milton, Mass. (Massachusetts, United States)"/>
<marker lat="42.4" lon="-71.15" site="Menotomy (Massachusetts, United States)"/>
<marker lat="35.533" lon="-96.216" site="Oriental (Oklahoma, United States)"/>
<marker lat="33.983" lon="-82.633" site="Huguenot (Georgia, United States)"/>
<marker lat="40.8" lon="-124.15" site="Eureka, Humboldt County, California (California, United States)"/>
<marker lat="43.0" lon="-84.366" site="Ovid (Michigan, United States)"/>
<marker lat="38.6" lon="-78.783" site="Broadway (Virginia, United States)"/>
<marker lat="41.483" lon="-71.3" site="Newport (Rhode Island, United States)"/>
<marker lat="48.383" lon="-107.6" site="Bowdoin (Montana, United States)"/>
<marker lat="41.616" lon="-70.983" site="Dartmouth, Mass. (Massachusetts, United States)"/>
<marker lat="43.516" lon="-75.816" site="Redfield (New York, United States)"/>
<marker lat="53.0" lon="-2.0" site="England (United Kingdom)"/>
<marker lat="39.95" lon="-75.15" site="Philadelphia (Pennsylvania, United States)"/>
<marker lat="41.816" lon="-71.4" site="Providence, R. I. (Rhode Island, United States)"/>
<marker lat="38.3" lon="-77.45" site="Fredericksburg, Va. (Virginia, United States)"/>
<marker lat="39.866" lon="-79.85" site="Puritan (Pennsylvania, United States)"/>
<marker lat="37.383" lon="-77.233" site="Malvern Hill (Virginia, United States)"/>
<marker lat="32.866" lon="-85.183" site="West Point (Georgia, United States)"/>
<marker lat="34.0" lon="-81.33" site="Columbia (South Carolina, United States)"/>
<marker lat="42.7" lon="-74.916" site="Cooperstown (New York, United States)"/>
<marker lat="40.583" lon="-74.15" site="Staten Island (New York, United States)"/>
<marker lat="41.283" lon="-72.666" site="Guilford, Conn. (Connecticut, United States)"/>
<marker lat="42.366" lon="-71.5" site="Charlestown, Mass. (Massachusetts, United States)"/>
<marker lat="48.866" lon="2.333" site="Department de Ville de Paris (France)"/>
<marker lat="62.0" lon="15.0" site="Sweden (Sweden)"/>
<marker lat="42.66" lon="-72.6" site="Agawam (Massachusetts, United States)"/>
<marker lat="51.533" lon="9.95" site="Gottingen (Lower Saxony, Germany)"/>
<marker lat="42.266" lon="-72.4" site="Belchertown, Mass. (Massachusetts, United States)"/>
<marker lat="37.166" lon="-3.666" site="Granada (Spain)"/>
<marker lat="40.633" lon="-77.0" site="Oriental (Pennsylvania, United States)"/>
<marker lat="40.25" lon="-74.266" site="Freehold, N. J. (New Jersey, United States)"/>
<marker lat="34.266" lon="-82.4" site="Iris (South Carolina, United States)"/>
<marker lat="42.6" lon="-70.65" site="Glocester (Massachusetts, United States)"/>
<marker lat="42.83" lon="-70.7" site="Marshfield (Massachusetts, United States)"/>
<marker lat="38.5" lon="-90.616" site="Eureka (Missouri, United States)"/>
<marker lat="42.466" lon="-70.95" site="Lynn (Massachusetts, United States)"/>
<marker lat="42.866" lon="-73.183" site="Bennington, Vt. (Vermont, United States)"/>
<marker lat="45.0" lon="-69.0" site="Maine (Maine, United States)"/>
<marker lat="39.0" lon="-76.833" site="Maryland (Maryland, United States)"/>
<marker lat="42.483" lon="-71.0" site="Walden Pond (Massachusetts, United States)"/>
<marker lat="40.0" lon="-75.0" site="New Jersey (New Jersey, United States)"/>
<marker lat="43.0" lon="-75.0" site="New York State (New York, United States)"/>
<marker lat="42.383" lon="-71.66" site="Mount Benedict (Massachusetts, United States)"/>
<marker lat="45.433" lon="12.333" site="Venice (Italy)"/>
<marker lat="42.983" lon="-70.6" site="Appledore Island (Maine, United States)"/>
<marker lat="35.666" lon="-80.466" site="Salisbury, N. C. (North Carolina, United States)"/>
<marker lat="42.316" lon="-71.116" site="Brookline (Massachusetts, United States)"/>
<marker lat="42.9" lon="-70.85" site="Hampton Falls, N. H. (New Hampshire, United States)"/>
<marker lat="52.533" lon="13.416" site="Berlin (Berlin, Germany)"/>
<marker lat="40.666" lon="-73.5" site="Fire Island (New York, United States)"/>
<marker lat="30.183" lon="-82.633" site="Lake City (Florida, United States)"/>
<marker lat="40.66" lon="-74.85" site="Burlington (New Jersey, United States)"/>
<marker lat="42.316" lon="-72.633" site="Northampton (Massachusetts, United States)"/>
<marker lat="41.516" lon="-72.66" site="Norwich (Connecticut, United States)"/>
<marker lat="42.8" lon="-70.866" site="Newburyport (Massachusetts, United States)"/>
<marker lat="35.866" lon="-76.733" site="Plymouth, N. C. (North Carolina, United States)"/>
<marker lat="51.283" lon="1.83" site="Canterbury (United Kingdom)"/>
<marker lat="52.416" lon="0.75" site="Thetford (United Kingdom)"/>
<marker lat="43.66" lon="-70.75" site="Portsmouth (New Hampshire, United States)"/>
<marker lat="39.95" lon="-80.366" site="Time (Pennsylvania, United States)"/>
<marker lat="30.983" lon="-87.85" site="Stockton, Ala. (Alabama, United States)"/>
<marker lat="32.833" lon="-83.616" site="Macon (Georgia, United States)"/>
<marker lat="41.633" lon="-72.766" site="Kensington, Conn. (Connecticut, United States)"/>
<marker lat="37.3" lon="-77.15" site="Westover (Virginia, United States)"/>
<marker lat="42.45" lon="-72.883" site="Cummington (Massachusetts, United States)"/>
<marker lat="42.516" lon="-90.433" site="Hazel Green (Wisconsin, United States)"/>
<marker lat="39.183" lon="-119.866" site="Sierra Nevada Mountains (United States)"/>
<marker lat="39.533" lon="-78.6" site="Shawanese (Maryland, United States)"/>
<marker lat="43.633" lon="-72.0" site="Canaan, N. H. (New Hampshire, United States)"/>
<marker lat="39.983" lon="-81.5" site="Rigby (Ohio, United States)"/>
<marker lat="60.0" lon="47.0" site="Russia (Russia)"/>
<marker lat="45.3" lon="-86.95" site="Plum Island (Wisconsin, United States)"/>
<marker lat="57.0" lon="-4.0" site="Scotland (United Kingdom)"/>
<marker lat="38.683" lon="-77.9" site="Waterloo, Va. (Virginia, United States)"/>
<marker lat="51.65" lon="-1.166" site="Dorchester (United Kingdom)"/>
<marker lat="43.783" lon="11.25" site="Florence (Italy)"/>
<marker lat="42.65" lon="-73.75" site="Albany (New York, United States)"/>
<marker lat="31.0" lon="-92.0" site="Louisiana (Louisiana, United States)"/>
<marker lat="37.766" lon="-122.416" site="San Francisco (California, United States)"/>
<marker lat="32.0" lon="-84.0" site="Georgia (Georgia, United States)"/>
<marker lat="42.433" lon="-71.216" site="Lexington (Massachusetts, United States)"/>
<marker lat="41.733" lon="-73.183" site="Litchfield, Conn. (Connecticut, United States)"/>
<marker lat="39.0" lon="35.0" site="Turquie (Turkey)"/>
<marker lat="35.0" lon="38.0" site="Syria (Syria)"/>
<marker lat="43.75" lon="-71.683" site="Plymouth, N. H. (New Hampshire, United States)"/>
<marker lat="42.45" lon="-73.233" site="Pittsfield (Massachusetts, United States)"/>
<marker lat="44.0" lon="-120.0" site="Oregon (Oregon, United States)"/>
<marker lat="35.5" lon="-80.0" site="North Carolina (North Carolina, United States)"/>
<marker lat="8.5" lon="-11.5" site="Sierra Leone (Sierra Leone)"/>
<marker lat="46.433" lon="-86.7" site="Christmas (Michigan, United States)"/>
<marker lat="40.433" lon="-79.983" site="Pittsburgh (Pennsylvania, United States)"/>
<marker lat="35.833" lon="-80.316" site="Red House (North Carolina, United States)"/>
<marker lat="35.216" lon="-82.233" site="Lynn, N. C. (North Carolina, United States)"/>
<marker lat="39.333" lon="-78.5" site="Bunker Hill (West Virginia, United States)"/>
<marker lat="48.0" lon="-3.16" site="Brittany (France)"/>
<marker lat="39.0" lon="-105.0" site="Colorado (Colorado, United States)"/>
<marker lat="41.6" lon="-72.983" site="Wolcott (Connecticut, United States)"/>
<marker lat="41.85" lon="-72.633" site="Windsor, Conn. (Connecticut, United States)"/>
<marker lat="48.83" lon="-123.8" site="Nile River (Washington, United States)"/>
<marker lat="41.33" lon="-73.85" site="Irvington (New York, United States)"/>
<marker lat="42.283" lon="-73.316" site="Stockbridge (Massachusetts, United States)"/>
<marker lat="51.35" lon="-0.75" site="Camberley (United Kingdom)"/>
<marker lat="51.216" lon="3.233" site="Bruges (Belgium)"/>
<marker lat="38.566" lon="-92.166" site="Jefferson City (Missouri, United States)"/>
<marker lat="40.716" lon="-74.66" site="Hudson (New Jersey, United States)"/>
<marker lat="27.0" lon="30.0" site="Egypt (Egypt)"/>
<marker lat="31.66" lon="35.383" site="Sodom (Israel)"/>
<marker lat="42.433" lon="-73.33" site="Peru, Mass. (Massachusetts, United States)"/>
<marker lat="37.16" lon="-78.883" site="Patrick Henry (Virginia, United States)"/>
<marker lat="51.266" lon="-2.183" site="Westbury (United Kingdom)"/>
<marker lat="36.166" lon="-86.75" site="Edgefield (Tennessee, United States)"/>
<marker lat="39.733" lon="-75.533" site="Wilmington (Delaware, United States)"/>
<marker lat="37.0" lon="-80.0" site="Virginia (Virginia, United States)"/>
<marker lat="42.25" lon="-73.783" site="Hudson, N. Y. (New York, United States)"/>
<marker lat="47.0" lon="20.0" site="Hungary (Hungary)"/>
<marker lat="51.266" lon="-1.83" site="Basingstoke (United Kingdom)"/>
<marker lat="50.8" lon="-1.83" site="Portsmouth (United Kingdom)"/>
<marker lat="42.83" lon="-79.233" site="Jamestown, N. Y. (New York, United States)"/>
<marker lat="37.866" lon="-80.133" site="Alleghany Mountains (United States)"/>
<marker lat="43.9" lon="-69.95" site="Brunswick, Me. (Maine, United States)"/>
<marker lat="42.333" lon="-71.5" site="South Boston (Massachusetts, United States)"/>
<marker lat="42.316" lon="-71.83" site="Roxbury, Mass. (Massachusetts, United States)"/>
<marker lat="42.366" lon="-71.133" site="Mount Auburn (Massachusetts, United States)"/>
<marker lat="32.866" lon="-83.483" site="Griswoldsville (Georgia, United States)"/>
<marker lat="40.683" lon="-73.8" site="Jamaica, L. I. (New York, United States)"/>
<marker lat="42.316" lon="-83.33" site="Detroit (Michigan, United States)"/>
<marker lat="41.833" lon="-70.0" site="Cape Cod (Massachusetts, United States)"/>
<marker lat="42.283" lon="-71.66" site="Dorchester, Mass. (Massachusetts, United States)"/>
<marker lat="40.566" lon="-76.983" site="Liverpool, Pa. (Pennsylvania, United States)"/>
<marker lat="42.233" lon="-71.166" site="Dedham (Massachusetts, United States)"/>
<marker lat="41.483" lon="-81.683" site="Cleveland (Ohio, United States)"/>
<marker lat="39.15" lon="-84.45" site="Cincinnati (Ohio, United States)"/>
<marker lat="39.833" lon="-75.7" site="Kennett Square (Pennsylvania, United States)"/>
<marker lat="65.0" lon="-18.0" site="Iceland (Iceland)"/>
<marker lat="42.666" lon="-76.816" site="Ovid (New York, United States)"/>
<marker lat="62.0" lon="10.0" site="Norway (Norway)"/>
<marker lat="38.33" lon="-76.316" site="Point Lookout, Md. (Maryland, United States)"/>
<marker lat="39.16" lon="-78.816" site="Hardy County (West Virginia, United States)"/>
<marker lat="42.483" lon="-71.366" site="Plain (Massachusetts, United States)"/>
</markers>