<markers>
<marker lat="42.766" lon="-70.883" site="Newbury, Mass. (Massachusetts, United States)"/>
<marker lat="42.633" lon="-71.316" site="Lowell (Massachusetts, United States)"/>
<marker lat="54.0" lon="-60.0" site="Labrador (Canada)"/>
<marker lat="41.816" lon="-71.4" site="Providence, R. I. (Rhode Island, United States)"/>
<marker lat="42.766" lon="-71.66" site="Haverhill (Massachusetts, United States)"/>
<marker lat="37.766" lon="-91.0" site="Quaker (Missouri, United States)"/>
<marker lat="42.45" lon="-71.35" site="Concord (Massachusetts, United States)"/>
<marker lat="37.16" lon="-76.333" site="Hampton (Virginia, United States)"/>
<marker lat="44.0" lon="-71.666" site="New Hampshire (New Hampshire, United States)"/>
<marker lat="41.666" lon="-71.5" site="Rhode Island (Rhode Island, United States)"/>
<marker lat="42.66" lon="-72.6" site="Agawam (Massachusetts, United States)"/>
<marker lat="42.666" lon="-70.833" site="Ipswich, Mass. (Massachusetts, United States)"/>
<marker lat="46.0" lon="2.0" site="France (France)"/>
<marker lat="42.516" lon="-70.883" site="Salem (Massachusetts, United States)"/>
<marker lat="43.5" lon="-70.433" site="Saco (Maine, United States)"/>
<marker lat="42.216" lon="-70.933" site="Weymouth (Massachusetts, United States)"/>
<marker lat="43.233" lon="-70.766" site="Agamenticus (Maine, United States)"/>
<marker lat="37.933" lon="-75.816" site="Long Point Island (Maryland, United States)"/>
<marker lat="41.833" lon="-72.833" site="Connecticut (Connecticut, United States)"/>
<marker lat="27.0" lon="30.0" site="Egypt (Egypt)"/>
<marker lat="40.683" lon="-73.316" site="Babylon (New York, United States)"/>
<marker lat="32.366" lon="-80.683" site="Port Royal (South Carolina, United States)"/>
<marker lat="40.0" lon="-4.0" site="Spain (Spain)"/>
<marker lat="43.833" lon="-70.333" site="Piscataqua River (Maine, United States)"/>
<marker lat="43.45" lon="-71.1" site="Cocheco River (New Hampshire, United States)"/>
<marker lat="42.25" lon="-88.833" site="Belvidere (Illinois, United States)"/>
<marker lat="42.6" lon="-70.883" site="Wenham (Massachusetts, United States)"/>
<marker lat="42.25" lon="-71.833" site="Massachusetts (Massachusetts, United States)"/>
<marker lat="42.583" lon="-71.2" site="Chelmsford, Mass. (Massachusetts, United States)"/>
<marker lat="39.15" lon="-82.483" site="Puritan (Ohio, United States)"/>
<marker lat="43.9" lon="-69.5" site="Pemaquid (Maine, United States)"/>
<marker lat="33.133" lon="-83.5" site="Sheba (Georgia, United States)"/>
<marker lat="42.0" lon="-81.0" site="Lake Erie (United States)"/>
<marker lat="25.0" lon="-90.0" site="Gulf of Mexico"/>
<marker lat="34.25" lon="-85.15" site="Rome, Ga. (Georgia, United States)"/>
<marker lat="43.65" lon="-70.25" site="Portland (Maine, United States)"/>
<marker lat="42.666" lon="-71.3" site="Dracut (Massachusetts, United States)"/>
<marker lat="38.0" lon="-98.0" site="United States (United States)"/>
<marker lat="29.483" lon="-82.5" site="Adam (Florida, United States)"/>
<marker lat="52.383" lon="-0.983" site="Naseby (United Kingdom)"/>
<marker lat="23.0" lon="-102.0" site="Mexico (Mexico)"/>
<marker lat="44.0" lon="-73.0" site="Vermont (Vermont, United States)"/>
<marker lat="34.966" lon="-77.85" site="Soracte (North Carolina, United States)"/>
<marker lat="40.683" lon="-73.8" site="Jamaica, L. I. (New York, United States)"/>
<marker lat="44.383" lon="-68.8" site="Castine (Maine, United States)"/>
<marker lat="42.833" lon="12.833" site="Italy (Italy)"/>
<marker lat="42.85" lon="-70.916" site="Amesbury (Massachusetts, United States)"/>
<marker lat="40.6" lon="-6.55" site="Ciudad Rodrigo (Spain)"/>
<marker lat="53.5" lon="-2.216" site="Manchester (United Kingdom)"/>
<marker lat="43.3" lon="5.366" site="Marseilles (France)"/>
<marker lat="36.666" lon="-7.75" site="Malaga (Spain)"/>
<marker lat="35.16" lon="-76.683" site="Oriental (North Carolina, United States)"/>
<marker lat="39.916" lon="25.25" site="Lemnos (Greece)"/>
<marker lat="42.233" lon="-71.83" site="Milton, Mass. (Massachusetts, United States)"/>
<marker lat="42.183" lon="-72.133" site="Salmon Brook (Massachusetts, United States)"/>
<marker lat="39.283" lon="-76.6" site="Baltimore, Md. (Maryland, United States)"/>
<marker lat="42.366" lon="-70.75" site="Massachusetts Bay (Massachusetts, United States)"/>
<marker lat="33.983" lon="-82.633" site="Huguenot (Georgia, United States)"/>
<marker lat="39.233" lon="-115.5" site="Babylon (Nevada, United States)"/>
<marker lat="42.1" lon="-83.1" site="Amherstburg (Canada)"/>
<marker lat="40.55" lon="-75.966" site="Hamburg (Pennsylvania, United States)"/>
<marker lat="44.2" lon="-71.4" site="Saco River (United States)"/>
<marker lat="42.983" lon="-71.133" site="Fremont (New Hampshire, United States)"/>
<marker lat="42.966" lon="-70.933" site="Exeter, N. H. (New Hampshire, United States)"/>
<marker lat="37.5" lon="-91.316" site="Meramec (Missouri, United States)"/>
<marker lat="40.616" lon="-75.35" site="Bethlehem (Pennsylvania, United States)"/>
<marker lat="41.166" lon="-72.183" site="Plum Island (New York, United States)"/>
<marker lat="32.9" lon="13.183" site="Tripoli (Libya)"/>
<marker lat="36.983" lon="-89.133" site="Ohio (United States)"/>
<marker lat="42.8" lon="-70.866" site="Newburyport (Massachusetts, United States)"/>
<marker lat="42.35" lon="-82.916" site="Detroit River (Michigan, United States)"/>
<marker lat="42.916" lon="-71.16" site="East Kingston (New Hampshire, United States)"/>
<marker lat="32.33" lon="25.583" site="Naxos (Greece)"/>
<marker lat="51.516" lon="-1.333" site="Berkshire (United Kingdom)"/>
<marker lat="43.433" lon="-71.65" site="Merrimack (United States)"/>
<marker lat="43.66" lon="-70.75" site="Portsmouth (New Hampshire, United States)"/>
<marker lat="43.466" lon="-80.533" site="Waterloo (Canada)"/>
<marker lat="39.95" lon="-80.366" site="Time (Pennsylvania, United States)"/>
<marker lat="37.5" lon="14.0" site="Sicily (Italy)"/>
<marker lat="42.5" lon="-70.85" site="Marblehead (Massachusetts, United States)"/>
<marker lat="38.816" lon="-77.516" site="Bull Run, Va. (Virginia, United States)"/>
<marker lat="43.25" lon="-70.85" site="Berwick, Me. (Maine, United States)"/>
<marker lat="38.5" lon="-82.416" site="Quaker (West Virginia, United States)"/>
<marker lat="53.716" lon="-6.35" site="Drogheda (Irish Republic)"/>
<marker lat="32.883" lon="-109.2" site="Yorks (Arizona, United States)"/>
<marker lat="40.266" lon="-94.16" site="Dallas (Missouri, United States)"/>
<marker lat="43.633" lon="-72.0" site="Canaan, N. H. (New Hampshire, United States)"/>
<marker lat="43.216" lon="-71.33" site="Barrington (New Hampshire, United States)"/>
<marker lat="31.8" lon="-83.483" site="Rebecca (Georgia, United States)"/>
<marker lat="42.233" lon="-83.6" site="Ypsilanti (Michigan, United States)"/>
<marker lat="41.833" lon="-71.25" site="Rehoboth (Massachusetts, United States)"/>
<marker lat="43.216" lon="-70.683" site="Mt. Agamenticus (Maine, United States)"/>
<marker lat="60.0" lon="-96.0" site="Canada (Canada)"/>
<marker lat="47.616" lon="-123.66" site="West Rock (Washington, United States)"/>
<marker lat="40.833" lon="-76.0" site="Pennsylvania (Pennsylvania, United States)"/>
<marker lat="32.8" lon="-90.716" site="Patmos (Mississippi, United States)"/>
<marker lat="34.266" lon="-82.333" site="Gilgal (South Carolina, United States)"/>
<marker lat="44.933" lon="-93.83" site="St. Paul (Minnesota, United States)"/>
<marker lat="44.2" lon="-70.533" site="Norway, Maine (Maine, United States)"/>
<marker lat="41.33" lon="-81.383" site="Bradyville (Ohio, United States)"/>
<marker lat="47.0" lon="29.0" site="Moldavia (Moldova)"/>
<marker lat="68.0" lon="25.0" site="Lapland"/>
<marker lat="42.583" lon="-72.3" site="Orange, Ma. (Massachusetts, United States)"/>
<marker lat="43.75" lon="-69.316" site="Monhegan (Maine, United States)"/>
<marker lat="42.933" lon="-71.116" site="Powow River (United States)"/>
<marker lat="34.183" lon="-79.75" site="Florence, S. C. (South Carolina, United States)"/>
<marker lat="43.25" lon="-70.85" site="Somersworth (New Hampshire, United States)"/>
<marker lat="44.9" lon="-76.25" site="Perth (Canada)"/>
<marker lat="45.5" lon="-73.6" site="Montreal (Canada)"/>
<marker lat="41.15" lon="-81.35" site="Franklin Mills, Portage County, Ohio (Ohio, United States)"/>
<marker lat="51.75" lon="-1.166" site="Oxfordshire (United Kingdom)"/>
<marker lat="32.333" lon="-64.75" site="Bermuda"/>
<marker lat="37.25" lon="-117.316" site="Old Camp (Nevada, United States)"/>
<marker lat="45.333" lon="-61.0" site="Canso (Canada)"/>
<marker lat="39.95" lon="-76.716" site="York, Pa. (Pennsylvania, United States)"/>
<marker lat="51.5" lon="10.5" site="Germany (Germany)"/>
<marker lat="33.3" lon="-89.15" site="Tuscan (Mississippi, United States)"/>
<marker lat="34.766" lon="48.583" site="Ecbatana (Iran)"/>
<marker lat="42.45" lon="-71.666" site="Lancaster, Mass. (Massachusetts, United States)"/>
<marker lat="47.0" lon="20.0" site="Hungary (Hungary)"/>
<marker lat="43.25" lon="-77.6" site="Genesee River (United States)"/>
<marker lat="33.4" lon="-90.2" site="Marion (Mississippi, United States)"/>
<marker lat="42.683" lon="-80.533" site="Walsingham (Canada)"/>
<marker lat="33.883" lon="-88.716" site="Egypt Station (Mississippi, United States)"/>
<marker lat="48.5" lon="11.5" site="Bavaria (Bavaria, Germany)"/>
<marker lat="41.333" lon="-81.25" site="Julia (Ohio, United States)"/>
<marker lat="42.316" lon="-71.83" site="Roxbury, Mass. (Massachusetts, United States)"/>
<marker lat="44.33" lon="-69.6" site="Sheepscot (Maine, United States)"/>
<marker lat="38.8" lon="-80.616" site="Dutch (West Virginia, United States)"/>
<marker lat="47.333" lon="13.333" site="Austria (Austria)"/>
<marker lat="35.9" lon="-79.5" site="Chapel Hill, N. C. (North Carolina, United States)"/>
<marker lat="48.866" lon="2.333" site="Department de Ville de Paris (France)"/>
<marker lat="32.366" lon="-90.866" site="Fort Hill (Mississippi, United States)"/>
<marker lat="40.433" lon="-84.55" site="Carthagena (Ohio, United States)"/>
<marker lat="42.633" lon="-80.45" site="Port Rowan (Canada)"/>
<marker lat="52.0" lon="20.0" site="Poland (Poland)"/>
</markers>