<markers>
<marker lat="31.766" lon="35.233" site="Jerusalem (Israel)"/>
<marker lat="35.0" lon="38.0" site="Syria (Syria)"/>
<marker lat="25.0" lon="45.0" site="Arabia"/>
<marker lat="31.83" lon="47.5" site="Euphrates"/>
<marker lat="41.9" lon="12.4833" site="Rome (Italy)"/>
<marker lat="27.0" lon="30.0" site="Egypt (Egypt)"/>
<marker lat="33.5" lon="36.316" site="Damascus (Syria)"/>
<marker lat="31.866" lon="35.45" site="Jericho (Israel)"/>
<marker lat="32.5" lon="35.5" site="Scythopolis (Israel)"/>
<marker lat="40.7583" lon="22.5333" site="Pella (Greece)"/>
<marker lat="32.83" lon="34.766" site="Joppa (Israel)"/>
<marker lat="32.9" lon="35.333" site="Galilee (Israel)"/>
<marker lat="-26.116" lon="28.1" site="Alexandra (South Africa)"/>
<marker lat="33.0" lon="35.75" site="Golan (Syria)"/>
<marker lat="39.4917" lon="22.7083" site="Petra"/>
<marker lat="34.6667" lon="33.05" site="Amathus"/>
<marker lat="38.4917" lon="23.4667" site="Anthedon"/>
<marker lat="31.3" lon="34.25" site="Raphia (Israel)"/>
<marker lat="31.416" lon="34.333" site="Gaza (Israel)"/>
<marker lat="32.7" lon="20.916" site="Ptolemais (Libya)"/>
<marker lat="32.616" lon="34.916" site="Dora (Israel)"/>
<marker lat="38.5" lon="29.6667" site="Sebaste (Turkey)"/>
<marker lat="32.216" lon="35.25" site="Shechem (Israel)"/>
<marker lat="32.916" lon="35.66" site="Ptolemais (Israel)"/>
<marker lat="38.3667" lon="28.5333" site="Philadelphia (Turkey)"/>
<marker lat="40.0" lon="45.0" site="Armenia (Armenia)"/>
<marker lat="32.1" lon="34.933" site="Antipatris (Israel)"/>
<marker lat="31.75" lon="35.583" site="Jordan"/>
<marker lat="38.0167" lon="14.5833" site="Apollonia (Libya)"/>
<marker lat="48.6" lon="21.333" site="Cana (Slovakia)"/>
<marker lat="32.283" lon="35.883" site="Gerasa (Jordan)"/>
<marker lat="25.683" lon="32.666" site="Thebes (Egypt)"/>
<marker lat="16.783" lon="96.166" site="Dagon (Myanmar)"/>
<marker lat="32.683" lon="35.4" site="Mount Tabor (Israel)"/>
<marker lat="31.8" lon="34.633" site="Ashdod (Israel)"/>
<marker lat="42.833" lon="12.833" site="Italy (Italy)"/>
<marker lat="32.733" lon="35.283" site="Sepphoris (Israel)"/>
<marker lat="33.0" lon="44.0" site="Mesopotamia (Iraq)"/>
<marker lat="36.666" lon="34.333" site="Cilicia (Turkey)"/>
<marker lat="32.75" lon="35.33" site="Mount Carmel (Israel)"/>
<marker lat="33.266" lon="35.183" site="Tyre (Lebanon)"/>
<marker lat="34.0" lon="36.2" site="Heliopolis (Lebanon)"/>
</markers>