<markers>
<marker lat="38.0" lon="-98.0" site="United States (United States)"/>
<marker lat="34.5" lon="-89.9" site="Oakland (Mississippi, United States)"/>
<marker lat="33.733" lon="-84.383" site="Atlanta (Georgia, United States)"/>
<marker lat="37.55" lon="-77.45" site="Richmond (Virginia, United States)"/>
<marker lat="43.0" lon="-75.0" site="New York State (New York, United States)"/>
<marker lat="25.9" lon="-97.483" site="Fort Taylor (Texas, United States)"/>
<marker lat="31.0" lon="-92.0" site="Louisiana (Louisiana, United States)"/>
<marker lat="38.0" lon="-98.0" site="Missouri (Missouri, United States)"/>
<marker lat="36.966" lon="-76.35" site="Hampton Roads (Virginia, United States)"/>
<marker lat="37.83" lon="-88.6" site="Paducah (Kentucky, United States)"/>
<marker lat="35.5" lon="-85.0" site="Tennessee (Tennessee, United States)"/>
<marker lat="33.5" lon="-84.15" site="Barnesville (Georgia, United States)"/>
<marker lat="33.65" lon="-83.716" site="Social Circle (Georgia, United States)"/>
<marker lat="43.766" lon="-124.116" site="Home Point (Oregon, United States)"/>
<marker lat="26.833" lon="-97.366" site="Padre Island, Tex. (Texas, United States)"/>
<marker lat="35.6" lon="-87.33" site="Columbia, Tenn. (Tennessee, United States)"/>
<marker lat="38.916" lon="-78.183" site="Front Royal (Virginia, United States)"/>
<marker lat="28.7" lon="-95.8" site="Matagorda Bay (Texas, United States)"/>
<marker lat="36.66" lon="-79.783" site="Greensboro (North Carolina, United States)"/>
<marker lat="33.516" lon="-84.35" site="Jonesboro (Georgia, United States)"/>
<marker lat="37.316" lon="-77.266" site="City Point (Virginia, United States)"/>
<marker lat="32.66" lon="-99.83" site="Red River (Texas, United States)"/>
<marker lat="33.766" lon="-90.966" site="Christmas (Mississippi, United States)"/>
<marker lat="33.7" lon="-84.1" site="Lithonia (Georgia, United States)"/>
<marker lat="40.55" lon="-85.25" site="Matamoras (Indiana, United States)"/>
<marker lat="33.666" lon="-84.433" site="East Point (Georgia, United States)"/>
<marker lat="32.0" lon="-84.0" site="Georgia (Georgia, United States)"/>
<marker lat="33.55" lon="-82.883" site="Crawfordsville (Georgia, United States)"/>
<marker lat="33.583" lon="-83.85" site="Covington (Georgia, United States)"/>
<marker lat="35.5" lon="-80.0" site="North Carolina (North Carolina, United States)"/>
<marker lat="37.216" lon="-77.4" site="Petersburg, Va. (Virginia, United States)"/>
<marker lat="36.66" lon="-79.116" site="Orange county (North Carolina, United States)"/>
<marker lat="35.9" lon="-100.366" site="Canadian (Texas, United States)"/>
<marker lat="32.516" lon="-93.75" site="Shreveport (Louisiana, United States)"/>
<marker lat="33.766" lon="-84.283" site="Decatur, Ga. (Georgia, United States)"/>
<marker lat="40.766" lon="-111.883" site="Capitol (Utah, United States)"/>
<marker lat="32.35" lon="-95.3" site="Tyler, Texas (Texas, United States)"/>
<marker lat="33.2" lon="-83.183" site="Buckhead (Georgia, United States)"/>
<marker lat="41.666" lon="-69.95" site="Chatham (Massachusetts, United States)"/>
<marker lat="19.416" lon="-99.166" site="Mexico (Mexico, Mexico)"/>
<marker lat="33.8" lon="-84.166" site="Stone Mountain (Georgia, United States)"/>
<marker lat="36.583" lon="-79.383" site="Danville (Virginia, United States)"/>
<marker lat="32.883" lon="-84.316" site="Thomaston (Georgia, United States)"/>
<marker lat="38.33" lon="-76.316" site="Point Lookout, Md. (Maryland, United States)"/>
<marker lat="37.0" lon="-78.683" site="Charlotte county (Virginia, United States)"/>
</markers>