<markers>
<marker lat="39.183" lon="-78.15" site="Winchester, Va. (Virginia, United States)"/>
<marker lat="35.833" lon="-86.383" site="Murfreesboro (Tennessee, United States)"/>
<marker lat="34.216" lon="-92.0" site="Pine Bluff (Arkansas, United States)"/>
<marker lat="35.33" lon="-89.233" site="La Grange (Tennessee, United States)"/>
<marker lat="36.5" lon="-94.15" site="Fayetteville, Ark. (Arkansas, United States)"/>
<marker lat="38.983" lon="-78.35" site="Strasburg (Virginia, United States)"/>
<marker lat="39.316" lon="-77.733" site="Harper's Ferry (West Virginia, United States)"/>
<marker lat="30.733" lon="-91.583" site="Morganza (Louisiana, United States)"/>
<marker lat="34.733" lon="-92.283" site="Little Rock (Arkansas, United States)"/>
<marker lat="39.5" lon="-78.966" site="Moorefield (West Virginia, United States)"/>
<marker lat="36.883" lon="-89.916" site="Bloomfield, Mo. (Missouri, United States)"/>
<marker lat="34.933" lon="-88.516" site="Corinth (Mississippi, United States)"/>
<marker lat="32.716" lon="-79.95" site="James Island (South Carolina, United States)"/>
<marker lat="34.766" lon="-89.433" site="Holly Springs (Mississippi, United States)"/>
<marker lat="39.1" lon="-77.55" site="Leesburg (Virginia, United States)"/>
<marker lat="36.716" lon="-76.583" site="Suffolk, Va. (Virginia, United States)"/>
<marker lat="38.75" lon="-93.733" site="Warrensburg (Missouri, United States)"/>
<marker lat="39.45" lon="-77.95" site="Martinsburg (West Virginia, United States)"/>
<marker lat="34.6" lon="-86.983" site="Decatur (Alabama, United States)"/>
<marker lat="35.383" lon="-94.383" site="Fort Smith (Arkansas, United States)"/>
<marker lat="38.7" lon="-77.783" site="Warrenton (Virginia, United States)"/>
<marker lat="33.95" lon="-91.66" site="White River (Arkansas, United States)"/>
<marker lat="39.83" lon="-94.4" site="Independence, Mo. (Missouri, United States)"/>
<marker lat="37.383" lon="-77.233" site="Malvern Hill (Virginia, United States)"/>
<marker lat="35.183" lon="-87.16" site="Pulaski, Tenn. (Tennessee, United States)"/>
<marker lat="34.783" lon="-91.45" site="Devall's Bluff (Arkansas, United States)"/>
<marker lat="35.583" lon="-92.5" site="Brownsville (Arkansas, United States)"/>
<marker lat="37.233" lon="-76.5" site="Yorktown (Virginia, United States)"/>
<marker lat="38.966" lon="-77.733" site="Middleburg (Virginia, United States)"/>
<marker lat="36.866" lon="-94.366" site="Neosho, Mo. (Missouri, United States)"/>
<marker lat="30.316" lon="-81.65" site="Jacksonville (Florida, United States)"/>
<marker lat="36.583" lon="-83.666" site="Cumberland Gap (Tennessee, United States)"/>
<marker lat="31.2" lon="-87.216" site="Florence, Ala. (Alabama, United States)"/>
<marker lat="32.16" lon="-91.5" site="Grand Gulf (Mississippi, United States)"/>
<marker lat="39.6" lon="-77.816" site="Williamsport (Maryland, United States)"/>
<marker lat="35.766" lon="-91.633" site="Napoleon (Arkansas, United States)"/>
<marker lat="38.966" lon="-77.633" site="Aldie (Virginia, United States)"/>
<marker lat="36.583" lon="-89.516" site="New Madrid, Mo. (Missouri, United States)"/>
<marker lat="34.766" lon="-84.966" site="Dalton, Ga. (Georgia, United States)"/>
<marker lat="37.266" lon="-76.7" site="Williamsburg (Virginia, United States)"/>
<marker lat="39.55" lon="-94.433" site="Springfield, Mo. (Missouri, United States)"/>
<marker lat="35.5" lon="-89.4" site="Moscow, Tenn. (Tennessee, United States)"/>
<marker lat="38.916" lon="-78.183" site="Front Royal (Virginia, United States)"/>
<marker lat="35.966" lon="-83.183" site="Clifton, Tenn. (Tennessee, United States)"/>
<marker lat="29.683" lon="-91.2" site="Brashear City (Louisiana, United States)"/>
<marker lat="32.85" lon="-90.4" site="Yazoo City (Mississippi, United States)"/>
<marker lat="36.866" lon="-94.183" site="Newtonia (Missouri, United States)"/>
<marker lat="37.816" lon="-92.2" site="Waynesville (Missouri, United States)"/>
<marker lat="37.3" lon="-89.516" site="Cape Girardeau (Missouri, United States)"/>
<marker lat="34.716" lon="-88.95" site="Ripley (Mississippi, United States)"/>
<marker lat="33.733" lon="-84.383" site="Atlanta (Georgia, United States)"/>
<marker lat="34.25" lon="-85.15" site="Rome, Ga. (Georgia, United States)"/>
<marker lat="37.333" lon="-77.266" site="Bermuda Hundred (Virginia, United States)"/>
<marker lat="31.3" lon="-92.433" site="Alexandria (Louisiana, United States)"/>
<marker lat="30.983" lon="-90.833" site="Amite River (Louisiana, United States)"/>
<marker lat="36.0" lon="-86.566" site="Lavergne (Tennessee, United States)"/>
<marker lat="32.333" lon="-90.316" site="Clinton (Mississippi, United States)"/>
<marker lat="35.95" lon="-83.916" site="Knoxville (Tennessee, United States)"/>
<marker lat="30.1" lon="-90.983" site="Donaldsonville (Louisiana, United States)"/>
<marker lat="37.75" lon="-77.366" site="Hanover Court House (Virginia, United States)"/>
<marker lat="36.0" lon="-83.4" site="Dandridge (Tennessee, United States)"/>
<marker lat="35.25" lon="-88.983" site="Bolivar, Tenn. (Tennessee, United States)"/>
<marker lat="37.4" lon="-77.3" site="Deep Bottom (Virginia, United States)"/>
<marker lat="34.8" lon="-88.183" site="Iuka (Mississippi, United States)"/>
<marker lat="31.95" lon="-90.983" site="Port Gibson (Mississippi, United States)"/>
<marker lat="37.95" lon="-91.766" site="Rolla, Mo. (Missouri, United States)"/>
<marker lat="35.683" lon="-85.766" site="McMinnville (Tennessee, United States)"/>
<marker lat="36.466" lon="-84.533" site="Winchester (Tennessee, United States)"/>
<marker lat="35.633" lon="-91.3" site="Jacksonport (Arkansas, United States)"/>
<marker lat="32.283" lon="-90.183" site="Jackson (Mississippi, United States)"/>
<marker lat="39.0" lon="-77.333" site="Dranesville (Virginia, United States)"/>
<marker lat="39.633" lon="-77.716" site="Hagerstown (Maryland, United States)"/>
<marker lat="35.25" lon="-91.733" site="Searcy (Arkansas, United States)"/>
<marker lat="38.5" lon="-77.883" site="Brandy Station (Virginia, United States)"/>
<marker lat="38.433" lon="-77.9" site="Stevensburg (Virginia, United States)"/>
<marker lat="34.5" lon="-84.666" site="Ackworth, Ga. (Georgia, United States)"/>
<marker lat="33.4" lon="-91.5" site="Greenville (Mississippi, United States)"/>
<marker lat="36.366" lon="-94.2" site="Bentonville, Ark. (Arkansas, United States)"/>
<marker lat="38.833" lon="-77.416" site="Centreville (Virginia, United States)"/>
<marker lat="34.9" lon="-85.1" site="Ringgold, Ga. (Georgia, United States)"/>
<marker lat="40.1" lon="-94.0" site="Salem, Mo. (Missouri, United States)"/>
<marker lat="38.733" lon="-78.633" site="Mount Jackson (Virginia, United States)"/>
<marker lat="37.16" lon="-80.16" site="Blackwater (Virginia, United States)"/>
<marker lat="38.9" lon="-77.25" site="Vienna (Virginia, United States)"/>
<marker lat="39.333" lon="-78.75" site="Romney (West Virginia, United States)"/>
<marker lat="38.983" lon="-77.883" site="Upperville (Virginia, United States)"/>
<marker lat="35.85" lon="-86.65" site="Triune (Tennessee, United States)"/>
<marker lat="38.983" lon="-78.383" site="Fisher's Hill (Virginia, United States)"/>
<marker lat="36.383" lon="-86.433" site="Gallatin, Tenn. (Tennessee, United States)"/>
<marker lat="35.83" lon="-89.8" site="Germantown (Tennessee, United States)"/>
<marker lat="34.7" lon="-85.266" site="La Fayette (Georgia, United States)"/>
<marker lat="34.816" lon="-89.316" site="Coldwater (Mississippi, United States)"/>
<marker lat="37.533" lon="-93.866" site="Arcola (Missouri, United States)"/>
<marker lat="35.866" lon="-76.733" site="Plymouth, N. C. (North Carolina, United States)"/>
<marker lat="37.366" lon="-89.65" site="Jackson, Mo. (Missouri, United States)"/>
<marker lat="36.483" lon="-87.85" site="Fort Donelson (Tennessee, United States)"/>
<marker lat="37.83" lon="-88.6" site="Paducah (Kentucky, United States)"/>
<marker lat="38.7" lon="-93.216" site="Sedalia, Mo. (Missouri, United States)"/>
<marker lat="38.366" lon="-78.25" site="Madison Court House (Virginia, United States)"/>
<marker lat="34.716" lon="-87.7" site="Tuscumbia (Alabama, United States)"/>
<marker lat="38.8" lon="-93.833" site="Blackwater (Missouri, United States)"/>
<marker lat="35.65" lon="-89.733" site="Fort Pillow (Tennessee, United States)"/>
<marker lat="34.716" lon="-86.583" site="Huntsville (Alabama, United States)"/>
<marker lat="36.616" lon="-90.816" site="Doniphan, Mo. (Missouri, United States)"/>
<marker lat="30.85" lon="-91.0" site="Clinton, La. (Louisiana, United States)"/>
<marker lat="34.683" lon="-91.3" site="Clarendon, Ark. (Arkansas, United States)"/>
<marker lat="37.183" lon="-90.55" site="Patterson, Mo. (Missouri, United States)"/>
<marker lat="35.15" lon="-92.733" site="Lewisburg (Arkansas, United States)"/>
<marker lat="36.15" lon="-82.816" site="Greenville, Tenn. (Tennessee, United States)"/>
<marker lat="30.666" lon="-91.266" site="Port Hudson (Louisiana, United States)"/>
<marker lat="32.55" lon="-89.766" site="Deer Creek (Mississippi, United States)"/>
<marker lat="34.55" lon="-92.583" site="Benton, Ark. (Arkansas, United States)"/>
<marker lat="35.666" lon="-86.583" site="Rover, Tenn. (Tennessee, United States)"/>
<marker lat="35.33" lon="-89.533" site="Rossville (Tennessee, United States)"/>
<marker lat="35.266" lon="-91.35" site="Augusta, Ark. (Arkansas, United States)"/>
<marker lat="38.883" lon="-77.416" site="Chantilly (Virginia, United States)"/>
<marker lat="39.3" lon="-77.783" site="Halltown (West Virginia, United States)"/>
<marker lat="34.1" lon="-84.7" site="Allatoona (Georgia, United States)"/>
<marker lat="35.483" lon="-86.45" site="Shelbyville, Tenn. (Tennessee, United States)"/>
<marker lat="36.85" lon="-76.55" site="Cedar Creek (Virginia, United States)"/>
<marker lat="39.433" lon="-92.533" site="Huntsville (Missouri, United States)"/>
<marker lat="38.633" lon="-78.666" site="New Market (Virginia, United States)"/>
<marker lat="37.283" lon="-80.5" site="Salem, Va. (Virginia, United States)"/>
<marker lat="35.733" lon="-86.633" site="Eagleville (Tennessee, United States)"/>
<marker lat="38.65" lon="-78.45" site="Luray (Virginia, United States)"/>
<marker lat="34.483" lon="-90.6" site="Helena, Ark. (Arkansas, United States)"/>
<marker lat="32.433" lon="-90.433" site="Brownsville (Mississippi, United States)"/>
<marker lat="30.283" lon="-91.233" site="Plaquemine (Louisiana, United States)"/>
<marker lat="34.833" lon="-85.33" site="Tunnel Hill (Georgia, United States)"/>
<marker lat="38.566" lon="-77.316" site="Dumfries, Va. (Virginia, United States)"/>
<marker lat="37.8" lon="-80.433" site="Lewisburg (West Virginia, United States)"/>
<marker lat="35.25" lon="-77.566" site="Kinston (North Carolina, United States)"/>
<marker lat="34.466" lon="-85.333" site="Summerville (Georgia, United States)"/>
<marker lat="34.75" lon="-88.516" site="Rienzi (Mississippi, United States)"/>
<marker lat="36.416" lon="-89.5" site="Union City (Tennessee, United States)"/>
<marker lat="35.15" lon="-86.566" site="Fayetteville, Tenn. (Tennessee, United States)"/>
<marker lat="35.15" lon="-84.866" site="Cleveland, Tenn. (Tennessee, United States)"/>
<marker lat="34.366" lon="-91.133" site="St. Charles, Ark. (Arkansas, United States)"/>
<marker lat="34.816" lon="-89.983" site="Hernando (Mississippi, United States)"/>
<marker lat="34.45" lon="-85.483" site="Alpine, Ga. (Georgia, United States)"/>
<marker lat="34.4" lon="-93.616" site="Caddo Gap (Arkansas, United States)"/>
<marker lat="38.783" lon="-77.6" site="Gainesville (Virginia, United States)"/>
<marker lat="34.5" lon="-88.633" site="Baldwyn (Mississippi, United States)"/>
<marker lat="35.733" lon="-89.516" site="Ripley (Tennessee, United States)"/>
<marker lat="34.233" lon="-84.933" site="Kingston, Ga. (Georgia, United States)"/>
<marker lat="39.66" lon="-93.783" site="LaFayette County (Missouri, United States)"/>
<marker lat="37.75" lon="-77.466" site="Ashland (Virginia, United States)"/>
<marker lat="34.966" lon="-85.283" site="Rossville (Georgia, United States)"/>
<marker lat="36.683" lon="-83.1" site="Jonesville (Virginia, United States)"/>
<marker lat="37.316" lon="-91.95" site="Houston, Mo. (Missouri, United States)"/>
<marker lat="38.866" lon="-78.1" site="Rappahannock (Virginia, United States)"/>
<marker lat="35.516" lon="-93.65" site="Huntsville, Ark. (Arkansas, United States)"/>
<marker lat="36.25" lon="-94.55" site="West Point (Arkansas, United States)"/>
<marker lat="34.883" lon="-94.83" site="Waldron, Ark. (Arkansas, United States)"/>
<marker lat="32.45" lon="-91.1" site="Milliken's Bend (Louisiana, United States)"/>
<marker lat="39.333" lon="-78.916" site="Burlington, W. Va. (West Virginia, United States)"/>
<marker lat="32.7" lon="-80.33" site="John's Island (South Carolina, United States)"/>
<marker lat="36.533" lon="-93.533" site="Pilot Knob (Missouri, United States)"/>
<marker lat="36.983" lon="-85.9" site="Glasgow, Ky. (Kentucky, United States)"/>
<marker lat="36.45" lon="-83.566" site="Tazewell, Tenn. (Tennessee, United States)"/>
<marker lat="38.5" lon="-83.933" site="Mount Sterling, Ky. (Kentucky, United States)"/>
<marker lat="34.883" lon="-88.1" site="Eastport (Mississippi, United States)"/>
<marker lat="38.683" lon="-77.25" site="Occoquan (Virginia, United States)"/>
<marker lat="37.16" lon="-93.2" site="Ozark, Mo. (Missouri, United States)"/>
<marker lat="34.35" lon="-86.283" site="Guntersville (Alabama, United States)"/>
<marker lat="38.616" lon="-78.316" site="Hazel River (Virginia, United States)"/>
<marker lat="31.766" lon="-93.133" site="Natchitoches (Louisiana, United States)"/>
<marker lat="38.683" lon="-77.483" site="Brentsville (Virginia, United States)"/>
<marker lat="36.2" lon="-83.283" site="Morristown, Tenn. (Tennessee, United States)"/>
<marker lat="35.66" lon="-77.35" site="Trenton, N. C. (North Carolina, United States)"/>
<marker lat="35.95" lon="-86.666" site="Nolensville (Tennessee, United States)"/>
<marker lat="35.216" lon="-93.15" site="Dardanelle (Arkansas, United States)"/>
<marker lat="39.133" lon="-77.416" site="Poolesville (Maryland, United States)"/>
<marker lat="38.833" lon="-91.933" site="Fulton, Mo. (Missouri, United States)"/>
<marker lat="33.966" lon="-84.566" site="Kenesaw Mountain (Georgia, United States)"/>
<marker lat="33.933" lon="-84.7" site="Lost Mountain, Ga. (Georgia, United States)"/>
<marker lat="39.16" lon="-94.35" site="Jackson County (Missouri, United States)"/>
<marker lat="36.833" lon="-76.283" site="Norfolk (Virginia, United States)"/>
<marker lat="29.95" lon="-90.66" site="New Orleans (Louisiana, United States)"/>
<marker lat="39.133" lon="-93.216" site="Saline County (Missouri, United States)"/>
<marker lat="30.2" lon="-91.166" site="Bayou Goula (Louisiana, United States)"/>
<marker lat="38.233" lon="-78.1" site="Orange Court House (Virginia, United States)"/>
<marker lat="36.85" lon="-76.816" site="Zuni (Virginia, United States)"/>
<marker lat="34.666" lon="-87.3" site="Courtland, Ala. (Alabama, United States)"/>
<marker lat="38.6" lon="-77.733" site="Germantown (Virginia, United States)"/>
<marker lat="37.516" lon="-76.783" site="West Point (Virginia, United States)"/>
<marker lat="38.566" lon="-77.75" site="Bealeton (Virginia, United States)"/>
<marker lat="30.55" lon="-91.95" site="Bayou Teche (Louisiana, United States)"/>
<marker lat="35.5" lon="-88.433" site="Monterey, Tenn. (Tennessee, United States)"/>
<marker lat="32.8" lon="-91.166" site="Lake Providence, La. (Louisiana, United States)"/>
<marker lat="30.616" lon="-87.33" site="Milton, Fla. (Florida, United States)"/>
<marker lat="34.8" lon="-86.966" site="Athens, Ala. (Alabama, United States)"/>
<marker lat="36.25" lon="-83.83" site="Bull's Gap (Tennessee, United States)"/>
<marker lat="36.2" lon="-86.283" site="Lebanon (Tennessee, United States)"/>
<marker lat="35.233" lon="-87.333" site="Lawrenceburg (Tennessee, United States)"/>
<marker lat="36.116" lon="-83.483" site="Mossy Creek, Tenn. (Tennessee, United States)"/>
<marker lat="35.666" lon="-88.566" site="Spring Hill (Tennessee, United States)"/>
<marker lat="29.683" lon="-91.216" site="Berwick City (Louisiana, United States)"/>
<marker lat="39.45" lon="-77.733" site="Sharpsburg (Maryland, United States)"/>
<marker lat="37.516" lon="-76.966" site="New Kent Court House (Virginia, United States)"/>
</markers>