<markers>
<marker lat="46.0" lon="2.0" site="France (France)"/>
<marker lat="35.866" lon="-75.65" site="Roanoke Island (North Carolina, United States)"/>
<marker lat="35.5" lon="-80.0" site="North Carolina (North Carolina, United States)"/>
<marker lat="38.0" lon="-98.0" site="United States (United States)"/>
<marker lat="53.0" lon="-2.0" site="England (United Kingdom)"/>
<marker lat="39.0" lon="-76.833" site="Maryland (Maryland, United States)"/>
<marker lat="36.483" lon="-87.85" site="Fort Donelson (Tennessee, United States)"/>
<marker lat="37.266" lon="-79.933" site="Big Lick (Virginia, United States)"/>
<marker lat="34.183" lon="-79.75" site="Florence, S. C. (South Carolina, United States)"/>
<marker lat="35.5" lon="-85.0" site="Tennessee (Tennessee, United States)"/>
<marker lat="37.66" lon="-88.55" site="Tennessee River (United States)"/>
<marker lat="36.583" lon="-79.383" site="Danville (Virginia, United States)"/>
<marker lat="30.383" lon="-88.883" site="Biloxi (Mississippi, United States)"/>
<marker lat="51.66" lon="-1.25" site="Hampshire (United Kingdom)"/>
<marker lat="37.33" lon="-78.483" site="Keysville (Virginia, United States)"/>
<marker lat="60.0" lon="-96.0" site="Canada (Canada)"/>
<marker lat="19.416" lon="-99.166" site="Mexico (Mexico, Mexico)"/>
<marker lat="32.75" lon="-79.883" site="Charleston Harbor (South Carolina, United States)"/>
<marker lat="36.583" lon="-82.183" site="Bristol, Va. (Virginia, United States)"/>
<marker lat="38.0" lon="-98.0" site="Missouri (Missouri, United States)"/>
<marker lat="36.66" lon="-79.783" site="Greensboro (North Carolina, United States)"/>
<marker lat="35.833" lon="-86.383" site="Murfreesboro (Tennessee, United States)"/>
<marker lat="38.233" lon="-78.1" site="Orange Court House (Virginia, United States)"/>
<marker lat="37.83" lon="-88.6" site="Paducah (Kentucky, United States)"/>
<marker lat="36.16" lon="-76.45" site="Bluff Point (North Carolina, United States)"/>
<marker lat="31.0" lon="-92.0" site="Louisiana (Louisiana, United States)"/>
<marker lat="32.0" lon="-84.0" site="Georgia (Georgia, United States)"/>
<marker lat="36.3" lon="-76.216" site="Elizabeth City (North Carolina, United States)"/>
<marker lat="34.0" lon="-80.0" site="South Carolina (South Carolina, United States)"/>
<marker lat="37.55" lon="-77.366" site="Henrico (Virginia, United States)"/>
<marker lat="36.2" lon="-86.283" site="Lebanon (Tennessee, United States)"/>
<marker lat="41.833" lon="-72.833" site="Connecticut (Connecticut, United States)"/>
<marker lat="42.316" lon="-70.916" site="Fort Warren (Massachusetts, United States)"/>
<marker lat="35.683" lon="-75.716" site="Old Point (North Carolina, United States)"/>
<marker lat="36.716" lon="-76.583" site="Suffolk, Va. (Virginia, United States)"/>
<marker lat="40.5" lon="-80.716" site="Wheeling, W. Va. (West Virginia, United States)"/>
<marker lat="37.0" lon="-80.0" site="Virginia (Virginia, United States)"/>
<marker lat="35.833" lon="-75.683" site="Croatan Sound (North Carolina, United States)"/>
<marker lat="32.366" lon="-80.683" site="Port Royal (South Carolina, United States)"/>
<marker lat="30.216" lon="-88.916" site="Ship Island (Mississippi, United States)"/>
<marker lat="40.0" lon="-4.0" site="Spain (Spain)"/>
<marker lat="37.3" lon="-79.566" site="Bedford County (Virginia, United States)"/>
<marker lat="37.516" lon="-76.783" site="York (Virginia, United States)"/>
<marker lat="37.233" lon="-80.2" site="Roanoke (United States)"/>
<marker lat="36.533" lon="-76.9" site="Chowan River (United States)"/>
<marker lat="32.383" lon="-85.0" site="Brick Yard (Alabama, United States)"/>
<marker lat="42.25" lon="-71.833" site="Massachusetts (Massachusetts, United States)"/>
<marker lat="40.0" lon="-75.0" site="New Jersey (New Jersey, United States)"/>
<marker lat="43.0" lon="-75.0" site="New York State (New York, United States)"/>
<marker lat="35.15" lon="-80.866" site="Currituck (North Carolina, United States)"/>
<marker lat="35.95" lon="-75.616" site="Nags Head (North Carolina, United States)"/>
<marker lat="36.733" lon="-76.583" site="Nansemond River (Virginia, United States)"/>
<marker lat="33.0" lon="-87.0" site="Alabama (Alabama, United States)"/>
<marker lat="38.85" lon="-77.35" site="Fairfax (Virginia, United States)"/>
<marker lat="37.35" lon="-75.933" site="Northampton County (Virginia, United States)"/>
<marker lat="36.966" lon="-76.35" site="Hampton Roads (Virginia, United States)"/>
<marker lat="32.733" lon="-105.983" site="Camp, N. Mex. (New Mexico, United States)"/>
<marker lat="36.616" lon="-76.1" site="Blackwater Creek (Virginia, United States)"/>
<marker lat="33.2" lon="-87.566" site="Shelbyville (Alabama, United States)"/>
<marker lat="36.983" lon="-89.133" site="Ohio (United States)"/>
<marker lat="39.8" lon="-95.116" site="Doniphan (Kansas, United States)"/>
<marker lat="1.0" lon="-40.0" site="Atlantic Ocean"/>
<marker lat="34.25" lon="-85.15" site="Rome, Ga. (Georgia, United States)"/>
<marker lat="39.3" lon="-77.783" site="Halltown (West Virginia, United States)"/>
<marker lat="19.0" lon="-70.666" site="Dominican Republic (Dominican Republic)"/>
<marker lat="38.816" lon="-77.516" site="Bull Run, Va. (Virginia, United States)"/>
<marker lat="35.133" lon="-90.33" site="Memphis (Tennessee, United States)"/>
<marker lat="60.0" lon="47.0" site="Russia (Russia)"/>
<marker lat="38.666" lon="-98.0" site="Kansas (Kansas, United States)"/>
<marker lat="33.666" lon="-84.433" site="South River, Ga. (Georgia, United States)"/>
<marker lat="35.0" lon="38.0" site="Syria (Syria)"/>
<marker lat="41.666" lon="-71.5" site="Rhode Island (Rhode Island, United States)"/>
<marker lat="37.75" lon="-77.483" site="Hanover County (Virginia, United States)"/>
<marker lat="35.3" lon="-75.933" site="Pamlico Sound (North Carolina, United States)"/>
<marker lat="39.316" lon="-77.733" site="Harper's Ferry (West Virginia, United States)"/>
<marker lat="35.0" lon="-93.0" site="Arkansas (Arkansas, United States)"/>
<marker lat="37.55" lon="-77.45" site="Richmond (Virginia, United States)"/>
<marker lat="39.0" lon="-80.0" site="West Virginia (West Virginia, United States)"/>
<marker lat="34.716" lon="-87.7" site="Tuscumbia (Alabama, United States)"/>
<marker lat="36.35" lon="-76.983" site="Hertford (North Carolina, United States)"/>
<marker lat="38.3" lon="-77.45" site="Fredericksburg, Va. (Virginia, United States)"/>
<marker lat="36.6" lon="-76.466" site="Lake Drummond (Virginia, United States)"/>
<marker lat="19.333" lon="-96.666" site="Vera Cruz (Veracruz, Mexico)"/>
<marker lat="34.783" lon="-87.666" site="Florence, Ala. (Alabama, United States)"/>
<marker lat="36.416" lon="-77.583" site="Weldon, N. C. (North Carolina, United States)"/>
<marker lat="36.9" lon="-82.66" site="Lebanon (Virginia, United States)"/>
<marker lat="38.883" lon="-90.183" site="Alton (Illinois, United States)"/>
<marker lat="35.5" lon="-84.783" site="Decatur (Tennessee, United States)"/>
<marker lat="43.1" lon="-75.216" site="Utica (New York, United States)"/>
<marker lat="38.7" lon="-77.483" site="Prince William (Virginia, United States)"/>
<marker lat="37.816" lon="-92.2" site="Waynesville (Missouri, United States)"/>
<marker lat="38.566" lon="-77.316" site="Dumfries, Va. (Virginia, United States)"/>
<marker lat="36.183" lon="-78.616" site="Tar River (North Carolina, United States)"/>
<marker lat="36.183" lon="-76.45" site="Hertford, N. C. (North Carolina, United States)"/>
<marker lat="38.33" lon="-77.35" site="Caroline (Virginia, United States)"/>
<marker lat="50.9" lon="-1.4" site="Southampton (United Kingdom)"/>
<marker lat="36.66" lon="-79.1" site="Childsburg (North Carolina, United States)"/>
<marker lat="35.283" lon="-87.266" site="Shoal Creek (Tennessee, United States)"/>
<marker lat="38.7" lon="-90.416" site="Maryland Heights (Missouri, United States)"/>
<marker lat="41.416" lon="-84.383" site="Evansport (Ohio, United States)"/>
<marker lat="39.0" lon="22.0" site="Greece (Greece)"/>
<marker lat="34.45" lon="-87.85" site="Franklin County, Alabama (Alabama, United States)"/>
<marker lat="34.4" lon="-80.633" site="Fort Hill (South Carolina, United States)"/>
<marker lat="40.283" lon="-84.15" site="Sydney (Ohio, United States)"/>
<marker lat="35.25" lon="-88.983" site="Bolivar, Tenn. (Tennessee, United States)"/>
<marker lat="37.2" lon="-78.45" site="Prince Edward (Virginia, United States)"/>
<marker lat="36.85" lon="-81.516" site="Smyth (Virginia, United States)"/>
<marker lat="38.33" lon="-78.55" site="Albemarle (Virginia, United States)"/>
</markers>