<markers>
<marker lat="39.0" lon="-76.833" site="Maryland (Maryland, United States)"/>
<marker lat="38.883" lon="-77.33" site="Washington (United States)"/>
<marker lat="37.0" lon="-85.0" site="Kentucky (Kentucky, United States)"/>
<marker lat="38.0" lon="-98.0" site="United States (United States)"/>
<marker lat="38.0" lon="-98.0" site="Missouri (Missouri, United States)"/>
<marker lat="32.366" lon="-80.683" site="Port Royal (South Carolina, United States)"/>
<marker lat="38.816" lon="-77.516" site="Bull Run, Va. (Virginia, United States)"/>
<marker lat="35.5" lon="-85.0" site="Tennessee (Tennessee, United States)"/>
<marker lat="43.633" lon="-72.0" site="Canaan, N. H. (New Hampshire, United States)"/>
<marker lat="32.0" lon="-84.0" site="Georgia (Georgia, United States)"/>
<marker lat="39.283" lon="-76.6" site="Baltimore, Md. (Maryland, United States)"/>
<marker lat="32.766" lon="-79.916" site="Charleston (South Carolina, United States)"/>
<marker lat="35.133" lon="-90.33" site="Memphis (Tennessee, United States)"/>
<marker lat="34.0" lon="-80.0" site="South Carolina (South Carolina, United States)"/>
<marker lat="38.25" lon="-85.75" site="Louisville (Kentucky, United States)"/>
<marker lat="32.416" lon="-80.666" site="Beaufort, S. C. (South Carolina, United States)"/>
<marker lat="34.0" lon="-81.33" site="Columbia (South Carolina, United States)"/>
<marker lat="34.25" lon="-85.15" site="Rome, Ga. (Georgia, United States)"/>
<marker lat="37.55" lon="-77.45" site="Richmond (Virginia, United States)"/>
<marker lat="32.516" lon="-87.33" site="Summerfield (Alabama, United States)"/>
<marker lat="53.0" lon="-2.0" site="England (United Kingdom)"/>
<marker lat="40.0" lon="-89.0" site="Illinois (Illinois, United States)"/>
<marker lat="33.733" lon="-82.733" site="Washington, Ga. (Georgia, United States)"/>
<marker lat="37.583" lon="-81.316" site="Guyandotte (West Virginia, United States)"/>
<marker lat="36.75" lon="-89.1" site="Columbus, Ky. (Kentucky, United States)"/>
<marker lat="46.0" lon="2.0" site="France (France)"/>
<marker lat="37.83" lon="-88.6" site="Paducah (Kentucky, United States)"/>
<marker lat="31.5" lon="34.75" site="Israel (Israel)"/>
<marker lat="32.366" lon="-86.3" site="Montgomery (Alabama, United States)"/>
<marker lat="35.0" lon="-93.0" site="Arkansas (Arkansas, United States)"/>
<marker lat="34.716" lon="-76.733" site="Carolina City (North Carolina, United States)"/>
<marker lat="42.25" lon="-71.833" site="Massachusetts (Massachusetts, United States)"/>
<marker lat="32.216" lon="-80.666" site="Hilton Head (South Carolina, United States)"/>
<marker lat="32.3" lon="-86.816" site="Benton, Ala. (Alabama, United States)"/>
<marker lat="42.45" lon="-73.233" site="Pittsfield (Massachusetts, United States)"/>
<marker lat="41.666" lon="-71.5" site="Rhode Island (Rhode Island, United States)"/>
<marker lat="38.966" lon="-76.483" site="Annapolis (Maryland, United States)"/>
<marker lat="39.333" lon="-78.5" site="Bunker Hill (West Virginia, United States)"/>
<marker lat="39.366" lon="-87.0" site="Bowling Green (Indiana, United States)"/>
<marker lat="37.16" lon="-76.333" site="Hampton (Virginia, United States)"/>
<marker lat="36.833" lon="-76.283" site="Norfolk (Virginia, United States)"/>
<marker lat="19.416" lon="-99.166" site="Mexico (Mexico, Mexico)"/>
<marker lat="31.0" lon="-92.0" site="Louisiana (Louisiana, United States)"/>
<marker lat="28.0" lon="-82.0" site="Florida (Florida, United States)"/>
<marker lat="38.616" lon="-90.183" site="St. Louis (Missouri, United States)"/>
<marker lat="32.83" lon="-81.1" site="Savannah (Georgia, United States)"/>
<marker lat="60.0" lon="-96.0" site="Canada (Canada)"/>
<marker lat="41.166" lon="-84.733" site="Antwerp, Paulding County, Ohio (Ohio, United States)"/>
<marker lat="35.5" lon="-80.0" site="North Carolina (North Carolina, United States)"/>
<marker lat="40.833" lon="-76.0" site="Pennsylvania (Pennsylvania, United States)"/>
<marker lat="43.166" lon="-78.683" site="Lockport, N. Y. (New York, United States)"/>
<marker lat="45.0" lon="-69.0" site="Maine (Maine, United States)"/>
<marker lat="33.0" lon="-90.0" site="Mississippi (Mississippi, United States)"/>
<marker lat="30.35" lon="-81.766" site="Bulls Bay (Florida, United States)"/>
<marker lat="39.333" lon="-78.75" site="Romney (West Virginia, United States)"/>
<marker lat="30.0" lon="-100.0" site="Texas (Texas, United States)"/>
<marker lat="37.55" lon="-90.283" site="Fredericktown (Missouri, United States)"/>
<marker lat="44.5" lon="-75.116" site="St. Lawrence County (New York, United States)"/>
<marker lat="36.966" lon="-76.35" site="Hampton Roads (Virginia, United States)"/>
<marker lat="30.316" lon="-87.283" site="Fort Pickens (Florida, United States)"/>
<marker lat="37.583" lon="-77.1" site="Tunstall (Virginia, United States)"/>
<marker lat="40.266" lon="-76.883" site="Harrisburg, Pa. (Pennsylvania, United States)"/>
<marker lat="37.33" lon="-89.183" site="Cairo, Ill. (Illinois, United States)"/>
<marker lat="38.833" lon="-77.416" site="Centreville (Virginia, United States)"/>
<marker lat="28.733" lon="-97.116" site="Raisin (Texas, United States)"/>
<marker lat="41.833" lon="-70.0" site="Cape Cod (Massachusetts, United States)"/>
<marker lat="39.33" lon="-92.333" site="Boone County (Missouri, United States)"/>
<marker lat="38.8" lon="-77.33" site="Alexandria (Virginia, United States)"/>
<marker lat="38.666" lon="-98.0" site="Kansas (Kansas, United States)"/>
<marker lat="40.16" lon="-75.83" site="Frankford, Pa. (Pennsylvania, United States)"/>
<marker lat="40.0" lon="-86.0" site="Indiana (Indiana, United States)"/>
<marker lat="42.0" lon="-93.0" site="Iowa (Iowa, United States)"/>
<marker lat="39.0" lon="-75.666" site="Delaware (Delaware, United States)"/>
<marker lat="37.316" lon="-78.283" site="Jamestown (Virginia) (Virginia, United States)"/>
<marker lat="35.666" lon="-92.733" site="Arkansas (United States)"/>
<marker lat="36.0" lon="138.0" site="Japan (Japan)"/>
<marker lat="39.816" lon="-84.983" site="Wayne County (Indiana, United States)"/>
<marker lat="35.0" lon="105.0" site="China (China)"/>
<marker lat="36.3" lon="-76.216" site="Elizabeth City (North Carolina, United States)"/>
<marker lat="32.3" lon="-106.766" site="Las Cruces (New Mexico, United States)"/>
<marker lat="39.0" lon="35.0" site="Turquie (Turkey)"/>
<marker lat="38.5" lon="-76.35" site="Cornfield Point (Maryland, United States)"/>
<marker lat="38.966" lon="-95.233" site="Lawrence, Kansas (Kansas, United States)"/>
<marker lat="38.633" lon="-83.733" site="Maysville, Ky. (Kentucky, United States)"/>
<marker lat="44.0" lon="-120.0" site="Oregon (Oregon, United States)"/>
<marker lat="38.33" lon="-77.816" site="Centreville (Virginia, United States)"/>
<marker lat="42.333" lon="-71.833" site="Worcester County (Massachusetts, United States)"/>
<marker lat="38.33" lon="-84.733" site="Woodford (Kentucky, United States)"/>
<marker lat="33.733" lon="-84.383" site="Atlanta (Georgia, United States)"/>
<marker lat="38.2" lon="-84.866" site="Frankfort (Kentucky, United States)"/>
<marker lat="37.416" lon="-77.45" site="Drewry's Bluff (Virginia, United States)"/>
<marker lat="29.3" lon="-94.783" site="Galveston (Texas, United States)"/>
<marker lat="39.316" lon="-77.733" site="Harper's Ferry (West Virginia, United States)"/>
<marker lat="39.3" lon="-94.916" site="Leavenworth, Kansas (Kansas, United States)"/>
<marker lat="30.416" lon="-87.216" site="Pensacola (Florida, United States)"/>
<marker lat="35.683" lon="-105.933" site="Pala (New Mexico, United States)"/>
<marker lat="41.816" lon="-71.4" site="Providence, R. I. (Rhode Island, United States)"/>
<marker lat="42.5" lon="-71.866" site="Webster (Massachusetts, United States)"/>
<marker lat="46.4" lon="-93.816" site="Ripple River (Minnesota, United States)"/>
<marker lat="36.583" lon="-89.516" site="New Madrid, Mo. (Missouri, United States)"/>
<marker lat="42.866" lon="-73.183" site="Bennington, Vt. (Vermont, United States)"/>
<marker lat="36.733" lon="-88.633" site="Mayfield (Kentucky, United States)"/>
<marker lat="37.83" lon="-84.6" site="Somerset, Ky. (Kentucky, United States)"/>
<marker lat="42.316" lon="-85.166" site="Battle Creek (Michigan, United States)"/>
<marker lat="38.766" lon="-79.966" site="Rich Mountain (West Virginia, United States)"/>
<marker lat="41.933" lon="-75.6" site="Susquehanna, Pa. (Pennsylvania, United States)"/>
<marker lat="41.55" lon="-73.5" site="Waterbury (Connecticut, United States)"/>
<marker lat="40.0" lon="-75.0" site="New Jersey (New Jersey, United States)"/>
<marker lat="44.0" lon="-71.666" site="New Hampshire (New Hampshire, United States)"/>
<marker lat="40.7" lon="-74.0" site="New York (New York, United States)"/>
<marker lat="43.0" lon="-75.0" site="New York State (New York, United States)"/>
<marker lat="52.65" lon="-7.25" site="Kilkenny (Irish Republic)"/>
<marker lat="42.316" lon="-70.916" site="Fort Warren (Massachusetts, United States)"/>
<marker lat="42.83" lon="-76.8" site="Newtown (New York, United States)"/>
<marker lat="40.783" lon="-74.466" site="Morristown (New Jersey, United States)"/>
<marker lat="44.0" lon="-73.0" site="Vermont (Vermont, United States)"/>
<marker lat="37.233" lon="-83.683" site="Wild Cat (Kentucky, United States)"/>
<marker lat="37.7" lon="-85.966" site="Hardin (Kentucky, United States)"/>
<marker lat="51.5" lon="-0.166" site="London (United Kingdom)"/>
<marker lat="34.85" lon="-82.383" site="Greenville (South Carolina, United States)"/>
<marker lat="33.0" lon="-87.0" site="Alabama (Alabama, United States)"/>
<marker lat="38.833" lon="-77.3" site="Fairfax, Va. (Virginia, United States)"/>
<marker lat="38.566" lon="-92.166" site="Jefferson City (Missouri, United States)"/>
<marker lat="42.183" lon="-73.35" site="Great Barrington (Massachusetts, United States)"/>
<marker lat="42.35" lon="-71.5" site="Boston (Massachusetts, United States)"/>
<marker lat="40.166" lon="-76.45" site="Old Line (Pennsylvania, United States)"/>
<marker lat="47.233" lon="-95.2" site="Mississippi (United States)"/>
<marker lat="40.75" lon="-86.35" site="Logansport (Indiana, United States)"/>
<marker lat="32.866" lon="-85.183" site="West Point (Georgia, United States)"/>
<marker lat="33.733" lon="-87.25" site="America (Alabama, United States)"/>
<marker lat="42.666" lon="-70.833" site="Essex County (Massachusetts, United States)"/>
<marker lat="35.95" lon="-83.916" site="Knoxville (Tennessee, United States)"/>
<marker lat="39.216" lon="-92.833" site="Glasgow, Mo. (Missouri, United States)"/>
<marker lat="34.0" lon="-86.0" site="Gadsden (Alabama, United States)"/>
<marker lat="40.383" lon="-82.483" site="Mount Vernon, Knox County, Ohio (Ohio, United States)"/>
<marker lat="38.383" lon="-84.283" site="Cynthiana, Ky. (Kentucky, United States)"/>
<marker lat="35.683" lon="-75.716" site="Old Point (North Carolina, United States)"/>
<marker lat="37.2" lon="-76.75" site="Jamestown Island (Virginia, United States)"/>
<marker lat="43.233" lon="-78.183" site="Albion (New York, United States)"/>
<marker lat="41.433" lon="-82.7" site="Sandusky, Ohio (Ohio, United States)"/>
<marker lat="37.83" lon="-93.4" site="Wilson's Creek (Missouri, United States)"/>
<marker lat="41.216" lon="-111.933" site="Arlington Heights (Utah, United States)"/>
<marker lat="39.16" lon="-94.35" site="Jackson County (Missouri, United States)"/>
<marker lat="42.95" lon="-71.25" site="Chester, N. H. (New Hampshire, United States)"/>
<marker lat="44.683" lon="-75.483" site="Ogdensburg (New York, United States)"/>
<marker lat="43.283" lon="-72.466" site="Springfield, Vt. (Vermont, United States)"/>
<marker lat="34.216" lon="-92.0" site="Pine Bluff (Arkansas, United States)"/>
<marker lat="41.383" lon="-76.533" site="Bully Run (Pennsylvania, United States)"/>
<marker lat="38.866" lon="-77.1" site="Arlington (Virginia, United States)"/>
<marker lat="43.2" lon="-71.533" site="Concord, N. H. (New Hampshire, United States)"/>
<marker lat="44.0" lon="-105.833" site="Wyoming (Wyoming, United States)"/>
<marker lat="37.266" lon="-76.7" site="Williamsburg (Virginia, United States)"/>
<marker lat="36.633" lon="-93.95" site="Wayne (Missouri, United States)"/>
<marker lat="39.15" lon="-81.883" site="Meigs (Ohio, United States)"/>
<marker lat="35.866" lon="-76.733" site="Plymouth, N. C. (North Carolina, United States)"/>
<marker lat="37.366" lon="-77.66" site="Charles City (Virginia, United States)"/>
<marker lat="42.33" lon="-70.666" site="Duxbury (Massachusetts, United States)"/>
<marker lat="42.5" lon="-90.65" site="Dubuque (Iowa, United States)"/>
<marker lat="37.0" lon="-80.0" site="Virginia (Virginia, United States)"/>
<marker lat="42.333" lon="-71.2" site="Cambridge (Massachusetts, United States)"/>
<marker lat="34.716" lon="-86.583" site="Huntsville (Alabama, United States)"/>
<marker lat="43.75" lon="-91.1" site="La Crosse county (Wisconsin, United States)"/>
<marker lat="38.583" lon="-83.8" site="Mason County (Kentucky, United States)"/>
<marker lat="43.8" lon="-91.233" site="La Crosse (Wisconsin, United States)"/>
<marker lat="32.75" lon="-79.85" site="Fort Moultrie (South Carolina, United States)"/>
<marker lat="-21.83" lon="55.583" site="Bonaparte"/>
<marker lat="38.766" lon="-76.66" site="Easton (Maryland, United States)"/>
<marker lat="40.616" lon="-78.75" site="Cambria County (Pennsylvania, United States)"/>
<marker lat="47.0" lon="20.0" site="Hungary (Hungary)"/>
<marker lat="37.55" lon="-85.9" site="Nolin, Ky. (Kentucky, United States)"/>
<marker lat="39.2" lon="-86.25" site="Brown county (Indiana, United States)"/>
<marker lat="25.0" lon="-90.0" site="Gulf of Mexico"/>
<marker lat="39.45" lon="-77.95" site="Martinsburg (West Virginia, United States)"/>
<marker lat="34.266" lon="-81.616" site="Newberry, S. C. (South Carolina, United States)"/>
<marker lat="36.833" lon="-76.283" site="Portsmouth, Va. (Virginia, United States)"/>
<marker lat="44.666" lon="-74.966" site="Potsdam, N. Y. (New York, United States)"/>
<marker lat="51.5" lon="-0.166" site="St. Paul's church (United Kingdom)"/>
<marker lat="38.683" lon="-82.316" site="Guyandotte (Ohio, United States)"/>
<marker lat="43.0" lon="-74.366" site="Johnstown (New York, United States)"/>
<marker lat="40.1" lon="-96.15" site="Pawnee City (Nebraska, United States)"/>
<marker lat="37.66" lon="-88.55" site="Tennessee River (United States)"/>
<marker lat="38.233" lon="-83.65" site="Grange City (Kentucky, United States)"/>
<marker lat="41.416" lon="-84.383" site="Evansport (Ohio, United States)"/>
<marker lat="45.266" lon="-66.5" site="St. John (Canada)"/>
<marker lat="36.833" lon="-86.883" site="Russellville (Kentucky, United States)"/>
<marker lat="15.0" lon="42.0" site="Red Sea"/>
<marker lat="30.683" lon="-88.33" site="Mobile, Ala. (Alabama, United States)"/>
<marker lat="23.116" lon="-82.35" site="Havana (Cuba)"/>
<marker lat="34.883" lon="-88.1" site="Eastport (Mississippi, United States)"/>
<marker lat="37.866" lon="-87.33" site="Rockport, Ind. (Indiana, United States)"/>
<marker lat="40.266" lon="-79.283" site="Long Bridge (Pennsylvania, United States)"/>
<marker lat="39.283" lon="-77.85" site="Charles Town (West Virginia, United States)"/>
<marker lat="44.333" lon="-72.75" site="Waterbury, Vt. (Vermont, United States)"/>
<marker lat="42.5" lon="-70.85" site="Marblehead (Massachusetts, United States)"/>
<marker lat="46.15" lon="-86.566" site="Swan Lake (Michigan, United States)"/>
<marker lat="31.4" lon="-88.166" site="Washington (Alabama, United States)"/>
<marker lat="37.4" lon="-79.133" site="Lynchburg (Virginia, United States)"/>
<marker lat="40.933" lon="-74.5" site="Bergen county (New Jersey, United States)"/>
<marker lat="39.733" lon="-104.983" site="Denver (Colorado, United States)"/>
<marker lat="43.483" lon="-70.45" site="Biddeford (Maine, United States)"/>
</markers>