<markers>
<marker lat="37.55" lon="-77.45" site="Richmond (Virginia, United States)"/>
<marker lat="37.4" lon="-76.516" site="Gloucester, Va. (Virginia, United States)"/>
<marker lat="32.716" lon="-79.95" site="James Island (South Carolina, United States)"/>
<marker lat="47.333" lon="13.333" site="Austria (Austria)"/>
<marker lat="38.816" lon="-77.516" site="Bull Run, Va. (Virginia, United States)"/>
<marker lat="37.516" lon="-76.783" site="West Point (Virginia, United States)"/>
<marker lat="37.333" lon="-77.25" site="Shirley (Virginia, United States)"/>
<marker lat="35.5" lon="-85.0" site="Tennessee (Tennessee, United States)"/>
<marker lat="34.766" lon="-89.433" site="Holly Springs (Mississippi, United States)"/>
<marker lat="35.5" lon="-89.4" site="Moscow, Tenn. (Tennessee, United States)"/>
<marker lat="-3.25" lon="-63.33" site="Badajos (Amazonas, Brazil)"/>
<marker lat="38.15" lon="-76.8" site="Cold Harbor Creek (Virginia, United States)"/>
<marker lat="38.916" lon="-78.183" site="Front Royal (Virginia, United States)"/>
<marker lat="38.0" lon="-98.0" site="Missouri (Missouri, United States)"/>
<marker lat="41.5" lon="-100.0" site="Nebraska (Nebraska, United States)"/>
<marker lat="40.0" lon="-75.0" site="New Jersey (New Jersey, United States)"/>
<marker lat="40.7" lon="-74.0" site="New York (New York, United States)"/>
<marker lat="45.433" lon="12.333" site="Venice (Italy)"/>
<marker lat="35.33" lon="-89.183" site="Grand Junction (Tennessee, United States)"/>
<marker lat="35.1" lon="-77.33" site="New Bern (North Carolina, United States)"/>
<marker lat="37.316" lon="-77.266" site="City Point (Virginia, United States)"/>
<marker lat="45.666" lon="9.5" site="Lombardy (Italy)"/>
<marker lat="33.533" lon="-90.166" site="Yazoo River (United States)"/>
<marker lat="38.166" lon="-77.183" site="Port Royal, Va. (Virginia, United States)"/>
<marker lat="38.783" lon="-90.466" site="St. Charles, Mo. (Missouri, United States)"/>
<marker lat="35.683" lon="-84.15" site="Meadow Station (Tennessee, United States)"/>
<marker lat="37.3" lon="-77.15" site="Westover (Virginia, United States)"/>
<marker lat="43.2" lon="-75.45" site="Fort Stanwix (New York, United States)"/>
<marker lat="37.516" lon="-77.383" site="Rocketts (Virginia, United States)"/>
<marker lat="38.0" lon="-98.0" site="United States (United States)"/>
<marker lat="31.0" lon="-92.0" site="Louisiana (Louisiana, United States)"/>
<marker lat="38.316" lon="-78.166" site="Twymans Mill (Virginia, United States)"/>
<marker lat="40.95" lon="-76.883" site="Lewisburg (Pennsylvania, United States)"/>
<marker lat="34.0" lon="-80.0" site="South Carolina (South Carolina, United States)"/>
<marker lat="40.833" lon="-76.0" site="Pennsylvania (Pennsylvania, United States)"/>
<marker lat="42.266" lon="-74.216" site="Greene county (New York, United States)"/>
<marker lat="37.55" lon="-77.366" site="Henrico (Virginia, United States)"/>
<marker lat="38.9" lon="-77.25" site="Vienna (Virginia, United States)"/>
<marker lat="44.633" lon="-63.583" site="Halifax (Canada)"/>
<marker lat="30.316" lon="-81.65" site="Jacksonville (Florida, United States)"/>
<marker lat="52.2" lon="-1.616" site="Warwickshire (United Kingdom)"/>
<marker lat="37.383" lon="-77.6" site="Chesterfield (Virginia, United States)"/>
<marker lat="37.0" lon="-80.0" site="Virginia (Virginia, United States)"/>
<marker lat="37.75" lon="-77.366" site="Hanover Court House (Virginia, United States)"/>
<marker lat="46.0" lon="2.0" site="France (France)"/>
<marker lat="37.516" lon="-77.45" site="Belle Isle, Va. (Virginia, United States)"/>
<marker lat="38.666" lon="-78.15" site="Rappahannock (Virginia, United States)"/>
<marker lat="38.33" lon="-78.55" site="Albemarle (Virginia, United States)"/>
<marker lat="39.45" lon="-78.33" site="Berkeley County (West Virginia, United States)"/>
</markers>