<markers>
<marker lat="27.0" lon="30.0" site="Egypt (Egypt)"/>
<marker lat="37.9667" lon="23.7333" site="Athens (Greece)"/>
<marker lat="40.3" lon="23.3667" site="Olynthus"/>
<marker lat="32.0" lon="53.0" site="Persia (Iran)"/>
<marker lat="38.666" lon="26.75" site="Phocaea (Turkey)"/>
<marker lat="38.1" lon="15.65" site="Rhegion (Italy)"/>
<marker lat="31.166" lon="29.883" site="Canopus (Egypt)"/>
<marker lat="40.3667" lon="26.7" site="Lampsakos (Turkey)"/>
<marker lat="37.5" lon="28.0" site="Caria (Turkey)"/>
<marker lat="41.9" lon="12.4833" site="Rome (Italy)"/>
<marker lat="39.0" lon="22.0" site="Greece (Greece)"/>
<marker lat="42.0" lon="38.0" site="Pontus"/>
<marker lat="36.433" lon="28.216" site="Rhodes (Greece)"/>
<marker lat="41.0333" lon="28.95" site="Byzantium (Turkey)"/>
<marker lat="37.9083" lon="22.9083" site="Corinth (Greece)"/>
<marker lat="40.1917" lon="23.3417" site="Potidaia"/>
<marker lat="37.7167" lon="24.075" site="Laurion (Greece)"/>
<marker lat="41.333" lon="26.75" site="Thrace (Greece)"/>
<marker lat="31.2" lon="29.9" site="Alexandria (Egypt)"/>
<marker lat="32.55" lon="44.4" site="Babylon (Iraq)"/>
<marker lat="37.95" lon="27.35" site="Ephesos (Turkey)"/>
<marker lat="37.5" lon="34.33" site="Heraclea (Turkey)"/>
<marker lat="39.25" lon="26.0" site="Antissa"/>
<marker lat="41.283" lon="36.333" site="Amisus (Turkey)"/>
<marker lat="37.1083" lon="25.3833" site="Naxos City (Greece)"/>
<marker lat="43.183" lon="16.466" site="Pharus (Croatia)"/>
<marker lat="37.4" lon="25.2833" site="Delos (Greece)"/>
<marker lat="40.4167" lon="27.9" site="Cyzicus"/>
<marker lat="36.166" lon="28.0" site="Rhodes (Greece)"/>
<marker lat="41.833" lon="22.0" site="Macedonia (Macedonia)"/>
<marker lat="40.1333" lon="26.4167" site="Abydos (Turkey)"/>
<marker lat="40.9833" lon="29.0333" site="Chalcedon (Turkey)"/>
<marker lat="37.0667" lon="22.4417" site="Sparta (Greece)"/>
<marker lat="39.6333" lon="19.9167" site="Corcyra (Greece)"/>
<marker lat="37.0667" lon="15.3" site="Syracuse (Italy)"/>
</markers>