<markers>
<marker lat="38.0" lon="-98.0" site="United States (United States)"/>
<marker lat="30.666" lon="-91.266" site="Port Hudson (Louisiana, United States)"/>
<marker lat="34.716" lon="-86.583" site="Huntsville (Alabama, United States)"/>
<marker lat="19.416" lon="-99.166" site="Mexico (Mexico, Mexico)"/>
<marker lat="46.0" lon="2.0" site="France (France)"/>
<marker lat="40.0" lon="-4.0" site="Spain (Spain)"/>
<marker lat="39.316" lon="-77.733" site="Harper's Ferry (West Virginia, United States)"/>
<marker lat="32.35" lon="-88.7" site="Meridian (Mississippi, United States)"/>
<marker lat="37.0" lon="-80.0" site="Virginia (Virginia, United States)"/>
<marker lat="38.916" lon="-78.183" site="Front Royal (Virginia, United States)"/>
<marker lat="32.7" lon="-79.883" site="Morris Island (South Carolina, United States)"/>
<marker lat="38.7" lon="-77.783" site="Warrenton (Virginia, United States)"/>
<marker lat="40.833" lon="-76.0" site="Pennsylvania (Pennsylvania, United States)"/>
<marker lat="38.983" lon="-78.35" site="Strasburg, Va. (Virginia, United States)"/>
<marker lat="39.45" lon="-77.95" site="Martinsburg (West Virginia, United States)"/>
<marker lat="32.35" lon="-90.866" site="Vicksburg (Mississippi, United States)"/>
<marker lat="39.0" lon="-76.833" site="Maryland (Maryland, United States)"/>
<marker lat="33.0" lon="-87.0" site="Alabama (Alabama, United States)"/>
<marker lat="40.333" lon="-83.666" site="Zanesville, Ohio (Ohio, United States)"/>
<marker lat="47.233" lon="-95.2" site="Mississippi (United States)"/>
<marker lat="40.66" lon="-74.85" site="Burlington (New Jersey, United States)"/>
<marker lat="32.85" lon="-90.4" site="Yazoo City (Mississippi, United States)"/>
<marker lat="31.0" lon="-92.0" site="Louisiana (Louisiana, United States)"/>
<marker lat="40.266" lon="-81.866" site="Muskingum River (Ohio, United States)"/>
<marker lat="32.283" lon="-90.183" site="Jackson (Mississippi, United States)"/>
<marker lat="41.116" lon="-73.8" site="Westchester (New York, United States)"/>
<marker lat="40.83" lon="-74.833" site="Burlington Island (New Jersey, United States)"/>
<marker lat="33.733" lon="-84.383" site="Atlanta (Georgia, United States)"/>
<marker lat="41.466" lon="-72.4" site="Mount Parnassus (Connecticut, United States)"/>
<marker lat="33.0" lon="-90.0" site="Mississippi (Mississippi, United States)"/>
<marker lat="40.0" lon="-75.0" site="New Jersey (New Jersey, United States)"/>
<marker lat="38.85" lon="-78.133" site="Chester Gap (Virginia, United States)"/>
<marker lat="42.35" lon="-71.5" site="Boston (Massachusetts, United States)"/>
<marker lat="35.1" lon="-77.33" site="New Bern (North Carolina, United States)"/>
<marker lat="39.233" lon="-82.466" site="McArthur (Ohio, United States)"/>
<marker lat="32.216" lon="-80.666" site="Hilton Head (South Carolina, United States)"/>
<marker lat="36.983" lon="-89.133" site="Ohio (United States)"/>
<marker lat="36.833" lon="-76.283" site="Norfolk (Virginia, United States)"/>
<marker lat="38.7" lon="-77.7" site="Auburn, Va. (Virginia, United States)"/>
<marker lat="42.166" lon="-92.16" site="Vinton, Benton County, Iowa (Iowa, United States)"/>
<marker lat="32.25" lon="-90.33" site="Rankin (Mississippi, United States)"/>
<marker lat="37.516" lon="-77.383" site="Rocketts (Virginia, United States)"/>
<marker lat="37.83" lon="-88.6" site="Paducah (Kentucky, United States)"/>
<marker lat="39.55" lon="-77.983" site="Hedgesville (West Virginia, United States)"/>
<marker lat="53.0" lon="-2.0" site="England (United Kingdom)"/>
<marker lat="38.683" lon="-77.9" site="Waterloo, Va. (Virginia, United States)"/>
<marker lat="38.833" lon="-82.2" site="Hanersville (Ohio, United States)"/>
<marker lat="40.0" lon="-86.0" site="Indiana (Indiana, United States)"/>
<marker lat="32.0" lon="-84.0" site="Georgia (Georgia, United States)"/>
<marker lat="38.966" lon="-77.633" site="Aldie (Virginia, United States)"/>
<marker lat="60.0" lon="-96.0" site="Canada (Canada)"/>
<marker lat="37.2" lon="-82.783" site="Thornton Gap (Kentucky, United States)"/>
<marker lat="35.5" lon="-80.0" site="North Carolina (North Carolina, United States)"/>
<marker lat="39.16" lon="-82.33" site="Pomeroy (Ohio, United States)"/>
<marker lat="40.5" lon="-81.516" site="Guernsey County (Ohio, United States)"/>
<marker lat="32.366" lon="-86.3" site="Montgomery (Alabama, United States)"/>
<marker lat="39.616" lon="-77.766" site="Washington county (Maryland, United States)"/>
<marker lat="37.55" lon="-77.366" site="Henrico (Virginia, United States)"/>
<marker lat="40.716" lon="-91.1" site="Burlington Island (Illinois, United States)"/>
<marker lat="32.6" lon="-90.33" site="Canton (Mississippi, United States)"/>
<marker lat="38.933" lon="-78.183" site="Shenandoah (United States)"/>
<marker lat="39.65" lon="-78.75" site="Cumberland (Maryland, United States)"/>
<marker lat="39.45" lon="-82.216" site="Nelsonville, O. (Ohio, United States)"/>
<marker lat="39.633" lon="-77.716" site="Hagerstown (Maryland, United States)"/>
<marker lat="42.716" lon="-73.683" site="Troy, N. Y. (New York, United States)"/>
<marker lat="41.75" lon="-72.683" site="Hartford (Connecticut, United States)"/>
<marker lat="40.266" lon="-76.883" site="Harrisburg, Pa. (Pennsylvania, United States)"/>
<marker lat="39.9" lon="-105.566" site="Baltimore (Colorado, United States)"/>
<marker lat="32.3" lon="-88.966" site="Chunky Creek (Mississippi, United States)"/>
<marker lat="34.5" lon="-84.95" site="Calhoun, Ga. (Georgia, United States)"/>
<marker lat="32.716" lon="-79.866" site="Cumming's Point (South Carolina, United States)"/>
<marker lat="37.66" lon="-88.55" site="Tennessee River (United States)"/>
<marker lat="40.416" lon="-3.716" site="Madrid (Spain)"/>
<marker lat="39.35" lon="-82.5" site="Athens county (Ohio, United States)"/>
<marker lat="52.0" lon="20.0" site="Poland (Poland)"/>
</markers>