<markers>
<marker lat="38.0" lon="-98.0" site="United States (United States)"/>
<marker lat="60.0" lon="-96.0" site="Canada (Canada)"/>
<marker lat="53.0" lon="-2.0" site="England (United Kingdom)"/>
<marker lat="39.516" lon="-87.116" site="Brazil, Clay County, Indiana (Indiana, United States)"/>
<marker lat="35.5" lon="-85.0" site="Tennessee (Tennessee, United States)"/>
<marker lat="35.5" lon="-89.4" site="Moscow, Tenn. (Tennessee, United States)"/>
<marker lat="35.666" lon="-80.466" site="Salisbury, N. C. (North Carolina, United States)"/>
<marker lat="38.85" lon="-77.35" site="Fairfax (Virginia, United States)"/>
<marker lat="31.883" lon="-81.183" site="Fort McAllister (Georgia, United States)"/>
<marker lat="34.366" lon="-81.83" site="Winnsboro (South Carolina, United States)"/>
<marker lat="31.0" lon="-92.0" site="Louisiana (Louisiana, United States)"/>
<marker lat="32.0" lon="-84.0" site="Georgia (Georgia, United States)"/>
<marker lat="33.666" lon="-84.433" site="South River, Ga. (Georgia, United States)"/>
<marker lat="35.5" lon="-80.0" site="North Carolina (North Carolina, United States)"/>
<marker lat="37.55" lon="-77.45" site="Richmond (Virginia, United States)"/>
<marker lat="37.55" lon="-77.366" site="Henrico (Virginia, United States)"/>
<marker lat="42.816" lon="-1.65" site="Pompeiopolis (Spain)"/>
<marker lat="37.66" lon="-77.583" site="Dinwiddie Court House (Virginia, United States)"/>
<marker lat="44.633" lon="-63.583" site="Halifax (Canada)"/>
<marker lat="38.733" lon="-77.816" site="Fauquier (Virginia, United States)"/>
<marker lat="54.0" lon="-72.0" site="Quebec (Canada)"/>
<marker lat="36.833" lon="-81.5" site="Marion (Virginia, United States)"/>
<marker lat="37.733" lon="-77.916" site="Goochland (Virginia, United States)"/>
<marker lat="37.8" lon="-79.433" site="Rockbridge (Virginia, United States)"/>
</markers>