<markers>
<marker lat="38.0" lon="-98.0" site="United States (United States)"/>
<marker lat="39.316" lon="-77.733" site="Harper's Ferry (West Virginia, United States)"/>
<marker lat="38.516" lon="-77.6" site="Aquia Creek (Virginia, United States)"/>
<marker lat="39.0" lon="-76.833" site="Maryland (Maryland, United States)"/>
<marker lat="39.933" lon="-77.65" site="Chambersburg, Pa. (Pennsylvania, United States)"/>
<marker lat="35.5" lon="-85.0" site="Tennessee (Tennessee, United States)"/>
<marker lat="60.0" lon="47.0" site="Russia (Russia)"/>
<marker lat="46.0" lon="2.0" site="France (France)"/>
<marker lat="39.15" lon="-80.33" site="Philippi (West Virginia, United States)"/>
<marker lat="40.833" lon="-76.0" site="Pennsylvania (Pennsylvania, United States)"/>
<marker lat="34.0" lon="-80.0" site="South Carolina (South Carolina, United States)"/>
<marker lat="39.0" lon="-80.0" site="West Virginia (West Virginia, United States)"/>
<marker lat="38.3" lon="-77.45" site="Fredericksburg, Va. (Virginia, United States)"/>
<marker lat="37.8" lon="-80.433" site="Lewisburg (West Virginia, United States)"/>
<marker lat="42.25" lon="-71.833" site="Massachusetts (Massachusetts, United States)"/>
<marker lat="37.266" lon="-76.883" site="Pig Point (Virginia, United States)"/>
<marker lat="30.316" lon="-87.283" site="Fort Pickens (Florida, United States)"/>
<marker lat="35.216" lon="-88.233" site="Savannah, Tenn. (Tennessee, United States)"/>
<marker lat="60.0" lon="-96.0" site="Canada (Canada)"/>
<marker lat="35.5" lon="-80.0" site="North Carolina (North Carolina, United States)"/>
<marker lat="37.75" lon="-77.483" site="Hanover County (Virginia, United States)"/>
<marker lat="38.983" lon="-78.35" site="Strasburg, Va. (Virginia, United States)"/>
<marker lat="35.95" lon="-83.916" site="Knoxville (Tennessee, United States)"/>
<marker lat="39.4" lon="-77.4" site="Frederick, Md. (Maryland, United States)"/>
<marker lat="37.16" lon="-76.333" site="Hampton (Virginia, United States)"/>
<marker lat="38.6" lon="-75.133" site="White House Point (Delaware, United States)"/>
<marker lat="19.416" lon="-99.166" site="Mexico (Mexico, Mexico)"/>
<marker lat="37.983" lon="-77.966" site="Louisa (Virginia, United States)"/>
<marker lat="37.8" lon="-79.433" site="Rockbridge (Virginia, United States)"/>
<marker lat="34.766" lon="-89.433" site="Holly Springs (Mississippi, United States)"/>
<marker lat="37.516" lon="-76.783" site="York (Virginia, United States)"/>
<marker lat="32.35" lon="-90.866" site="Vicksburg (Mississippi, United States)"/>
<marker lat="37.483" lon="-119.95" site="Mariposa, Mariposa County, California (California, United States)"/>
<marker lat="42.466" lon="-70.95" site="Lynn (Massachusetts, United States)"/>
<marker lat="36.566" lon="-89.183" site="Hickman, Ky. (Kentucky, United States)"/>
<marker lat="37.83" lon="-84.6" site="Somerset, Ky. (Kentucky, United States)"/>
<marker lat="36.883" lon="-76.66" site="Lynnhaven Bay (Virginia, United States)"/>
<marker lat="35.783" lon="-86.666" site="College Grove (Tennessee, United States)"/>
<marker lat="45.0" lon="-69.0" site="Maine (Maine, United States)"/>
<marker lat="44.0" lon="-85.0" site="Michigan (Michigan, United States)"/>
<marker lat="38.0" lon="-98.0" site="Missouri (Missouri, United States)"/>
<marker lat="40.0" lon="-75.0" site="New Jersey (New Jersey, United States)"/>
<marker lat="42.83" lon="-76.8" site="Newtown (New York, United States)"/>
<marker lat="33.0" lon="-87.0" site="Alabama (Alabama, United States)"/>
<marker lat="38.833" lon="-77.3" site="Fairfax, Va. (Virginia, United States)"/>
<marker lat="37.366" lon="-77.5" site="Chesterfield (Virginia, United States)"/>
<marker lat="42.35" lon="-71.5" site="Boston (Massachusetts, United States)"/>
<marker lat="42.333" lon="-70.966" site="Boston Harbor (Massachusetts, United States)"/>
<marker lat="37.25" lon="-76.483" site="Gloucester Point (Virginia, United States)"/>
<marker lat="43.83" lon="-79.5" site="Manchester (New York, United States)"/>
<marker lat="38.166" lon="-77.183" site="Port Royal, Va. (Virginia, United States)"/>
<marker lat="1.0" lon="-40.0" site="Atlantic Ocean"/>
<marker lat="39.333" lon="-80.16" site="Grafton, W. Va. (West Virginia, United States)"/>
<marker lat="38.233" lon="-78.1" site="Orange Court House (Virginia, United States)"/>
<marker lat="42.866" lon="-71.216" site="Howard's Grove (New Hampshire, United States)"/>
<marker lat="37.516" lon="-76.783" site="West Point (Virginia, United States)"/>
<marker lat="37.766" lon="-87.1" site="Owensboro (Kentucky, United States)"/>
<marker lat="53.0" lon="-2.0" site="England (United Kingdom)"/>
<marker lat="42.65" lon="-73.75" site="Albany (New York, United States)"/>
<marker lat="38.266" lon="-77.15" site="King George county (Virginia, United States)"/>
<marker lat="31.0" lon="-92.0" site="Louisiana (Louisiana, United States)"/>
<marker lat="29.416" lon="-98.483" site="San Antonio (Texas, United States)"/>
<marker lat="40.0" lon="-89.0" site="Illinois (Illinois, United States)"/>
<marker lat="32.0" lon="-84.0" site="Georgia (Georgia, United States)"/>
<marker lat="34.983" lon="-80.1" site="Anson (North Carolina, United States)"/>
<marker lat="36.7" lon="-81.966" site="Abingdon, Va. (Virginia, United States)"/>
<marker lat="38.383" lon="-77.533" site="Potomac Creek (Virginia, United States)"/>
<marker lat="39.0" lon="35.0" site="Turquie (Turkey)"/>
<marker lat="40.0" lon="-80.833" site="Ohio (Ohio, United States)"/>
<marker lat="38.2" lon="-84.866" site="Frankfort (Kentucky, United States)"/>
<marker lat="40.433" lon="-79.983" site="Pittsburgh (Pennsylvania, United States)"/>
<marker lat="35.0" lon="-93.0" site="Arkansas (Arkansas, United States)"/>
<marker lat="35.683" lon="-105.933" site="Pala (New Mexico, United States)"/>
<marker lat="41.666" lon="-70.333" site="Point Shirley (Massachusetts, United States)"/>
<marker lat="54.916" lon="-1.383" site="Sunderland (United Kingdom)"/>
<marker lat="40.166" lon="-80.233" site="Washington, Pa. (Pennsylvania, United States)"/>
<marker lat="34.516" lon="-83.983" site="Dahlonega (Georgia, United States)"/>
<marker lat="41.833" lon="-72.833" site="Connecticut (Connecticut, United States)"/>
<marker lat="44.633" lon="-63.583" site="Halifax (Canada)"/>
<marker lat="44.316" lon="-93.95" site="St. Peter (Minnesota, United States)"/>
<marker lat="37.95" lon="-76.95" site="Essex County (Virginia, United States)"/>
<marker lat="39.783" lon="-77.716" site="Greencastle (Pennsylvania, United States)"/>
<marker lat="35.6" lon="-88.8" site="Jackson (Tennessee, United States)"/>
<marker lat="35.683" lon="-75.716" site="Old Point (North Carolina, United States)"/>
<marker lat="36.716" lon="-76.583" site="Suffolk, Va. (Virginia, United States)"/>
<marker lat="34.683" lon="-79.883" site="Cheraw (South Carolina, United States)"/>
<marker lat="37.33" lon="-89.183" site="Cairo, Ill. (Illinois, United States)"/>
<marker lat="36.166" lon="-86.75" site="Edgefield (Tennessee, United States)"/>
<marker lat="40.5" lon="-80.716" site="Wheeling, W. Va. (West Virginia, United States)"/>
<marker lat="45.366" lon="10.566" site="Solferino (Italy)"/>
<marker lat="38.16" lon="-78.466" site="Charlottesville (Virginia, United States)"/>
<marker lat="32.766" lon="-79.916" site="Charleston (South Carolina, United States)"/>
<marker lat="56.0" lon="10.0" site="Denmark (Denmark)"/>
<marker lat="39.83" lon="-84.5" site="Covington (Kentucky, United States)"/>
<marker lat="47.333" lon="13.333" site="Austria (Austria)"/>
<marker lat="34.233" lon="-80.6" site="Camden, S. C. (South Carolina, United States)"/>
<marker lat="42.333" lon="-71.0" site="Fort Independence (Massachusetts, United States)"/>
<marker lat="37.483" lon="-79.866" site="Fincastle (Virginia, United States)"/>
<marker lat="42.833" lon="12.833" site="Italy (Italy)"/>
<marker lat="39.5" lon="-8.0" site="Portugal (Portugal)"/>
<marker lat="36.916" lon="-80.4" site="Floyd (Virginia, United States)"/>
<marker lat="38.366" lon="-79.366" site="Highland County (Virginia, United States)"/>
<marker lat="36.816" lon="-79.4" site="Pittsylvania (Virginia, United States)"/>
<marker lat="38.516" lon="-78.883" site="Rockingham (Virginia, United States)"/>
<marker lat="52.0" lon="20.0" site="Poland (Poland)"/>
<marker lat="38.333" lon="-81.566" site="Kanawha (West Virginia, United States)"/>
<marker lat="37.35" lon="-78.16" site="Amelia (Virginia, United States)"/>
</markers>