<markers>
<marker lat="41.95" lon="-70.666" site="Accomack (Massachusetts, United States)"/>
<marker lat="42.433" lon="-71.1" site="Pasture Hill (Massachusetts, United States)"/>
<marker lat="42.516" lon="-70.883" site="Salem (Massachusetts, United States)"/>
<marker lat="42.25" lon="-71.833" site="Massachusetts (Massachusetts, United States)"/>
<marker lat="35.0" lon="105.0" site="China (China)"/>
<marker lat="40.266" lon="-80.983" site="Cadiz, Harrison County, Ohio (Ohio, United States)"/>
<marker lat="38.0" lon="-98.0" site="United States (United States)"/>
<marker lat="42.416" lon="-71.133" site="Mystick River (Massachusetts, United States)"/>
<marker lat="46.0" lon="2.0" site="France (France)"/>
<marker lat="41.483" lon="-71.3" site="Newport (Rhode Island, United States)"/>
<marker lat="36.366" lon="-100.16" site="Magoun (Texas, United States)"/>
<marker lat="32.783" lon="-96.866" site="Trinity (Texas, United States)"/>
<marker lat="42.5" lon="-70.85" site="Marblehead (Massachusetts, United States)"/>
<marker lat="53.0" lon="-2.0" site="England (United Kingdom)"/>
<marker lat="42.683" lon="-71.316" site="Winter Hill (Massachusetts, United States)"/>
<marker lat="42.416" lon="-71.1" site="Medford (Massachusetts, United States)"/>
<marker lat="44.0" lon="-71.666" site="New Hampshire (New Hampshire, United States)"/>
<marker lat="41.633" lon="-70.933" site="New Bedford (Massachusetts, United States)"/>
<marker lat="42.133" lon="-71.516" site="Milford, Mass. (Massachusetts, United States)"/>
<marker lat="42.33" lon="-70.166" site="Cape Cod Harbor (Massachusetts, United States)"/>
<marker lat="22.5" lon="88.333" site="Calcutta (West Bengal, India)"/>
<marker lat="41.666" lon="-71.5" site="Rhode Island (Rhode Island, United States)"/>
<marker lat="43.55" lon="10.3" site="Leghorn (Italy)"/>
<marker lat="41.983" lon="-70.85" site="Halifax (Massachusetts, United States)"/>
<marker lat="42.66" lon="-70.8" site="Pembroke (Massachusetts, United States)"/>
<marker lat="42.5" lon="-70.166" site="Provincetown (Massachusetts, United States)"/>
<marker lat="39.5" lon="-77.816" site="Rock Hill (Virginia, United States)"/>
<marker lat="42.45" lon="-71.83" site="Spot Pond (Massachusetts, United States)"/>
<marker lat="38.133" lon="13.383" site="Palermo (Italy)"/>
<marker lat="41.116" lon="1.25" site="Tarraco (Spain)"/>
<marker lat="43.3" lon="-73.633" site="Glens Falls (New York, United States)"/>
<marker lat="42.566" lon="-70.766" site="Manchester (Massachusetts, United States)"/>
<marker lat="35.5" lon="-89.4" site="Moscow, Tenn. (Tennessee, United States)"/>
<marker lat="44.416" lon="-69.0" site="Belfast, Me. (Maine, United States)"/>
<marker lat="38.583" lon="-28.7" site="Fayal (Portugal)"/>
<marker lat="40.0" lon="-75.0" site="New Jersey (New Jersey, United States)"/>
<marker lat="42.383" lon="-71.83" site="Ten Hills (Massachusetts, United States)"/>
<marker lat="34.716" lon="-82.9" site="Newry (South Carolina, United States)"/>
<marker lat="42.5" lon="-70.866" site="Town Hall (Massachusetts, United States)"/>
<marker lat="42.466" lon="-70.916" site="Swampscott (Massachusetts, United States)"/>
<marker lat="42.466" lon="-71.1" site="Stoneham (Massachusetts, United States)"/>
<marker lat="38.6" lon="-78.783" site="Broadway (Virginia, United States)"/>
<marker lat="41.233" lon="-111.966" site="Terrace (Utah, United States)"/>
<marker lat="33.383" lon="-86.3" site="Kings Chapel (Alabama, United States)"/>
<marker lat="42.666" lon="-71.416" site="Tyngsborough (Massachusetts, United States)"/>
<marker lat="42.716" lon="-71.2" site="Mystic Pond (Massachusetts, United States)"/>
<marker lat="13.883" lon="-60.966" site="St. Lucia (Saint Lucia)"/>
<marker lat="42.9" lon="-73.583" site="Schaghticoke (New York, United States)"/>
<marker lat="42.216" lon="-71.0" site="Braintree (Massachusetts, United States)"/>
<marker lat="42.2" lon="-72.1" site="Brookfield, Mass. (Massachusetts, United States)"/>
<marker lat="32.75" lon="129.866" site="Nagasaki (Japan)"/>
<marker lat="41.35" lon="-71.966" site="Mystic, Connecticut (Connecticut, United States)"/>
<marker lat="43.66" lon="-70.75" site="Portsmouth (New Hampshire, United States)"/>
<marker lat="-25.33" lon="47.0" site="Faradofay (Madagascar)"/>
<marker lat="41.166" lon="-82.216" site="Wellington (Ohio, United States)"/>
<marker lat="53.416" lon="-1.16" site="Scrooby (United Kingdom)"/>
<marker lat="60.0" lon="47.0" site="Russia (Russia)"/>
<marker lat="27.766" lon="-82.666" site="Saint Petersburg (Florida, United States)"/>
<marker lat="39.766" lon="-94.833" site="St. Joseph, Mo. (Missouri, United States)"/>
<marker lat="33.666" lon="-84.433" site="South River, Ga. (Georgia, United States)"/>
<marker lat="6.5" lon="-9.5" site="Liberia (Liberia)"/>
<marker lat="49.583" lon="-126.583" site="Nootka Sound (Canada)"/>
<marker lat="38.883" lon="-77.33" site="Washington (United States)"/>
<marker lat="41.816" lon="-71.4" site="Providence, R. I. (Rhode Island, United States)"/>
<marker lat="31.383" lon="-90.4" site="Wilkinson (Mississippi, United States)"/>
<marker lat="44.0" lon="-73.0" site="Vermont (Vermont, United States)"/>
<marker lat="42.333" lon="-76.833" site="Havana, N. Y. (New York, United States)"/>
<marker lat="49.633" lon="-1.616" site="Cherbourg (France)"/>
<marker lat="38.566" lon="-92.166" site="Jefferson City (Missouri, United States)"/>
<marker lat="42.666" lon="-70.833" site="Essex County (Massachusetts, United States)"/>
<marker lat="31.1" lon="121.366" site="Shanghai (China)"/>
<marker lat="42.45" lon="-71.35" site="Concord (Massachusetts, United States)"/>
<marker lat="41.383" lon="-84.116" site="Napoleon (Ohio, United States)"/>
<marker lat="42.7" lon="-72.616" site="Leydon (Massachusetts, United States)"/>
<marker lat="39.833" lon="-91.366" site="Marblehead (Illinois, United States)"/>
<marker lat="41.33" lon="-95.733" site="Glenwood, Mills County, Iowa (Iowa, United States)"/>
<marker lat="37.25" lon="-117.316" site="Old Camp (Nevada, United States)"/>
<marker lat="42.716" lon="-73.683" site="Troy, N. Y. (New York, United States)"/>
<marker lat="42.366" lon="-71.133" site="Mount Auburn (Massachusetts, United States)"/>
<marker lat="41.833" lon="-70.0" site="Cape Cod (Massachusetts, United States)"/>
<marker lat="42.283" lon="-71.66" site="Dorchester, Mass. (Massachusetts, United States)"/>
<marker lat="38.683" lon="-119.133" site="Mount Etna (Nevada, United States)"/>
<marker lat="37.833" lon="-76.416" site="Oak Grove (Virginia, United States)"/>
<marker lat="62.0" lon="15.0" site="Sweden (Sweden)"/>
<marker lat="41.783" lon="-71.366" site="Squantum (Rhode Island, United States)"/>
</markers>