<markers>
<marker lat="38.0" lon="-98.0" site="Missouri (Missouri, United States)"/>
<marker lat="38.0" lon="-98.0" site="United States (United States)"/>
<marker lat="36.166" lon="-86.75" site="Edgefield (Tennessee, United States)"/>
<marker lat="35.5" lon="-85.0" site="Tennessee (Tennessee, United States)"/>
<marker lat="35.6" lon="-87.33" site="Columbia, Tenn. (Tennessee, United States)"/>
<marker lat="35.75" lon="-86.916" site="Spring Hill (Tennessee, United States)"/>
<marker lat="32.866" lon="-85.183" site="West Point (Georgia, United States)"/>
<marker lat="33.733" lon="-84.383" site="Atlanta (Georgia, United States)"/>
<marker lat="35.183" lon="-87.16" site="Pulaski, Tenn. (Tennessee, United States)"/>
<marker lat="35.716" lon="-87.266" site="Duck River (Tennessee, United States)"/>
<marker lat="32.0" lon="-84.0" site="Georgia (Georgia, United States)"/>
<marker lat="41.85" lon="-87.65" site="Chicago (Illinois, United States)"/>
<marker lat="32.83" lon="-81.1" site="Savannah (Georgia, United States)"/>
<marker lat="19.416" lon="-99.166" site="Mexico (Mexico, Mexico)"/>
<marker lat="38.666" lon="-98.0" site="Kansas (Kansas, United States)"/>
<marker lat="46.0" lon="2.0" site="France (France)"/>
<marker lat="35.5" lon="-80.0" site="North Carolina (North Carolina, United States)"/>
<marker lat="38.883" lon="-77.33" site="Washington (United States)"/>
<marker lat="37.83" lon="-93.4" site="Wilson's Creek (Missouri, United States)"/>
<marker lat="37.0" lon="-85.0" site="Kentucky (Kentucky, United States)"/>
<marker lat="34.766" lon="-84.966" site="Dalton, Ga. (Georgia, United States)"/>
<marker lat="34.566" lon="-84.933" site="Resaca (Georgia, United States)"/>
<marker lat="35.95" lon="-83.916" site="Knoxville (Tennessee, United States)"/>
<marker lat="37.66" lon="-88.55" site="Tennessee River (United States)"/>
<marker lat="28.0" lon="-82.0" site="Florida (Florida, United States)"/>
<marker lat="35.0" lon="-93.0" site="Arkansas (Arkansas, United States)"/>
<marker lat="48.866" lon="2.333" site="Department de Ville de Paris (France)"/>
<marker lat="36.16" lon="-86.766" site="Brentwood, Tenn. (Tennessee, United States)"/>
<marker lat="37.2" lon="-93.283" site="Springfield, Mo. (Missouri, United States)"/>
<marker lat="37.55" lon="-90.283" site="Fredericktown (Missouri, United States)"/>
<marker lat="37.45" lon="-89.266" site="Jonesboro (Illinois, United States)"/>
<marker lat="36.16" lon="-87.966" site="Johnsonville, Tenn. (Tennessee, United States)"/>
<marker lat="23.0" lon="-102.0" site="Mexico (Mexico)"/>
<marker lat="37.766" lon="-122.416" site="San Francisco (California, United States)"/>
<marker lat="34.183" lon="-79.75" site="Florence, S. C. (South Carolina, United States)"/>
<marker lat="37.95" lon="-91.766" site="Rolla, Mo. (Missouri, United States)"/>
<marker lat="35.5" lon="-84.783" site="Decatur (Tennessee, United States)"/>
<marker lat="39.83" lon="-94.566" site="Milton (Missouri, United States)"/>
<marker lat="34.25" lon="-85.15" site="Rome, Ga. (Georgia, United States)"/>
<marker lat="38.966" lon="-92.733" site="Boonville (Missouri, United States)"/>
<marker lat="38.966" lon="-95.233" site="Lawrence, Kansas (Kansas, United States)"/>
<marker lat="35.766" lon="-78.633" site="Raleigh (North Carolina, United States)"/>
<marker lat="35.8" lon="-86.9" site="Thompson's Station (Tennessee, United States)"/>
<marker lat="40.0" lon="-89.0" site="Illinois (Illinois, United States)"/>
<marker lat="20.0" lon="-157.833" site="Hawaii (Hawaii, United States)"/>
<marker lat="37.55" lon="-77.45" site="Richmond (Virginia, United States)"/>
<marker lat="33.0" lon="-87.0" site="Alabama (Alabama, United States)"/>
<marker lat="35.583" lon="-79.5" site="Cape Fear (North Carolina, United States)"/>
<marker lat="33.466" lon="-82.16" site="Augusta (Georgia, United States)"/>
<marker lat="30.683" lon="-88.33" site="Mobile, Ala. (Alabama, United States)"/>
<marker lat="35.35" lon="-86.2" site="Tullahoma (Tennessee, United States)"/>
<marker lat="40.616" lon="-98.65" site="Kenesaw (Nebraska, United States)"/>
<marker lat="35.0" lon="105.0" site="China (China)"/>
<marker lat="37.316" lon="-77.266" site="City Point (Virginia, United States)"/>
<marker lat="39.83" lon="-96.783" site="Fort Riley (Kansas, United States)"/>
<marker lat="35.716" lon="-86.6" site="Harpeth River (Tennessee, United States)"/>
<marker lat="32.833" lon="-83.616" site="Macon (Georgia, United States)"/>
<marker lat="34.733" lon="-92.283" site="Little Rock (Arkansas, United States)"/>
<marker lat="34.933" lon="-88.516" site="Corinth (Mississippi, United States)"/>
<marker lat="41.666" lon="-71.5" site="Rhode Island (Rhode Island, United States)"/>
<marker lat="36.2" lon="-83.283" site="Morristown, Tenn. (Tennessee, United States)"/>
<marker lat="51.5" lon="-0.166" site="London (United Kingdom)"/>
<marker lat="32.75" lon="-79.85" site="Fort Moultrie (South Carolina, United States)"/>
<marker lat="36.3" lon="-88.316" site="Paris, Tenn. (Tennessee, United States)"/>
<marker lat="38.25" lon="-85.75" site="Louisville (Kentucky, United States)"/>
<marker lat="37.0" lon="-119.0" site="California (California, United States)"/>
<marker lat="47.233" lon="-95.2" site="Mississippi (United States)"/>
<marker lat="-30.0" lon="-71.0" site="Chile (Chile)"/>
<marker lat="37.616" lon="-90.633" site=", Mo. (Missouri, United States)"/>
<marker lat="39.766" lon="-94.833" site="St. Joseph, Mo. (Missouri, United States)"/>
<marker lat="38.616" lon="-90.183" site="St. Louis (Missouri, United States)"/>
<marker lat="35.15" lon="-84.866" site="Cleveland, Tenn. (Tennessee, United States)"/>
<marker lat="34.0" lon="-80.0" site="South Carolina (South Carolina, United States)"/>
<marker lat="34.716" lon="-87.7" site="Tuscumbia (Alabama, United States)"/>
<marker lat="32.4" lon="-87.16" site="Selma (Alabama, United States)"/>
<marker lat="33.916" lon="-84.833" site="Dallas, Ga. (Georgia, United States)"/>
<marker lat="53.416" lon="-3.0" site="Liverpool (United Kingdom)"/>
<marker lat="42.283" lon="-89.616" site="Freeport (Illinois, United States)"/>
<marker lat="35.966" lon="-94.316" site="Prairie Grove (Arkansas, United States)"/>
<marker lat="43.133" lon="-102.35" site="Brennan (South Dakota, United States)"/>
<marker lat="35.366" lon="-87.0" site="Lynnville (Tennessee, United States)"/>
<marker lat="33.966" lon="-84.566" site="Kenesaw Mountain (Georgia, United States)"/>
<marker lat="38.566" lon="-94.866" site="Paola (Kansas, United States)"/>
<marker lat="34.216" lon="-77.933" site="Wilmington, N. C. (North Carolina, United States)"/>
<marker lat="37.0" lon="-80.0" site="Virginia (Virginia, United States)"/>
<marker lat="41.65" lon="-87.666" site="Blue Island (Illinois, United States)"/>
<marker lat="35.1" lon="-88.35" site="Shiloh, Tenn. (Tennessee, United States)"/>
<marker lat="45.833" lon="1.25" site="Limoges (France)"/>
<marker lat="35.75" lon="-86.733" site="Rutherford Creek (Tennessee, United States)"/>
<marker lat="53.0" lon="-2.0" site="England (United Kingdom)"/>
<marker lat="40.0" lon="-86.0" site="Indiana (Indiana, United States)"/>
<marker lat="35.666" lon="-92.733" site="Arkansas (United States)"/>
<marker lat="26.933" lon="-80.8" site="Lake Okeechobee (Florida, United States)"/>
<marker lat="40.0" lon="-80.833" site="Ohio (Ohio, United States)"/>
<marker lat="35.0" lon="-98.0" site="Oklahoma (Oklahoma, United States)"/>
<marker lat="36.25" lon="-83.83" site="Bull's Gap (Tennessee, United States)"/>
<marker lat="42.483" lon="-89.65" site="Oneco (Illinois, United States)"/>
<marker lat="35.233" lon="-87.333" site="Lawrenceburg (Tennessee, United States)"/>
<marker lat="34.5" lon="-84.666" site="Ackworth, Ga. (Georgia, United States)"/>
<marker lat="34.783" lon="-87.666" site="Florence, Ala. (Alabama, United States)"/>
<marker lat="-0.5" lon="-91.0" site="Pacific Ocean"/>
<marker lat="44.0" lon="-105.833" site="Wyoming (Wyoming, United States)"/>
<marker lat="34.1" lon="-84.7" site="Allatoona (Georgia, United States)"/>
<marker lat="47.333" lon="13.333" site="Austria (Austria)"/>
<marker lat="35.133" lon="-90.33" site="Memphis (Tennessee, United States)"/>
<marker lat="26.933" lon="-80.83" site="Jupiter (Florida, United States)"/>
<marker lat="42.833" lon="12.833" site="Italy (Italy)"/>
<marker lat="33.433" lon="-84.133" site="McDonough (Georgia, United States)"/>
<marker lat="35.666" lon="-86.816" site="Rally Hill (Tennessee, United States)"/>
<marker lat="33.483" lon="-88.416" site="Columbus (Mississippi, United States)"/>
<marker lat="44.0" lon="-120.0" site="Oregon (Oregon, United States)"/>
<marker lat="35.9" lon="-94.383" site="Boonsborough (Arkansas, United States)"/>
<marker lat="40.833" lon="-76.0" site="Pennsylvania (Pennsylvania, United States)"/>
<marker lat="35.383" lon="-94.383" site="Fort Smith (Arkansas, United States)"/>
<marker lat="40.433" lon="-79.983" site="Pittsburgh (Pennsylvania, United States)"/>
<marker lat="38.966" lon="-76.483" site="Annapolis (Maryland, United States)"/>
<marker lat="27.933" lon="-82.45" site="Tampa (Florida, United States)"/>
<marker lat="41.816" lon="-71.4" site="Providence, R. I. (Rhode Island, United States)"/>
<marker lat="38.816" lon="-90.183" site="Missouri (United States)"/>
<marker lat="36.866" lon="-94.183" site="Newtonia (Missouri, United States)"/>
<marker lat="34.266" lon="-85.55" site="Gaylesville (Alabama, United States)"/>
<marker lat="34.566" lon="-85.6" site="Valley Head (Alabama, United States)"/>
<marker lat="29.633" lon="-81.633" site="Palatka (Florida, United States)"/>
<marker lat="37.683" lon="-90.95" site="Grand River, Mo. (Missouri, United States)"/>
<marker lat="39.0" lon="-105.0" site="Colorado (Colorado, United States)"/>
<marker lat="19.333" lon="-96.666" site="Vera Cruz (Veracruz, Mexico)"/>
<marker lat="47.0" lon="8.0" site="Switzerland (Switzerland)"/>
<marker lat="33.766" lon="-84.283" site="Decatur, Ga. (Georgia, United States)"/>
<marker lat="39.83" lon="-94.4" site="Independence, Mo. (Missouri, United States)"/>
<marker lat="44.0" lon="-87.0" site="Lake Michigan (United States)"/>
<marker lat="34.233" lon="-84.933" site="Kingston, Ga. (Georgia, United States)"/>
<marker lat="32.466" lon="-84.983" site="Chattahoochee River, Ga. (Georgia, United States)"/>
<marker lat="38.566" lon="-92.166" site="Jefferson City (Missouri, United States)"/>
<marker lat="36.966" lon="-76.35" site="Hampton Roads (Virginia, United States)"/>
<marker lat="27.95" lon="-80.783" site="San Juan River (Florida, United States)"/>
<marker lat="35.15" lon="-88.316" site="Pittsburg Landing (Tennessee, United States)"/>
<marker lat="34.0" lon="-81.33" site="Columbia (South Carolina, United States)"/>
<marker lat="29.95" lon="-90.66" site="New Orleans (Louisiana, United States)"/>
<marker lat="45.0" lon="-90.0" site="Wisconsin (Wisconsin, United States)"/>
<marker lat="41.383" lon="-73.95" site="West Point (New York, United States)"/>
<marker lat="25.0" lon="-90.0" site="Gulf of Mexico"/>
<marker lat="41.25" lon="-95.933" site="Omaha (Nebraska, United States)"/>
<marker lat="35.25" lon="-77.566" site="Kinston (North Carolina, United States)"/>
<marker lat="35.766" lon="-87.466" site="Centreville (Tennessee, United States)"/>
<marker lat="34.883" lon="-88.1" site="Eastport (Mississippi, United States)"/>
<marker lat="35.216" lon="-80.833" site="Charlotte (North Carolina, United States)"/>
<marker lat="35.85" lon="-86.65" site="Triune (Tennessee, United States)"/>
<marker lat="35.483" lon="-86.45" site="Shelbyville, Tenn. (Tennessee, United States)"/>
<marker lat="39.733" lon="-104.983" site="Denver (Colorado, United States)"/>
<marker lat="41.5" lon="-90.566" site="Rock Island, Ill. (Illinois, United States)"/>
<marker lat="34.15" lon="-84.8" site="Cartersville (Georgia, United States)"/>
<marker lat="34.5" lon="-85.25" site="Cedartown (Georgia, United States)"/>
<marker lat="39.15" lon="-84.45" site="Cincinnati (Ohio, United States)"/>
<marker lat="35.683" lon="-87.216" site="Williamsport (Tennessee, United States)"/>
<marker lat="52.516" lon="-3.5" site="Cambria (United Kingdom)"/>
<marker lat="45.633" lon="-122.65" site="Fort Vancouver (Washington, United States)"/>
<marker lat="35.33" lon="-84.366" site="Ducktown (Tennessee, United States)"/>
<marker lat="31.0" lon="-92.0" site="Louisiana (Louisiana, United States)"/>
<marker lat="42.0" lon="-93.0" site="Iowa (Iowa, United States)"/>
<marker lat="45.0" lon="-115.0" site="Idaho (Idaho, United States)"/>
<marker lat="33.66" lon="-83.216" site="Milledgeville (Georgia, United States)"/>
<marker lat="35.216" lon="-88.516" site="Purdy (Tennessee, United States)"/>
<marker lat="33.6" lon="-88.65" site="West Point (Mississippi, United States)"/>
<marker lat="37.733" lon="-119.55" site="Yosemite Valley (California, United States)"/>
<marker lat="47.0" lon="-100.0" site="North Dakota (North Dakota, United States)"/>
<marker lat="39.816" lon="-77.216" site="Gettysburg (Pennsylvania, United States)"/>
<marker lat="42.25" lon="-79.25" site="Sinclairville (New York, United States)"/>
<marker lat="40.75" lon="-111.883" site="Salt Lake City (Utah, United States)"/>
<marker lat="32.283" lon="-90.183" site="Jackson (Mississippi, United States)"/>
<marker lat="51.416" lon="-118.5" site="Columbia River (United States)"/>
<marker lat="36.1" lon="-83.55" site="New Market (Tennessee, United States)"/>
<marker lat="39.0" lon="-76.833" site="Maryland (Maryland, United States)"/>
<marker lat="47.0" lon="-110.0" site="Montana (Montana, United States)"/>
<marker lat="32.75" lon="-79.833" site="Sullivan's Island (South Carolina, United States)"/>
<marker lat="35.95" lon="-83.116" site="French Broad River (Tennessee, United States)"/>
<marker lat="40.0" lon="-75.0" site="New Jersey (New Jersey, United States)"/>
<marker lat="40.6" lon="-74.5" site="Fort Wadsworth (New York, United States)"/>
<marker lat="41.316" lon="-73.983" site="Fort Clinton (New York, United States)"/>
<marker lat="42.5" lon="-96.4" site="Sioux City (Iowa, United States)"/>
<marker lat="41.583" lon="-109.2" site="Rock Springs (Wyoming, United States)"/>
<marker lat="40.0" lon="-110.0" site="Utah (Utah, United States)"/>
<marker lat="30.0" lon="-100.0" site="Texas (Texas, United States)"/>
<marker lat="33.816" lon="-84.35" site="Peachtree Creek (Georgia, United States)"/>
<marker lat="36.416" lon="-77.583" site="Weldon, N. C. (North Carolina, United States)"/>
<marker lat="30.4" lon="-86.83" site="Indian River (Florida, United States)"/>
<marker lat="35.55" lon="-81.5" site="Laurel Hill (North Carolina, United States)"/>
<marker lat="27.983" lon="-81.366" site="Kissimmee (Florida, United States)"/>
<marker lat="30.316" lon="-81.65" site="Jacksonville (Florida, United States)"/>
<marker lat="48.216" lon="16.366" site="Vienna (Wien, Austria)"/>
<marker lat="41.383" lon="-84.116" site="Napoleon (Ohio, United States)"/>
<marker lat="37.166" lon="-94.3" site="Carthage, Mo. (Missouri, United States)"/>
<marker lat="28.833" lon="-81.266" site="Lake Monroe (Florida, United States)"/>
<marker lat="39.383" lon="-84.55" site="Fort Hamilton (Ohio, United States)"/>
<marker lat="42.716" lon="-73.683" site="Troy, N. Y. (New York, United States)"/>
<marker lat="36.5" lon="-94.15" site="Fayetteville, Ark. (Arkansas, United States)"/>
<marker lat="36.983" lon="-89.133" site="Ohio (United States)"/>
<marker lat="34.85" lon="-84.583" site="Connasauga River (United States)"/>
<marker lat="38.866" lon="-77.1" site="Arlington (Virginia, United States)"/>
<marker lat="35.666" lon="-94.333" site="Lee's Creek, Ark. (Arkansas, United States)"/>
<marker lat="41.883" lon="-87.633" site="Chicago River (Illinois, United States)"/>
</markers>