<markers>
<marker lat="42.25" lon="-71.833" site="Massachusetts (Massachusetts, United States)"/>
<marker lat="42.416" lon="-71.1" site="Medford (Massachusetts, United States)"/>
<marker lat="42.166" lon="-70.75" site="Walnut Tree Hill (Massachusetts, United States)"/>
<marker lat="42.45" lon="-71.35" site="Concord (Massachusetts, United States)"/>
<marker lat="42.683" lon="-71.316" site="Winter Hill (Massachusetts, United States)"/>
<marker lat="42.416" lon="-71.133" site="Mystick River (Massachusetts, United States)"/>
<marker lat="42.4" lon="-71.116" site="College Hill (Massachusetts, United States)"/>
<marker lat="38.0" lon="-98.0" site="United States (United States)"/>
<marker lat="41.6" lon="-81.133" site="Chardon (Ohio, United States)"/>
<marker lat="42.583" lon="-71.2" site="Chelmsford, Mass. (Massachusetts, United States)"/>
<marker lat="38.6" lon="-78.783" site="Broadway (Virginia, United States)"/>
<marker lat="36.833" lon="-76.283" site="Portsmouth, Va. (Virginia, United States)"/>
<marker lat="41.65" lon="-72.33" site="John Brook (Connecticut, United States)"/>
<marker lat="33.666" lon="-84.433" site="South River, Ga. (Georgia, United States)"/>
<marker lat="36.0" lon="138.0" site="Japan (Japan)"/>
<marker lat="42.1" lon="-70.8" site="Hanover (Massachusetts, United States)"/>
<marker lat="51.5" lon="10.5" site="Germany (Germany)"/>
<marker lat="38.8" lon="-80.616" site="Dutch (West Virginia, United States)"/>
<marker lat="42.366" lon="-71.133" site="Mount Auburn (Massachusetts, United States)"/>
<marker lat="42.4" lon="-71.15" site="Spy Pond (Massachusetts, United States)"/>
<marker lat="42.483" lon="-71.266" site="Bedford, Mass. (Massachusetts, United States)"/>
<marker lat="42.25" lon="-88.833" site="Belvidere (Illinois, United States)"/>
<marker lat="42.83" lon="-70.7" site="Marshfield (Massachusetts, United States)"/>
<marker lat="42.583" lon="-70.8" site="Alewife Brook (Massachusetts, United States)"/>
<marker lat="35.533" lon="-96.216" site="Oriental (Oklahoma, United States)"/>
<marker lat="45.0" lon="-69.0" site="Maine (Maine, United States)"/>
<marker lat="44.0" lon="-71.666" site="New Hampshire (New Hampshire, United States)"/>
<marker lat="43.316" lon="-72.633" site="Whitmore Brook (Vermont, United States)"/>
<marker lat="33.0" lon="-87.0" site="Alabama (Alabama, United States)"/>
<marker lat="42.5" lon="-70.866" site="Town Hall (Massachusetts, United States)"/>
<marker lat="42.75" lon="-71.466" site="Nashua (New Hampshire, United States)"/>
<marker lat="42.83" lon="-71.16" site="Brockton (Massachusetts, United States)"/>
<marker lat="38.833" lon="-91.933" site="Fulton, Mo. (Missouri, United States)"/>
<marker lat="14.616" lon="120.966" site="Manila (Philippines)"/>
<marker lat="42.0" lon="-81.0" site="Lake Erie (United States)"/>
<marker lat="42.5" lon="-71.66" site="The Common (Massachusetts, United States)"/>
<marker lat="42.666" lon="-71.416" site="Tyngsborough (Massachusetts, United States)"/>
<marker lat="42.716" lon="-71.2" site="Mystic Pond (Massachusetts, United States)"/>
<marker lat="17.333" lon="-62.75" site="St. Christopher (Saint Kitts and Nevis)"/>
<marker lat="43.233" lon="-72.416" site="Charlestown, N.H. (New Hampshire, United States)"/>
<marker lat="42.766" lon="-70.883" site="Newbury, Mass. (Massachusetts, United States)"/>
<marker lat="41.35" lon="-71.966" site="Mystic, Connecticut (Connecticut, United States)"/>
<marker lat="42.333" lon="-71.2" site="Cambridge (Massachusetts, United States)"/>
<marker lat="41.866" lon="-73.733" site="Market (New York, United States)"/>
<marker lat="42.866" lon="-71.316" site="Derry, N. H. (New Hampshire, United States)"/>
<marker lat="38.15" lon="-76.666" site="Bettys Pond (Virginia, United States)"/>
<marker lat="43.65" lon="-70.25" site="Portland (Maine, United States)"/>
<marker lat="42.283" lon="-73.16" site="Horn Pond (Massachusetts, United States)"/>
<marker lat="42.5" lon="-71.333" site="Middlesex County (Massachusetts, United States)"/>
<marker lat="37.5" lon="14.0" site="Sicily (Italy)"/>
<marker lat="42.25" lon="-71.0" site="Quincy (Massachusetts, United States)"/>
<marker lat="34.416" lon="-119.683" site="Santa Barbara (California, United States)"/>
<marker lat="42.45" lon="-71.66" site="Melrose (Massachusetts, United States)"/>
<marker lat="42.933" lon="-71.5" site="Bedford (New Hampshire, United States)"/>
<marker lat="30.3" lon="-81.966" site="Baldwin, Fla. (Florida, United States)"/>
<marker lat="60.0" lon="47.0" site="Russia (Russia)"/>
<marker lat="53.0" lon="-2.0" site="England (United Kingdom)"/>
<marker lat="37.766" lon="-122.416" site="San Francisco (California, United States)"/>
<marker lat="32.0" lon="-84.0" site="Georgia (Georgia, United States)"/>
<marker lat="60.0" lon="-96.0" site="Canada (Canada)"/>
<marker lat="35.0" lon="105.0" site="China (China)"/>
<marker lat="41.95" lon="-70.666" site="Accomack (Massachusetts, United States)"/>
<marker lat="40.0" lon="-80.833" site="Ohio (Ohio, United States)"/>
<marker lat="37.216" lon="-77.4" site="Petersburg, Va. (Virginia, United States)"/>
<marker lat="39.316" lon="-77.733" site="Harper's Ferry (West Virginia, United States)"/>
<marker lat="34.983" lon="-93.6" site="Waltreak (Arkansas, United States)"/>
<marker lat="41.816" lon="-71.4" site="Providence, R. I. (Rhode Island, United States)"/>
<marker lat="32.5" lon="-114.983" site="Hermosillo (Baja Caifornia Norte, Mexico)"/>
<marker lat="42.366" lon="-71.233" site="Waltham (Massachusetts, United States)"/>
<marker lat="42.7" lon="-71.2" site="Meeting House (Massachusetts, United States)"/>
<marker lat="42.366" lon="-71.183" site="Watertown (Massachusetts, United States)"/>
<marker lat="31.516" lon="-111.65" site="Buenos Ayres (Arizona, United States)"/>
<marker lat="27.0" lon="30.0" site="Egypt (Egypt)"/>
<marker lat="41.983" lon="-70.85" site="Halifax (Massachusetts, United States)"/>
<marker lat="42.66" lon="-70.8" site="Pembroke (Massachusetts, United States)"/>
<marker lat="23.66" lon="-81.583" site="Matanzas (Cuba)"/>
<marker lat="42.483" lon="-71.55" site="Elizabeth Brook (Massachusetts, United States)"/>
<marker lat="42.666" lon="-70.633" site="Pigeon Cove (Massachusetts, United States)"/>
<marker lat="42.666" lon="-70.9" site="Gravelly Brook (Massachusetts, United States)"/>
<marker lat="37.35" lon="-84.333" site="Mount Vernon (Kentucky, United States)"/>
<marker lat="43.2" lon="-71.533" site="Concord, N. H. (New Hampshire, United States)"/>
<marker lat="42.33" lon="-70.666" site="Duxbury (Massachusetts, United States)"/>
<marker lat="41.5" lon="-81.166" site="Geauga (Ohio, United States)"/>
<marker lat="54.0" lon="-72.0" site="Quebec (Canada)"/>
<marker lat="42.366" lon="-71.33" site="Noddle's Island (Massachusetts, United States)"/>
<marker lat="42.383" lon="-71.33" site="Chelsea (Massachusetts, United States)"/>
<marker lat="19.416" lon="-99.166" site="Mexico (Mexico, Mexico)"/>
<marker lat="46.0" lon="2.0" site="France (France)"/>
<marker lat="47.333" lon="13.333" site="Austria (Austria)"/>
<marker lat="-30.0" lon="-71.0" site="Chile (Chile)"/>
<marker lat="42.283" lon="-71.66" site="Dorchester, Mass. (Massachusetts, United States)"/>
<marker lat="42.233" lon="-71.166" site="Dedham (Massachusetts, United States)"/>
<marker lat="41.483" lon="-81.683" site="Cleveland (Ohio, United States)"/>
<marker lat="42.466" lon="-73.583" site="Malden Bridge (New York, United States)"/>
<marker lat="42.833" lon="12.833" site="Italy (Italy)"/>
<marker lat="39.5" lon="-77.816" site="Rock Hill (Virginia, United States)"/>
</markers>