<markers>
<marker lat="53.0" lon="-2.0" site="England (United Kingdom)"/>
<marker lat="40.433" lon="-79.983" site="Pittsburgh (Pennsylvania, United States)"/>
<marker lat="42.25" lon="-71.833" site="Massachusetts (Massachusetts, United States)"/>
<marker lat="41.833" lon="-72.833" site="Connecticut (Connecticut, United States)"/>
<marker lat="40.16" lon="-78.5" site="Fort Bedford (Pennsylvania, United States)"/>
<marker lat="46.0" lon="2.0" site="France (France)"/>
<marker lat="34.0" lon="-80.0" site="South Carolina (South Carolina, United States)"/>
<marker lat="40.833" lon="-76.0" site="Pennsylvania (Pennsylvania, United States)"/>
<marker lat="39.0" lon="-76.833" site="Maryland (Maryland, United States)"/>
<marker lat="35.5" lon="-80.0" site="North Carolina (North Carolina, United States)"/>
<marker lat="41.666" lon="-71.5" site="Rhode Island (Rhode Island, United States)"/>
<marker lat="44.633" lon="-63.583" site="Halifax (Canada)"/>
<marker lat="40.0" lon="-4.0" site="Spain (Spain)"/>
<marker lat="32.0" lon="-84.0" site="Georgia (Georgia, United States)"/>
<marker lat="60.0" lon="-96.0" site="Canada (Canada)"/>
<marker lat="44.0" lon="-71.666" site="New Hampshire (New Hampshire, United States)"/>
<marker lat="42.633" lon="-83.283" site="Pontiac (Michigan, United States)"/>
<marker lat="38.433" lon="-85.166" site="New Castle, Ky. (Kentucky, United States)"/>
<marker lat="42.483" lon="-71.266" site="Bedford, Mass. (Massachusetts, United States)"/>
<marker lat="39.333" lon="-80.16" site="Grafton, W. Va. (West Virginia, United States)"/>
<marker lat="41.75" lon="-70.483" site="Sandwich, Mass. (Massachusetts, United States)"/>
<marker lat="53.733" lon="-1.866" site="Halifax (United Kingdom)"/>
<marker lat="43.366" lon="-72.6" site="Cavendish (Vermont, United States)"/>
<marker lat="57.0" lon="-4.0" site="Scotland (United Kingdom)"/>
<marker lat="37.16" lon="-78.883" site="Patrick Henry (Virginia, United States)"/>
<marker lat="40.0" lon="-75.0" site="New Jersey (New Jersey, United States)"/>
<marker lat="43.166" lon="-78.766" site="Niagara County (New York, United States)"/>
<marker lat="41.816" lon="-71.4" site="Providence, R. I. (Rhode Island, United States)"/>
<marker lat="34.933" lon="-79.766" site="Rockingham, N. C. (North Carolina, United States)"/>
<marker lat="34.25" lon="-85.15" site="Rome, Ga. (Georgia, United States)"/>
<marker lat="41.983" lon="-70.85" site="Halifax (Massachusetts, United States)"/>
<marker lat="53.5" lon="-2.216" site="Manchester (United Kingdom)"/>
<marker lat="40.0" lon="-89.0" site="Illinois (Illinois, United States)"/>
<marker lat="39.0" lon="-75.666" site="Delaware (Delaware, United States)"/>
<marker lat="51.5" lon="10.5" site="Germany (Germany)"/>
<marker lat="37.866" lon="-80.133" site="Alleghany Mountains (United States)"/>
<marker lat="39.0" lon="22.0" site="Greece (Greece)"/>
<marker lat="52.516" lon="-3.5" site="Cambria (United Kingdom)"/>
<marker lat="31.0" lon="-92.0" site="Louisiana (Louisiana, United States)"/>
<marker lat="34.0" lon="-86.0" site="Gadsden (Alabama, United States)"/>
<marker lat="41.75" lon="-72.683" site="Hartford (Connecticut, United States)"/>
<marker lat="54.0" lon="-72.0" site="Quebec (Canada)"/>
<marker lat="40.683" lon="-73.8" site="Jamaica, L. I. (New York, United States)"/>
<marker lat="42.35" lon="-71.5" site="Boston (Massachusetts, United States)"/>
<marker lat="42.0" lon="-81.0" site="Lake Erie (United States)"/>
<marker lat="41.433" lon="-82.7" site="Sandusky, Ohio (Ohio, United States)"/>
<marker lat="42.1" lon="-86.466" site="Newburyport (Michigan, United States)"/>
<marker lat="52.133" lon="-0.483" site="Bedford (United Kingdom)"/>
<marker lat="28.0" lon="-82.0" site="Florida (Florida, United States)"/>
<marker lat="51.383" lon="0.533" site="Chatham (United Kingdom)"/>
<marker lat="52.5" lon="-1.833" site="Birmingham (United Kingdom)"/>
<marker lat="38.733" lon="-77.816" site="Fauquier (Virginia, United States)"/>
<marker lat="41.7" lon="-72.65" site="Wethersfield (Connecticut, United States)"/>
<marker lat="40.766" lon="-74.216" site="Orange, N. J. (New Jersey, United States)"/>
<marker lat="36.433" lon="-76.316" site="South Mills (North Carolina, United States)"/>
<marker lat="42.366" lon="-70.75" site="Massachusetts Bay (Massachusetts, United States)"/>
<marker lat="41.483" lon="-72.66" site="New London county (Connecticut, United States)"/>
<marker lat="42.116" lon="-80.83" site="Erie (Pennsylvania, United States)"/>
<marker lat="41.366" lon="-72.216" site="Lyme (Connecticut, United States)"/>
<marker lat="40.366" lon="-79.566" site="Bushy Run (Pennsylvania, United States)"/>
<marker lat="51.283" lon="1.83" site="Canterbury (United Kingdom)"/>
<marker lat="47.16" lon="-65.6" site="Newcastle (Canada)"/>
<marker lat="40.866" lon="-72.933" site="Carmans River (New York, United States)"/>
<marker lat="45.2" lon="-67.3" site="St. Stephen (Canada)"/>
<marker lat="44.183" lon="-89.416" site="Lake Huron (Wisconsin, United States)"/>
<marker lat="39.95" lon="-76.716" site="York, Pa. (Pennsylvania, United States)"/>
<marker lat="39.566" lon="-76.983" site="Westminster (Maryland, United States)"/>
<marker lat="37.733" lon="-78.85" site="Edge Hill (Virginia, United States)"/>
<marker lat="32.766" lon="-79.916" site="Charleston (South Carolina, United States)"/>
<marker lat="42.533" lon="-71.9" site="Westminster (Massachusetts, United States)"/>
<marker lat="48.866" lon="2.333" site="Department de Ville de Paris (France)"/>
<marker lat="39.916" lon="-75.116" site="Camden, N. J. (New Jersey, United States)"/>
<marker lat="42.833" lon="12.833" site="Italy (Italy)"/>
<marker lat="39.5" lon="-8.0" site="Portugal (Portugal)"/>
<marker lat="51.45" lon="-2.583" site="Bristol (United Kingdom)"/>
<marker lat="38.966" lon="-76.483" site="Annapolis (Maryland, United States)"/>
<marker lat="42.866" lon="-73.183" site="Bennington, Vt. (Vermont, United States)"/>
<marker lat="38.383" lon="-78.883" site="Rockingham, Va. (Virginia, United States)"/>
<marker lat="42.133" lon="-71.25" site="Walpole (Massachusetts, United States)"/>
<marker lat="41.516" lon="-72.66" site="Norwich (Connecticut, United States)"/>
<marker lat="41.483" lon="-71.3" site="Newport (Rhode Island, United States)"/>
<marker lat="1.0" lon="-40.0" site="Atlantic Ocean"/>
<marker lat="37.983" lon="-91.6" site="Saint James (Missouri, United States)"/>
<marker lat="25.0" lon="-90.0" site="Gulf of Mexico"/>
<marker lat="36.833" lon="-76.283" site="Portsmouth, Va. (Virginia, United States)"/>
<marker lat="18.233" lon="-66.55" site="Porto Rico"/>
<marker lat="36.316" lon="-77.583" site="Halifax, N. C. (North Carolina, United States)"/>
<marker lat="34.433" lon="-82.85" site="Savannah River (United States)"/>
<marker lat="38.2" lon="-84.25" site="Paris, Ky. (Kentucky, United States)"/>
<marker lat="25.65" lon="-80.15" site="Cape Florida (Florida, United States)"/>
<marker lat="60.0" lon="47.0" site="Russia (Russia)"/>
<marker lat="42.366" lon="-72.516" site="Amherst (Massachusetts, United States)"/>
<marker lat="42.516" lon="-70.883" site="Salem (Massachusetts, United States)"/>
<marker lat="38.15" lon="-81.183" site="Kanawha (West Virginia, United States)"/>
<marker lat="31.5" lon="34.75" site="Israel (Israel)"/>
<marker lat="41.883" lon="12.5" site="Roma (Italy)"/>
<marker lat="41.833" lon="-72.0" site="Windham (Connecticut, United States)"/>
<marker lat="34.716" lon="-76.733" site="Carolina City (North Carolina, United States)"/>
<marker lat="41.283" lon="-84.35" site="Fort Defiance (Ohio, United States)"/>
<marker lat="54.583" lon="-7.0" site="Ulster (Irish Republic)"/>
<marker lat="32.85" lon="-84.83" site="Culloden (Georgia, United States)"/>
<marker lat="41.683" lon="-72.15" site="Windham, Conn. (Connecticut, United States)"/>
<marker lat="35.5" lon="-85.0" site="Tennessee (Tennessee, United States)"/>
<marker lat="42.25" lon="-72.516" site="Granby (Massachusetts, United States)"/>
<marker lat="40.716" lon="-74.66" site="Hudson (New Jersey, United States)"/>
<marker lat="44.33" lon="-69.533" site="Newcastle, Me. (Maine, United States)"/>
<marker lat="36.716" lon="-76.583" site="Suffolk, Va. (Virginia, United States)"/>
<marker lat="41.883" lon="-71.95" site="Pomfret (Connecticut, United States)"/>
<marker lat="41.266" lon="-72.333" site="Connecticut River (United States)"/>
<marker lat="42.15" lon="-73.416" site="Egremont (Massachusetts, United States)"/>
<marker lat="36.183" lon="-76.45" site="Hertford, N. C. (North Carolina, United States)"/>
<marker lat="10.0" lon="-80.0" site="Central America"/>
<marker lat="23.116" lon="-82.35" site="Havana (Cuba)"/>
<marker lat="19.416" lon="-99.166" site="Mexico (Mexico, Mexico)"/>
<marker lat="36.75" lon="-78.916" site="Halifax, Va. (Virginia, United States)"/>
<marker lat="-10.0" lon="-55.0" site="Brazil (Brazil)"/>
<marker lat="34.4" lon="-80.633" site="Fort Hill (South Carolina, United States)"/>
<marker lat="38.316" lon="-77.466" site="Falmouth, Va. (Virginia, United States)"/>
<marker lat="38.666" lon="-87.516" site="Vincennes (Indiana, United States)"/>
<marker lat="37.983" lon="-77.966" site="Louisa (Virginia, United States)"/>
<marker lat="2.0" lon="48.0" site="Indian Ocean"/>
<marker lat="36.216" lon="-81.666" site="Boone, N. C. (North Carolina, United States)"/>
<marker lat="49.216" lon="-2.116" site="Jersey"/>
<marker lat="43.333" lon="-2.75" site="Biscay (Spain)"/>
<marker lat="53.83" lon="8.8" site="Breme (Bremen, Germany)"/>
<marker lat="53.55" lon="10.0" site="Hamburg (Hamburg, Germany)"/>
<marker lat="44.2" lon="-71.9" site="Lisbon, Grafton County, New Hampshire (New Hampshire, United States)"/>
<marker lat="45.33" lon="-74.75" site="Cornwall (Canada)"/>
<marker lat="37.233" lon="-80.2" site="Roanoke (United States)"/>
<marker lat="41.933" lon="-85.616" site="Moab (Michigan, United States)"/>
<marker lat="41.7" lon="-70.3" site="Barnstable, Mass. (Massachusetts, United States)"/>
<marker lat="35.533" lon="-96.216" site="Oriental (Oklahoma, United States)"/>
<marker lat="42.2" lon="-71.683" site="Grafton (Massachusetts, United States)"/>
<marker lat="42.533" lon="-71.5" site="Littleton (Massachusetts, United States)"/>
<marker lat="52.383" lon="-2.233" site="Kidderminster (United Kingdom)"/>
<marker lat="36.183" lon="-119.816" site="Stratford (California, United States)"/>
<marker lat="45.0" lon="-69.0" site="Maine (Maine, United States)"/>
<marker lat="36.533" lon="-6.3" site="Gades (Spain)"/>
<marker lat="38.0" lon="-98.0" site="Missouri (Missouri, United States)"/>
<marker lat="42.16" lon="-71.533" site="Blackstone (Massachusetts, United States)"/>
<marker lat="41.116" lon="-73.4" site="Norwalk (Connecticut, United States)"/>
<marker lat="39.8" lon="-76.983" site="McAllister (Pennsylvania, United States)"/>
<marker lat="39.366" lon="-87.0" site="Bowling Green (Indiana, United States)"/>
<marker lat="41.833" lon="-71.6" site="Providence County (Rhode Island, United States)"/>
<marker lat="42.433" lon="-71.5" site="Stowe, Mass. (Massachusetts, United States)"/>
<marker lat="51.5" lon="-0.166" site="Lansdowne house (United Kingdom)"/>
<marker lat="36.533" lon="-82.6" site="Holston (Tennessee, United States)"/>
<marker lat="52.916" lon="-1.5" site="Derby (United Kingdom)"/>
<marker lat="41.416" lon="2.166" site="Barcino (Spain)"/>
<marker lat="42.216" lon="-71.0" site="Braintree (Massachusetts, United States)"/>
<marker lat="41.16" lon="-84.33" site="Ottowa (Ohio, United States)"/>
<marker lat="48.8" lon="2.133" site="Versailles (France)"/>
<marker lat="42.316" lon="-72.633" site="Northampton (Massachusetts, United States)"/>
<marker lat="29.95" lon="-90.66" site="New Orleans (Louisiana, United States)"/>
<marker lat="39.683" lon="-75.75" site="Newark (Del.) (Delaware, United States)"/>
<marker lat="41.35" lon="-72.1" site="New London (Connecticut, United States)"/>
<marker lat="43.83" lon="-79.5" site="Manchester (New York, United States)"/>
<marker lat="35.866" lon="-76.733" site="Plymouth, N. C. (North Carolina, United States)"/>
<marker lat="42.35" lon="-82.916" site="Detroit River (Michigan, United States)"/>
<marker lat="41.766" lon="-73.25" site="Litchfield (Connecticut, United States)"/>
<marker lat="51.8" lon="-0.83" site="Hertford (United Kingdom)"/>
<marker lat="51.83" lon="-3.0" site="Somerset (United Kingdom)"/>
<marker lat="51.583" lon="0.55" site="Essex (United Kingdom)"/>
<marker lat="46.666" lon="-68.0" site="Presque Isle (Maine, United States)"/>
<marker lat="54.733" lon="-1.75" site="Durham (United Kingdom)"/>
<marker lat="40.983" lon="-73.783" site="Hutchinson (New York, United States)"/>
<marker lat="43.66" lon="-70.75" site="Portsmouth (New Hampshire, United States)"/>
<marker lat="52.633" lon="1.3" site="Norwich (United Kingdom)"/>
<marker lat="43.366" lon="-81.0" site="Stratford (Canada)"/>
<marker lat="45.616" lon="-74.6" site="Grenville (Canada)"/>
<marker lat="19.0" lon="-70.666" site="Dominican Republic (Dominican Republic)"/>
<marker lat="15.5" lon="-61.333" site="Dominica (Dominica)"/>
<marker lat="42.25" lon="-71.0" site="Quincy (Massachusetts, United States)"/>
<marker lat="42.716" lon="-87.766" site="Racine (Wisconsin, United States)"/>
<marker lat="39.2" lon="-96.6" site="Manhattan, Riley County, Kansas (Kansas, United States)"/>
<marker lat="40.566" lon="-78.716" site="Alleghany River (Pennsylvania, United States)"/>
<marker lat="42.916" lon="-78.933" site="Fort Erie (Canada)"/>
<marker lat="49.5" lon="-64.0" site="Saint Lawrence River (New York, United States)"/>
<marker lat="38.0" lon="-98.0" site="United States (United States)"/>
<marker lat="53.966" lon="-1.83" site="York (United Kingdom)"/>
<marker lat="40.8" lon="-86.8" site="Guernsey (Indiana, United States)"/>
<marker lat="41.33" lon="28.95" site="Constantinople (Turkey)"/>
<marker lat="41.366" lon="-79.8" site="Venango (Pennsylvania, United States)"/>
<marker lat="50.716" lon="-3.516" site="Exeter (United Kingdom)"/>
<marker lat="51.516" lon="-0.616" site="Eton (United Kingdom)"/>
<marker lat="36.83" lon="-78.3" site="Louisburg (North Carolina, United States)"/>
<marker lat="46.216" lon="6.15" site="Geneva (Switzerland)"/>
<marker lat="39.0" lon="35.0" site="Turquie (Turkey)"/>
<marker lat="45.95" lon="-0.966" site="Rochefort (France)"/>
<marker lat="41.116" lon="-85.116" site="Fort Wayne (Indiana, United States)"/>
<marker lat="55.883" lon="-4.25" site="Glasgow (United Kingdom)"/>
<marker lat="39.866" lon="-79.85" site="Puritan (Pennsylvania, United States)"/>
<marker lat="53.916" lon="-6.5" site="Louth (Irish Republic)"/>
<marker lat="53.333" lon="-6.25" site="County Dublin (Irish Republic)"/>
<marker lat="53.25" lon="-6.75" site="Kildare (Irish Republic)"/>
<marker lat="52.666" lon="-8.633" site="Limerick (Irish Republic)"/>
<marker lat="53.583" lon="-6.666" site="Meath (Irish Republic)"/>
<marker lat="35.66" lon="-85.616" site="Jasper, Tenn. (Tennessee, United States)"/>
<marker lat="41.783" lon="-69.983" site="Orleans, Ma. (Massachusetts, United States)"/>
<marker lat="37.0" lon="-119.0" site="California (California, United States)"/>
</markers>