<markers>
<marker lat="45.0" lon="-90.0" site="Wisconsin (Wisconsin, United States)"/>
<marker lat="29.3" lon="-94.783" site="Galveston (Texas, United States)"/>
<marker lat="34.183" lon="-88.716" site="Verona (Mississippi, United States)"/>
<marker lat="35.5" lon="-80.0" site="North Carolina (North Carolina, United States)"/>
<marker lat="44.0" lon="-71.666" site="New Hampshire (New Hampshire, United States)"/>
<marker lat="47.233" lon="-95.2" site="Mississippi (United States)"/>
<marker lat="37.516" lon="-76.783" site="West Point (Virginia, United States)"/>
<marker lat="34.0" lon="-80.0" site="South Carolina (South Carolina, United States)"/>
<marker lat="30.433" lon="-84.266" site="Newton (Florida, United States)"/>
<marker lat="43.0" lon="16.0" site="Adriatic Sea"/>
<marker lat="34.5" lon="-89.9" site="Oakland (Mississippi, United States)"/>
<marker lat="34.0" lon="-88.75" site="Okolona (Mississippi, United States)"/>
<marker lat="40.75" lon="-86.66" site="Peru, Ind. (Indiana, United States)"/>
<marker lat="38.783" lon="-77.6" site="Gainesville (Virginia, United States)"/>
<marker lat="36.1" lon="-84.116" site="Clinton (Tennessee, United States)"/>
<marker lat="38.916" lon="-78.183" site="Front Royal (Virginia, United States)"/>
<marker lat="38.0" lon="-98.0" site="Missouri (Missouri, United States)"/>
<marker lat="36.383" lon="-86.166" site="Hartsville (Tennessee, United States)"/>
<marker lat="38.816" lon="-77.516" site="Bull Run, Va. (Virginia, United States)"/>
<marker lat="38.483" lon="-78.2" site="Deep Run (Virginia, United States)"/>
<marker lat="39.95" lon="-82.716" site="Cumberland, Ohio (Ohio, United States)"/>
<marker lat="38.0" lon="-98.0" site="United States (United States)"/>
<marker lat="40.0" lon="-89.0" site="Illinois (Illinois, United States)"/>
<marker lat="32.0" lon="-84.0" site="Georgia (Georgia, United States)"/>
<marker lat="31.833" lon="-81.5" site="Liberty county, Ga. (Georgia, United States)"/>
<marker lat="37.55" lon="-77.45" site="Richmond (Virginia, United States)"/>
<marker lat="37.55" lon="-77.366" site="Henrico (Virginia, United States)"/>
<marker lat="33.966" lon="-89.666" site="Coffeeville (Mississippi, United States)"/>
<marker lat="32.716" lon="-79.95" site="James Island (South Carolina, United States)"/>
<marker lat="34.166" lon="-82.366" site="Abbeville, S. C. (South Carolina, United States)"/>
<marker lat="35.5" lon="-85.0" site="Tennessee (Tennessee, United States)"/>
<marker lat="42.333" lon="-76.833" site="Havana, N. Y. (New York, United States)"/>
<marker lat="36.416" lon="-77.583" site="Weldon, N. C. (North Carolina, United States)"/>
<marker lat="27.0" lon="30.0" site="Egypt (Egypt)"/>
<marker lat="41.15" lon="-81.35" site="Franklin Mills, Portage County, Ohio (Ohio, United States)"/>
<marker lat="36.983" lon="-78.6" site="Drakes Branch (Virginia, United States)"/>
<marker lat="41.383" lon="-84.116" site="Napoleon (Ohio, United States)"/>
<marker lat="34.0" lon="-81.33" site="Columbia (South Carolina, United States)"/>
<marker lat="37.0" lon="-80.0" site="Virginia (Virginia, United States)"/>
<marker lat="32.366" lon="-80.683" site="Port Royal (South Carolina, United States)"/>
<marker lat="39.15" lon="-84.45" site="Cincinnati (Ohio, United States)"/>
<marker lat="42.833" lon="12.833" site="Italy (Italy)"/>
<marker lat="37.166" lon="-80.383" site="Montgomery County (Virginia, United States)"/>
<marker lat="37.1" lon="-82.716" site="Cumberland River (Kentucky, United States)"/>
</markers>