<markers>
<marker lat="33.733" lon="-84.383" site="Atlanta (Georgia, United States)"/>
<marker lat="33.516" lon="-84.35" site="Jonesboro (Georgia, United States)"/>
<marker lat="34.566" lon="-84.933" site="Resaca (Georgia, United States)"/>
<marker lat="33.95" lon="-84.55" site="Marietta (Georgia, United States)"/>
<marker lat="32.1" lon="-88.65" site="Peach Tree Creek (Mississippi, United States)"/>
<marker lat="33.966" lon="-84.566" site="Kenesaw Mountain (Georgia, United States)"/>
<marker lat="33.916" lon="-84.833" site="Dallas, Ga. (Georgia, United States)"/>
<marker lat="34.833" lon="-85.33" site="Tunnel Hill (Georgia, United States)"/>
<marker lat="34.766" lon="-84.966" site="Dalton, Ga. (Georgia, United States)"/>
<marker lat="34.233" lon="-84.933" site="Kingston, Ga. (Georgia, United States)"/>
<marker lat="32.466" lon="-84.983" site="Chattahoochee River, Ga. (Georgia, United States)"/>
<marker lat="34.9" lon="-85.1" site="Ringgold, Ga. (Georgia, United States)"/>
<marker lat="35.333" lon="-83.133" site="Rocky Face Ridge (North Carolina, United States)"/>
<marker lat="34.366" lon="-84.933" site="Adairsville (Georgia, United States)"/>
<marker lat="34.5" lon="-84.666" site="Ackworth, Ga. (Georgia, United States)"/>
<marker lat="34.25" lon="-85.15" site="Rome, Ga. (Georgia, United States)"/>
<marker lat="40.616" lon="-98.65" site="Kenesaw (Nebraska, United States)"/>
<marker lat="34.233" lon="-84.85" site="Cassville (Georgia, United States)"/>
<marker lat="34.666" lon="-84.233" site="Buzzard Roost (Georgia, United States)"/>
<marker lat="34.65" lon="-84.116" site="Etowah (Georgia, United States)"/>
<marker lat="30.383" lon="-85.266" site="Buck Head (Florida, United States)"/>
<marker lat="35.33" lon="-85.3" site="Chattanooga (Tennessee, United States)"/>
<marker lat="33.983" lon="-84.633" site="Pine Mountain (Georgia, United States)"/>
<marker lat="33.716" lon="-84.5" site="Utoy Creek (Georgia, United States)"/>
<marker lat="34.5" lon="-84.95" site="Calhoun, Ga. (Georgia, United States)"/>
<marker lat="34.9" lon="-85.5" site="Catoosa Springs (Georgia, United States)"/>
<marker lat="32.0" lon="-84.0" site="Georgia (Georgia, United States)"/>
<marker lat="34.8" lon="-85.16" site="Rocky Face (Georgia, United States)"/>
<marker lat="33.666" lon="-84.433" site="East Point (Georgia, United States)"/>
<marker lat="33.133" lon="-83.116" site="Sandtown (Georgia, United States)"/>
<marker lat="35.5" lon="-85.0" site="Tennessee (Tennessee, United States)"/>
<marker lat="33.766" lon="-84.283" site="Decatur, Ga. (Georgia, United States)"/>
<marker lat="35.15" lon="-84.866" site="Cleveland, Tenn. (Tennessee, United States)"/>
<marker lat="38.883" lon="-77.33" site="Washington (United States)"/>
<marker lat="33.933" lon="-78.0" site="Nancys Creek (North Carolina, United States)"/>
<marker lat="32.833" lon="-83.616" site="Macon (Georgia, United States)"/>
<marker lat="34.16" lon="-84.35" site="Roswell, Ga. (Georgia, United States)"/>
<marker lat="40.0" lon="-89.0" site="Illinois (Illinois, United States)"/>
<marker lat="40.0" lon="-80.833" site="Ohio (Ohio, United States)"/>
<marker lat="36.166" lon="-86.75" site="Edgefield (Tennessee, United States)"/>
<marker lat="33.616" lon="-84.483" site="Red Oak (Georgia, United States)"/>
<marker lat="33.416" lon="-84.55" site="Camp Creek (Georgia, United States)"/>
<marker lat="37.383" lon="-77.5" site="Proctor's Creek (Virginia, United States)"/>
<marker lat="33.65" lon="-84.416" site="Flint (Georgia, United States)"/>
<marker lat="34.716" lon="-86.966" site="Rowland (Alabama, United States)"/>
<marker lat="37.316" lon="-77.266" site="City Point (Virginia, United States)"/>
<marker lat="40.0" lon="-86.0" site="Indiana (Indiana, United States)"/>
<marker lat="33.916" lon="-85.15" site="Euharlee Creek (Georgia, United States)"/>
<marker lat="34.1" lon="-84.7" site="Allatoona (Georgia, United States)"/>
<marker lat="34.216" lon="-77.933" site="Wilmington, N. C. (North Carolina, United States)"/>
<marker lat="33.933" lon="-84.683" site="Lost Mountain (Georgia, United States)"/>
<marker lat="38.0" lon="-98.0" site="United States (United States)"/>
<marker lat="37.55" lon="-77.45" site="Richmond (Virginia, United States)"/>
<marker lat="39.833" lon="-88.95" site="Decatur (Illinois, United States)"/>
<marker lat="37.4" lon="-79.133" site="Lynchburg (Virginia, United States)"/>
<marker lat="34.55" lon="-85.0" site="Sugar Valley (Georgia, United States)"/>
<marker lat="40.833" lon="-76.0" site="Pennsylvania (Pennsylvania, United States)"/>
<marker lat="34.966" lon="-85.283" site="Rossville (Georgia, United States)"/>
<marker lat="35.5" lon="-78.866" site="Fayetteville (North Carolina, United States)"/>
<marker lat="32.633" lon="-86.366" site="Coosa River (Alabama, United States)"/>
<marker lat="30.683" lon="-88.33" site="Mobile, Ala. (Alabama, United States)"/>
<marker lat="33.0" lon="-87.0" site="Alabama (Alabama, United States)"/>
<marker lat="34.666" lon="-85.1" site="Villanow (Georgia, United States)"/>
<marker lat="34.65" lon="-84.933" site="Tilton (Georgia, United States)"/>
<marker lat="33.9" lon="-83.35" site="Whitehall (Georgia, United States)"/>
<marker lat="35.383" lon="-77.983" site="Goldsboro (North Carolina, United States)"/>
<marker lat="32.216" lon="-84.7" site="Renfroe (Georgia, United States)"/>
<marker lat="33.933" lon="-84.533" site="Rottenwood Creek (Georgia, United States)"/>
<marker lat="32.83" lon="-81.1" site="Savannah (Georgia, United States)"/>
<marker lat="36.583" lon="-79.383" site="Danville (Virginia, United States)"/>
<marker lat="33.65" lon="-84.666" site="Campbellton, Ga. (Georgia, United States)"/>
<marker lat="41.33" lon="-111.916" site="Peach Tree (Utah, United States)"/>
<marker lat="37.583" lon="-77.1" site="Tunstall (Virginia, United States)"/>
<marker lat="33.983" lon="-85.33" site="Van Wert (Georgia, United States)"/>
<marker lat="33.9" lon="-84.533" site="Nickajack Creek (Georgia, United States)"/>
<marker lat="38.0" lon="-98.0" site="Missouri (Missouri, United States)"/>
<marker lat="39.0" lon="-105.0" site="Colorado (Colorado, United States)"/>
<marker lat="32.35" lon="-90.866" site="Vicksburg (Mississippi, United States)"/>
<marker lat="38.35" lon="-78.683" site="Island Ford (Virginia, United States)"/>
<marker lat="37.333" lon="-77.266" site="Bermuda Hundred (Virginia, United States)"/>
<marker lat="36.583" lon="-90.983" site="Doherty (Missouri, United States)"/>
<marker lat="33.566" lon="-84.566" site="Fairburn (Georgia, United States)"/>
<marker lat="37.66" lon="-88.55" site="Tennessee River (United States)"/>
<marker lat="33.466" lon="-82.16" site="Augusta (Georgia, United States)"/>
<marker lat="32.7" lon="-79.883" site="Morris Island (South Carolina, United States)"/>
<marker lat="37.0" lon="-85.0" site="Kentucky (Kentucky, United States)"/>
<marker lat="46.2" lon="-88.216" site="Noyes Creek (Michigan, United States)"/>
<marker lat="34.966" lon="-85.133" site="Graysville (Georgia, United States)"/>
<marker lat="40.45" lon="-92.16" site="Burnt Church (Missouri, United States)"/>
<marker lat="35.133" lon="-90.33" site="Memphis (Tennessee, United States)"/>
<marker lat="39.183" lon="-78.15" site="Winchester, Va. (Virginia, United States)"/>
<marker lat="36.883" lon="-77.316" site="Howells Mill (Virginia, United States)"/>
<marker lat="47.233" lon="-95.2" site="Mississippi (United States)"/>
<marker lat="32.866" lon="-85.183" site="West Point (Georgia, United States)"/>
<marker lat="33.95" lon="-84.716" site="Allatoona Creek (Georgia, United States)"/>
<marker lat="32.66" lon="-99.83" site="Red River (Texas, United States)"/>
<marker lat="39.0" lon="-76.833" site="Maryland (Maryland, United States)"/>
<marker lat="35.583" lon="-79.5" site="Cape Fear (North Carolina, United States)"/>
<marker lat="35.35" lon="-86.2" site="Tullahoma (Tennessee, United States)"/>
<marker lat="34.716" lon="-76.65" site="Beaufort, N. C. (North Carolina, United States)"/>
<marker lat="34.15" lon="-84.8" site="Cartersville (Georgia, United States)"/>
<marker lat="34.716" lon="-86.583" site="Huntsville (Alabama, United States)"/>
<marker lat="37.183" lon="-78.2" site="Burkeville (Virginia, United States)"/>
<marker lat="39.316" lon="-77.733" site="Harper's Ferry (West Virginia, United States)"/>
<marker lat="39.83" lon="-84.6" site="Hatcher's Run (Ohio, United States)"/>
<marker lat="35.95" lon="-83.916" site="Knoxville (Tennessee, United States)"/>
<marker lat="35.66" lon="-85.5" site="Ooltewah (Tennessee, United States)"/>
<marker lat="32.766" lon="-79.916" site="Charleston (South Carolina, United States)"/>
<marker lat="39.83" lon="-84.5" site="Covington (Kentucky, United States)"/>
<marker lat="35.5" lon="-80.0" site="North Carolina (North Carolina, United States)"/>
<marker lat="34.0" lon="-80.0" site="South Carolina (South Carolina, United States)"/>
<marker lat="37.3" lon="-78.383" site="Farmville (Virginia, United States)"/>
<marker lat="32.366" lon="-86.3" site="Montgomery (Alabama, United States)"/>
<marker lat="35.0" lon="-93.0" site="Arkansas (Arkansas, United States)"/>
<marker lat="35.266" lon="-92.366" site="Pea Vine Creek (Arkansas, United States)"/>
<marker lat="33.433" lon="-84.133" site="McDonough (Georgia, United States)"/>
<marker lat="35.766" lon="-78.633" site="Raleigh (North Carolina, United States)"/>
<marker lat="31.716" lon="-84.833" site="Cemochechobee Creek (Georgia, United States)"/>
<marker lat="35.866" lon="-85.833" site="Blue Springs (Tennessee, United States)"/>
<marker lat="33.0" lon="-90.0" site="Mississippi (Mississippi, United States)"/>
<marker lat="38.16" lon="-78.466" site="Charlottesville (Virginia, United States)"/>
<marker lat="34.0" lon="-81.33" site="Columbia (South Carolina, United States)"/>
<marker lat="36.216" lon="-93.1" site="Crooked Creek, Ark. (Arkansas, United States)"/>
<marker lat="38.133" lon="-79.66" site="Staunton, Va. (Virginia, United States)"/>
<marker lat="33.8" lon="-85.666" site="Nancy's Creek (Alabama, United States)"/>
<marker lat="36.85" lon="-81.733" site="Saltville (Virginia, United States)"/>
<marker lat="39.25" lon="-94.583" site="Shoal Creek, Mo. (Missouri, United States)"/>
<marker lat="35.5" lon="-83.533" site="Rough-hew Ridge (North Carolina, United States)"/>
<marker lat="30.0" lon="-100.0" site="Texas (Texas, United States)"/>
<marker lat="32.633" lon="-85.366" site="Opelika (Alabama, United States)"/>
<marker lat="36.416" lon="-77.583" site="Weldon, N. C. (North Carolina, United States)"/>
<marker lat="37.366" lon="-86.466" site="Ready (Kentucky, United States)"/>
<marker lat="39.0" lon="-80.0" site="West Virginia (West Virginia, United States)"/>
<marker lat="38.633" lon="-78.666" site="New Market (Virginia, United States)"/>
<marker lat="39.283" lon="-76.6" site="Baltimore, Md. (Maryland, United States)"/>
<marker lat="35.116" lon="-88.5" site="Muddy Creek (Tennessee, United States)"/>
<marker lat="36.16" lon="-87.966" site="Johnsonville, Tenn. (Tennessee, United States)"/>
<marker lat="34.866" lon="-85.833" site="Stevenson (Alabama, United States)"/>
<marker lat="32.45" lon="-85.85" site="Hornady (Alabama, United States)"/>
<marker lat="33.233" lon="-84.25" site="Griffin (Georgia, United States)"/>
<marker lat="40.85" lon="-75.116" site="Centreville (Pennsylvania, United States)"/>
<marker lat="38.15" lon="-81.183" site="Kanawha (West Virginia, United States)"/>
<marker lat="31.9" lon="-104.816" site="Pine Top Mountain (Texas, United States)"/>
<marker lat="39.283" lon="-75.6" site="Smyrna, Del. (Delaware, United States)"/>
<marker lat="32.516" lon="-93.75" site="Shreveport (Louisiana, United States)"/>
<marker lat="36.66" lon="-79.783" site="Greensboro (North Carolina, United States)"/>
<marker lat="37.4" lon="-78.816" site="Appomattox (Virginia, United States)"/>
<marker lat="37.216" lon="-77.4" site="Petersburg, Va. (Virginia, United States)"/>
<marker lat="36.933" lon="-81.83" site="Wytheville (Virginia, United States)"/>
<marker lat="36.966" lon="-76.35" site="Hampton Roads (Virginia, United States)"/>
<marker lat="39.366" lon="-77.383" site="Frederick Junction (Maryland, United States)"/>
<marker lat="38.933" lon="-82.33" site="Mission Ridge (West Virginia, United States)"/>
<marker lat="38.133" lon="-78.183" site="Gordonsville (Virginia, United States)"/>
<marker lat="30.433" lon="-88.0" site="Mobile Bay (Alabama, United States)"/>
<marker lat="35.683" lon="-85.766" site="McMinnville (Tennessee, United States)"/>
<marker lat="31.0" lon="-92.0" site="Louisiana (Louisiana, United States)"/>
<marker lat="38.35" lon="-78.833" site="Cross Keys (Virginia, United States)"/>
<marker lat="36.716" lon="-76.583" site="Suffolk, Va. (Virginia, United States)"/>
<marker lat="34.283" lon="-84.916" site="Connasene Creek (Georgia, United States)"/>
<marker lat="38.466" lon="-77.983" site="Culpeper, Va. (Virginia, United States)"/>
<marker lat="36.933" lon="-77.4" site="Stony Creek (Virginia, United States)"/>
<marker lat="35.216" lon="-80.833" site="Charlotte (North Carolina, United States)"/>
<marker lat="36.316" lon="-113.166" site="High Mountains (Arizona, United States)"/>
<marker lat="34.0" lon="-83.35" site="Barrett's Mill (Georgia, United States)"/>
<marker lat="37.783" lon="-79.433" site="Lexington, Va. (Virginia, United States)"/>
<marker lat="31.8" lon="-93.83" site="Grand Ecore (Louisiana, United States)"/>
<marker lat="36.83" lon="-78.8" site="Neuse (North Carolina, United States)"/>
<marker lat="34.183" lon="-79.75" site="Florence, S. C. (South Carolina, United States)"/>
<marker lat="33.8" lon="-84.166" site="Stone Mountain (Georgia, United States)"/>
<marker lat="34.7" lon="-85.266" site="La Fayette (Georgia, United States)"/>
<marker lat="32.45" lon="-84.983" site="Columbus (Georgia, United States)"/>
<marker lat="34.9" lon="-85.83" site="Cherokee Springs (Georgia, United States)"/>
<marker lat="34.233" lon="-85.333" site="Cave Spring, Ga. (Georgia, United States)"/>
<marker lat="38.35" lon="-77.933" site="Raccoon Ford (Virginia, United States)"/>
<marker lat="37.416" lon="-77.45" site="Drewry's Bluff (Virginia, United States)"/>
<marker lat="34.8" lon="-86.966" site="Athens, Ala. (Alabama, United States)"/>
<marker lat="31.66" lon="-86.55" site="Run Creek (Alabama, United States)"/>
<marker lat="30.216" lon="-88.16" site="Fort Morgan (Alabama, United States)"/>
<marker lat="37.133" lon="-77.616" site="Five Forks (Virginia, United States)"/>
<marker lat="30.416" lon="-87.216" site="Pensacola (Florida, United States)"/>
<marker lat="39.16" lon="-78.3" site="Meadow Mills (Virginia, United States)"/>
<marker lat="34.416" lon="-78.283" site="White Oak (North Carolina, United States)"/>
<marker lat="37.283" lon="-78.83" site="Jetersville (Virginia, United States)"/>
<marker lat="39.65" lon="-78.75" site="Cumberland (Maryland, United States)"/>
<marker lat="35.6" lon="-87.33" site="Columbia, Tenn. (Tennessee, United States)"/>
<marker lat="39.383" lon="-81.533" site="Tunnel Station (Ohio, United States)"/>
<marker lat="33.65" lon="-84.116" site="Arabia Mountain (Georgia, United States)"/>
<marker lat="32.433" lon="-89.1" site="Decatur (Mississippi, United States)"/>
<marker lat="33.2" lon="-87.566" site="Shelbyville (Alabama, United States)"/>
<marker lat="35.983" lon="-86.45" site="Stone River (Tennessee, United States)"/>
<marker lat="36.316" lon="-83.433" site="Richland Creek (Tennessee, United States)"/>
<marker lat="31.683" lon="-89.183" site="Flynt (Mississippi, United States)"/>
<marker lat="32.4" lon="-87.16" site="Selma (Alabama, United States)"/>
<marker lat="38.2" lon="-77.583" site="Spottsylvania (Virginia, United States)"/>
<marker lat="33.983" lon="-84.633" site="Noonday Creek (Georgia, United States)"/>
<marker lat="31.85" lon="-93.5" site="Pleasant Hill (Louisiana, United States)"/>
<marker lat="32.65" lon="-81.816" site="Chattoogata Mountain (Georgia, United States)"/>
<marker lat="34.883" lon="-88.1" site="Eastport (Mississippi, United States)"/>
<marker lat="36.66" lon="-80.233" site="South Side (North Carolina, United States)"/>
<marker lat="34.116" lon="-79.75" site="South Side (South Carolina, United States)"/>
</markers>