<markers>
<marker lat="27.0" lon="30.0" site="Egypt (Egypt)"/>
<marker lat="31.766" lon="35.233" site="Jerusalem (Israel)"/>
<marker lat="31.2" lon="29.9" site="Alexandria (Egypt)"/>
<marker lat="32.55" lon="44.4" site="Babylon (Iraq)"/>
<marker lat="35.0" lon="38.0" site="Syria (Syria)"/>
<marker lat="8.0" lon="39.0" site="Ethiopia (Ethiopia)"/>
<marker lat="36.8667" lon="10.3333" site="Carthage (Tunisia)"/>
<marker lat="30.966" lon="31.866" site="Tanis (Egypt)"/>
<marker lat="33.266" lon="35.183" site="Tyre (Lebanon)"/>
<marker lat="41.9" lon="12.4833" site="Rome (Italy)"/>
<marker lat="31.416" lon="34.333" site="Gaza (Israel)"/>
<marker lat="32.616" lon="34.916" site="Dora (Israel)"/>
<marker lat="39.0" lon="22.0" site="Greece (Greece)"/>
<marker lat="37.6417" lon="22.7333" site="Argos (Greece)"/>
<marker lat="32.0" lon="53.0" site="Persia (Iran)"/>
<marker lat="25.0" lon="17.0" site="Libya (Libya)"/>
<marker lat="37.9667" lon="23.7333" site="Athens (Greece)"/>
<marker lat="34.0" lon="36.2" site="Heliopolis (Lebanon)"/>
<marker lat="31.916" lon="35.333" site="Palestine"/>
<marker lat="29.85" lon="31.25" site="Memphis (Egypt)"/>
<marker lat="32.833" lon="21.866" site="Cyrene (Libya)"/>
<marker lat="31.5" lon="34.75" site="Israel (Israel)"/>
<marker lat="25.0" lon="45.0" site="Arabia"/>
<marker lat="37.916" lon="27.316" site="Ephesus (Turkey)"/>
<marker lat="28.533" lon="33.983" site="Mount Sinai (Egypt)"/>
<marker lat="-22.616" lon="-50.416" site="Assis (Sao Paulo, Brazil)"/>
<marker lat="30.166" lon="31.1" site="Nile"/>
<marker lat="37.175" lon="21.9333" site="Messene (Greece)"/>
<marker lat="35.0" lon="33.0" site="Cyprus (Cyprus)"/>
<marker lat="32.8" lon="35.533" site="Tiberias (Israel)"/>
<marker lat="32.75" lon="35.33" site="Mount Carmel (Israel)"/>
<marker lat="51.33" lon="6.283" site="Baal (North Rhine-Westphalia, Germany)"/>
<marker lat="33.5" lon="36.316" site="Damascus (Syria)"/>
<marker lat="37.5" lon="27.466" site="Halicarnassus (Turkey)"/>
<marker lat="38.4917" lon="22.5167" site="Delphi (Greece)"/>
<marker lat="37.5" lon="27.3" site="Milet (Turkey)"/>
<marker lat="35.75" lon="-82.583" site="Jupiter (North Carolina, United States)"/>
<marker lat="36.233" lon="36.116" site="Antioch (Turkey)"/>
<marker lat="39.9167" lon="26.2833" site="Troy (Turkey)"/>
<marker lat="40.0" lon="-4.0" site="Spain (Spain)"/>
<marker lat="39.95" lon="26.25" site="Ilium (Turkey)"/>
<marker lat="38.483" lon="22.5" site="Pytho (Greece)"/>
<marker lat="32.533" lon="20.583" site="Arsinoe (Libya)"/>
<marker lat="38.4667" lon="23.6083" site="Chalcis (Greece)"/>
<marker lat="42.0" lon="38.0" site="Pontus"/>
<marker lat="32.9" lon="35.333" site="Galilee (Israel)"/>
<marker lat="38.4" lon="20.666" site="Ithaca (Greece)"/>
<marker lat="37.4083" lon="22.1417" site="Megalopolis (Greece)"/>
<marker lat="15.0" lon="42.0" site="Red Sea"/>
<marker lat="36.683" lon="24.416" site="Melos (Greece)"/>
<marker lat="41.833" lon="22.0" site="Macedonia (Macedonia)"/>
<marker lat="38.5" lon="36.0" site="Cappadocia (Turkey)"/>
<marker lat="31.83" lon="47.5" site="Euphrates"/>
<marker lat="54.366" lon="-4.433" site="Andreas"/>
<marker lat="38.325" lon="23.3333" site="Thebes (Greece)"/>
</markers>