<markers>
<marker lat="34.0" lon="-80.0" site="South Carolina (South Carolina, United States)"/>
<marker lat="42.833" lon="12.833" site="Italy (Italy)"/>
<marker lat="38.0" lon="-98.0" site="United States (United States)"/>
<marker lat="41.216" lon="13.6" site="Gaeta (Italy)"/>
<marker lat="40.0" lon="-110.0" site="Utah (Utah, United States)"/>
<marker lat="60.0" lon="47.0" site="Russia (Russia)"/>
<marker lat="32.0" lon="-84.0" site="Georgia (Georgia, United States)"/>
<marker lat="46.0" lon="2.0" site="France (France)"/>
<marker lat="47.333" lon="13.333" site="Austria (Austria)"/>
<marker lat="36.75" lon="-78.933" site="Halifax county (Virginia, United States)"/>
<marker lat="38.0" lon="-98.0" site="Missouri (Missouri, United States)"/>
<marker lat="39.916" lon="116.433" site="Peking (China)"/>
<marker lat="37.75" lon="-77.466" site="Ashland (Virginia, United States)"/>
<marker lat="37.5" lon="14.0" site="Sicily (Italy)"/>
<marker lat="40.833" lon="14.25" site="Naples (Italy)"/>
<marker lat="41.85" lon="-87.65" site="Chicago (Illinois, United States)"/>
<marker lat="35.3" lon="-86.95" site="Odd Fellows Hall (Tennessee, United States)"/>
<marker lat="39.283" lon="-76.6" site="Baltimore, Md. (Maryland, United States)"/>
<marker lat="34.25" lon="-85.15" site="Rome, Ga. (Georgia, United States)"/>
<marker lat="40.0" lon="9.0" site="Sardinia (Italy)"/>
<marker lat="37.4" lon="-79.133" site="Lynchburg (Virginia, United States)"/>
<marker lat="35.0" lon="105.0" site="China (China)"/>
<marker lat="35.5" lon="-80.0" site="North Carolina (North Carolina, United States)"/>
<marker lat="37.75" lon="-77.483" site="Hanover County (Virginia, United States)"/>
<marker lat="37.333" lon="-77.966" site="Amelia Court House (Virginia, United States)"/>
<marker lat="37.266" lon="-76.7" site="Williamsburg (Virginia, United States)"/>
<marker lat="32.75" lon="-79.85" site="Fort Moultrie (South Carolina, United States)"/>
<marker lat="53.833" lon="-1.583" site="Leedes (United Kingdom)"/>
<marker lat="48.866" lon="2.333" site="Department de Ville de Paris (France)"/>
<marker lat="37.35" lon="-78.16" site="Amelia (Virginia, United States)"/>
<marker lat="32.35" lon="-90.866" site="Vicksburg (Mississippi, United States)"/>
<marker lat="44.0" lon="-85.0" site="Michigan (Michigan, United States)"/>
<marker lat="43.0" lon="-75.0" site="New York State (New York, United States)"/>
<marker lat="38.316" lon="-88.9" site="Mount Vernon, Jefferson County, Illinois (Illinois, United States)"/>
<marker lat="31.55" lon="-91.4" site="Natchez (Mississippi, United States)"/>
<marker lat="37.383" lon="-77.9" site="Chula Depot (Virginia, United States)"/>
<marker lat="40.3" lon="-90.5" site="Havana (Illinois, United States)"/>
<marker lat="48.866" lon="2.333" site="Paris (France)"/>
<marker lat="29.95" lon="-90.66" site="New Orleans (Louisiana, United States)"/>
<marker lat="38.1" lon="-82.6" site="Louisa, Ky. (Kentucky, United States)"/>
<marker lat="35.5" lon="-78.866" site="Fayetteville (North Carolina, United States)"/>
<marker lat="47.383" lon="8.55" site="Zurich (Switzerland)"/>
<marker lat="45.0" lon="8.0" site="Piedmont (Italy)"/>
<marker lat="37.33" lon="-78.483" site="Keysville (Virginia, United States)"/>
<marker lat="55.0" lon="-7.316" site="Londonderry (United Kingdom)"/>
<marker lat="38.8" lon="-77.33" site="Alexandria (Virginia, United States)"/>
<marker lat="43.7" lon="-79.416" site="York (Canada)"/>
<marker lat="38.666" lon="-98.0" site="Kansas (Kansas, United States)"/>
<marker lat="33.666" lon="-84.433" site="South River, Ga. (Georgia, United States)"/>
<marker lat="45.66" lon="7.666" site="Turin (Italy)"/>
<marker lat="41.883" lon="12.5" site="Roma (Italy)"/>
<marker lat="37.216" lon="-77.4" site="Petersburg, Va. (Virginia, United States)"/>
<marker lat="40.833" lon="-76.0" site="Pennsylvania (Pennsylvania, United States)"/>
<marker lat="32.366" lon="-86.3" site="Montgomery (Alabama, United States)"/>
<marker lat="43.66" lon="-89.4" site="Madison (Wisconsin, United States)"/>
<marker lat="41.816" lon="-71.4" site="Providence, R. I. (Rhode Island, United States)"/>
<marker lat="34.816" lon="-81.416" site="Cotton (South Carolina, United States)"/>
<marker lat="41.83" lon="14.25" site="Capua (Italy)"/>
<marker lat="38.983" lon="-78.35" site="Strasburg, Va. (Virginia, United States)"/>
<marker lat="40.533" lon="-75.933" site="Windsor Castle (Pennsylvania, United States)"/>
<marker lat="44.0" lon="-73.0" site="Vermont (Vermont, United States)"/>
<marker lat="44.633" lon="-71.316" site="Coos County (New Hampshire, United States)"/>
<marker lat="39.1" lon="-77.55" site="Leesburg (Virginia, United States)"/>
<marker lat="31.66" lon="35.383" site="Sodom (Israel)"/>
<marker lat="31.1" lon="121.366" site="Shanghai (China)"/>
<marker lat="48.216" lon="16.366" site="Vienna (Wien, Austria)"/>
<marker lat="39.55" lon="-95.116" site="Atchison, Kan. (Kansas, United States)"/>
<marker lat="41.66" lon="14.333" site="Torre (Italy)"/>
<marker lat="41.883" lon="-71.95" site="Pomfret (Connecticut, United States)"/>
<marker lat="39.383" lon="-84.55" site="Fort Hamilton (Ohio, United States)"/>
<marker lat="43.1" lon="-75.216" site="Utica (New York, United States)"/>
<marker lat="41.75" lon="-72.683" site="Hartford (Connecticut, United States)"/>
<marker lat="36.166" lon="-86.75" site="Edgefield (Tennessee, United States)"/>
<marker lat="34.216" lon="-77.933" site="Wilmington, N. C. (North Carolina, United States)"/>
<marker lat="39.95" lon="-82.983" site="Franklin (Ohio, United States)"/>
<marker lat="34.0" lon="-81.33" site="Columbia (South Carolina, United States)"/>
<marker lat="45.0" lon="-90.0" site="Wisconsin (Wisconsin, United States)"/>
<marker lat="40.95" lon="-91.55" site="Mount Pleasant, Henry County, Iowa (Iowa, United States)"/>
<marker lat="39.566" lon="-77.95" site="Georgetown (West Virginia, United States)"/>
<marker lat="40.6" lon="-74.266" site="Rahway, N. J. (New Jersey, United States)"/>
<marker lat="32.766" lon="-79.916" site="Charleston (South Carolina, United States)"/>
<marker lat="39.0" lon="22.0" site="Greece (Greece)"/>
<marker lat="36.583" lon="-79.383" site="Danville (Virginia, United States)"/>
<marker lat="37.983" lon="-77.966" site="Louisa (Virginia, United States)"/>
<marker lat="38.833" lon="-81.683" site="Jackson County (West Virginia, United States)"/>
<marker lat="37.95" lon="-80.416" site="Greenbrier (West Virginia, United States)"/>
</markers>