<markers>
<marker lat="38.0" lon="-98.0" site="United States (United States)"/>
<marker lat="35.5" lon="-80.0" site="North Carolina (North Carolina, United States)"/>
<marker lat="39.333" lon="-78.75" site="Romney (West Virginia, United States)"/>
<marker lat="38.0" lon="-98.0" site="Missouri (Missouri, United States)"/>
<marker lat="36.966" lon="-76.35" site="Hampton Roads (Virginia, United States)"/>
<marker lat="37.65" lon="-82.766" site="Prestonburg (Kentucky, United States)"/>
<marker lat="46.0" lon="2.0" site="France (France)"/>
<marker lat="34.0" lon="-80.0" site="South Carolina (South Carolina, United States)"/>
<marker lat="37.75" lon="-77.483" site="Hanover County (Virginia, United States)"/>
<marker lat="37.0" lon="-80.0" site="Virginia (Virginia, United States)"/>
<marker lat="32.366" lon="-80.683" site="Port Royal (South Carolina, United States)"/>
<marker lat="36.95" lon="-76.316" site="Sewell's Point (Virginia, United States)"/>
<marker lat="37.55" lon="-80.183" site="Hanging Rock, Va. (Virginia, United States)"/>
<marker lat="51.66" lon="-1.25" site="Hampshire (United Kingdom)"/>
<marker lat="32.0" lon="-84.0" site="Georgia (Georgia, United States)"/>
<marker lat="35.5" lon="-85.0" site="Tennessee (Tennessee, United States)"/>
<marker lat="37.433" lon="-84.633" site="Green (Kentucky, United States)"/>
<marker lat="37.833" lon="-87.583" site="Henderson, Ky. (Kentucky, United States)"/>
<marker lat="39.566" lon="-75.683" site="Kirkwood (Delaware, United States)"/>
<marker lat="37.25" lon="-85.883" site="Woodsonville (Kentucky, United States)"/>
<marker lat="42.25" lon="-71.833" site="Massachusetts (Massachusetts, United States)"/>
<marker lat="37.95" lon="-91.766" site="Rolla, Mo. (Missouri, United States)"/>
<marker lat="33.0" lon="-87.0" site="Alabama (Alabama, United States)"/>
<marker lat="41.366" lon="-83.65" site="Bowling Green, Wood County, Ohio (Ohio, United States)"/>
<marker lat="38.516" lon="-77.283" site="Shipping Point, Va. (Virginia, United States)"/>
<marker lat="40.733" lon="-89.0" site="El Paso, Woodford County, Illinois (Illinois, United States)"/>
<marker lat="60.0" lon="47.0" site="Russia (Russia)"/>
<marker lat="31.0" lon="-92.0" site="Louisiana (Louisiana, United States)"/>
<marker lat="41.416" lon="-84.383" site="Evansport (Ohio, United States)"/>
<marker lat="33.95" lon="-83.366" site="Athens (Georgia, United States)"/>
<marker lat="35.6" lon="-82.55" site="Morristown (North Carolina, United States)"/>
<marker lat="39.4" lon="-76.733" site="Green Spring Valley (Maryland, United States)"/>
<marker lat="39.0" lon="-76.833" site="Maryland (Maryland, United States)"/>
<marker lat="44.0" lon="-85.0" site="Michigan (Michigan, United States)"/>
<marker lat="35.216" lon="-75.516" site="Cape Hatteras (North Carolina, United States)"/>
<marker lat="38.2" lon="-78.883" site="Piedmont, Va. (Virginia, United States)"/>
<marker lat="37.566" lon="-76.633" site="Batt (Virginia, United States)"/>
<marker lat="37.483" lon="-77.0" site="New Kent (Virginia, United States)"/>
<marker lat="35.1" lon="-77.33" site="New Bern (North Carolina, United States)"/>
<marker lat="38.516" lon="-84.833" site="Owen County (Kentucky, United States)"/>
<marker lat="38.666" lon="-90.716" site="Hamburg (Missouri, United States)"/>
<marker lat="34.25" lon="-85.15" site="Rome, Ga. (Georgia, United States)"/>
<marker lat="51.5" lon="-0.166" site="St. Paul's church (United Kingdom)"/>
<marker lat="42.783" lon="-81.2" site="Saint Thomas (Canada)"/>
<marker lat="38.35" lon="-78.933" site="Mount Crawford (Virginia, United States)"/>
<marker lat="38.816" lon="-77.516" site="Bull Run, Va. (Virginia, United States)"/>
<marker lat="36.883" lon="-76.35" site="Craney Island (Virginia, United States)"/>
<marker lat="37.516" lon="-76.783" site="West Point (Virginia, United States)"/>
<marker lat="36.483" lon="-87.85" site="Fort Donelson (Tennessee, United States)"/>
<marker lat="42.916" lon="-78.933" site="Fort Erie (Canada)"/>
<marker lat="43.15" lon="-77.6" site="Rochester (New York, United States)"/>
<marker lat="38.55" lon="-77.25" site="Cockpit Point (Virginia, United States)"/>
<marker lat="32.25" lon="-106.0" site="Fort Bliss (Texas, United States)"/>
<marker lat="37.83" lon="-88.6" site="Paducah (Kentucky, United States)"/>
<marker lat="37.8" lon="-82.8" site="Paintsville (Kentucky, United States)"/>
<marker lat="38.516" lon="-77.6" site="Aquia Creek (Virginia, United States)"/>
<marker lat="53.0" lon="-2.0" site="England (United Kingdom)"/>
<marker lat="38.683" lon="-77.9" site="Waterloo, Va. (Virginia, United States)"/>
<marker lat="35.5" lon="-85.516" site="Spring Creek (Tennessee, United States)"/>
<marker lat="34.9" lon="-85.1" site="Ringgold, Ga. (Georgia, United States)"/>
<marker lat="43.7" lon="-79.416" site="York (Canada)"/>
<marker lat="38.666" lon="-98.0" site="Kansas (Kansas, United States)"/>
<marker lat="40.0" lon="-89.0" site="Illinois (Illinois, United States)"/>
<marker lat="32.83" lon="-81.1" site="Savannah (Georgia, United States)"/>
<marker lat="34.733" lon="-92.283" site="Little Rock (Arkansas, United States)"/>
<marker lat="31.5" lon="34.75" site="Israel (Israel)"/>
<marker lat="47.9" lon="1.9" site="Orleans (France)"/>
<marker lat="41.666" lon="-71.5" site="Rhode Island (Rhode Island, United States)"/>
<marker lat="35.3" lon="-75.933" site="Pamlico Sound (North Carolina, United States)"/>
<marker lat="39.316" lon="-77.733" site="Harper's Ferry (West Virginia, United States)"/>
<marker lat="35.0" lon="-93.0" site="Arkansas (Arkansas, United States)"/>
<marker lat="30.4" lon="-88.166" site="East Fowl River (Alabama, United States)"/>
<marker lat="37.55" lon="-77.45" site="Richmond (Virginia, United States)"/>
<marker lat="38.883" lon="-77.33" site="Washington (United States)"/>
<marker lat="38.833" lon="-76.85" site="Prince Georges (Maryland, United States)"/>
<marker lat="37.55" lon="-77.366" site="Henrico (Virginia, United States)"/>
<marker lat="37.9" lon="-83.933" site="Sage Point (Kentucky, United States)"/>
<marker lat="32.933" lon="-79.6" site="Bull's Bay, S. C. (South Carolina, United States)"/>
<marker lat="36.866" lon="-94.366" site="Neosho, Mo. (Missouri, United States)"/>
<marker lat="38.233" lon="-84.866" site="Franklin County (Kentucky, United States)"/>
<marker lat="41.666" lon="-74.866" site="Lake Superior (New York, United States)"/>
<marker lat="23.0" lon="-102.0" site="Mexico (Mexico)"/>
<marker lat="37.66" lon="-77.583" site="Dinwiddie Court House (Virginia, United States)"/>
<marker lat="39.3" lon="-82.45" site="Creole (Ohio, United States)"/>
<marker lat="39.2" lon="-79.16" site="Williamsport (West Virginia, United States)"/>
<marker lat="35.683" lon="-75.716" site="Old Point (North Carolina, United States)"/>
<marker lat="36.633" lon="-80.25" site="Stuart (Virginia, United States)"/>
<marker lat="41.33" lon="-95.733" site="Glenwood, Mills County, Iowa (Iowa, United States)"/>
<marker lat="39.95" lon="-76.716" site="York, Pa. (Pennsylvania, United States)"/>
<marker lat="37.33" lon="-89.183" site="Cairo, Ill. (Illinois, United States)"/>
<marker lat="50.9" lon="-1.4" site="Southampton (United Kingdom)"/>
<marker lat="39.45" lon="-77.95" site="Martinsburg (West Virginia, United States)"/>
<marker lat="38.85" lon="-93.6" site="Grover (Missouri, United States)"/>
<marker lat="37.66" lon="-88.55" site="Tennessee River (United States)"/>
<marker lat="40.283" lon="-83.66" site="Delaware (Ohio, United States)"/>
<marker lat="36.583" lon="-79.383" site="Danville (Virginia, United States)"/>
<marker lat="34.683" lon="-91.3" site="Clarendon, Ark. (Arkansas, United States)"/>
<marker lat="46.5" lon="-66.75" site="New Brunswick (Canada)"/>
<marker lat="40.0" lon="-4.0" site="Spain (Spain)"/>
<marker lat="37.8" lon="-79.433" site="Rockbridge (Virginia, United States)"/>
<marker lat="36.85" lon="-81.516" site="Smyth (Virginia, United States)"/>
<marker lat="32.616" lon="-87.316" site="Marion, Alabama (Alabama, United States)"/>
<marker lat="38.33" lon="-78.55" site="Albemarle (Virginia, United States)"/>
<marker lat="39.333" lon="-78.6" site="Hampshire County (West Virginia, United States)"/>
<marker lat="37.1" lon="-82.716" site="Cumberland River (Kentucky, United States)"/>
<marker lat="37.3" lon="-79.566" site="Bedford County (Virginia, United States)"/>
</markers>