<markers>
<marker lat="38.0" lon="-98.0" site="United States (United States)"/>
<marker lat="33.0" lon="-87.0" site="Alabama (Alabama, United States)"/>
<marker lat="35.5" lon="-85.0" site="Tennessee (Tennessee, United States)"/>
<marker lat="41.15" lon="-79.65" site="Saint Petersburg (Pennsylvania, United States)"/>
<marker lat="53.0" lon="-2.0" site="England (United Kingdom)"/>
<marker lat="46.0" lon="2.0" site="France (France)"/>
<marker lat="39.3" lon="-77.85" site="Jefferson (West Virginia, United States)"/>
<marker lat="39.45" lon="-78.33" site="Berkeley County (West Virginia, United States)"/>
<marker lat="39.0" lon="-76.833" site="Maryland (Maryland, United States)"/>
<marker lat="60.0" lon="47.0" site="Russia (Russia)"/>
<marker lat="31.0" lon="-92.0" site="Louisiana (Louisiana, United States)"/>
<marker lat="35.5" lon="-80.0" site="North Carolina (North Carolina, United States)"/>
<marker lat="37.55" lon="-77.45" site="Richmond (Virginia, United States)"/>
<marker lat="42.25" lon="-71.833" site="Massachusetts (Massachusetts, United States)"/>
<marker lat="40.0" lon="-75.0" site="New Jersey (New Jersey, United States)"/>
<marker lat="51.583" lon="0.55" site="Essex (United Kingdom)"/>
<marker lat="41.366" lon="-74.7" site="Matamoras (Pennsylvania, United States)"/>
<marker lat="40.0" lon="-89.0" site="Illinois (Illinois, United States)"/>
<marker lat="44.0" lon="-120.0" site="Oregon (Oregon, United States)"/>
<marker lat="41.666" lon="-71.5" site="Rhode Island (Rhode Island, United States)"/>
<marker lat="40.833" lon="-76.0" site="Pennsylvania (Pennsylvania, United States)"/>
<marker lat="37.0" lon="-119.0" site="California (California, United States)"/>
<marker lat="23.0" lon="-102.0" site="Mexico (Mexico)"/>
<marker lat="39.83" lon="-77.65" site="Loudoun (Virginia, United States)"/>
<marker lat="28.75" lon="-96.966" site="Hughes (Texas, United States)"/>
<marker lat="-10.0" lon="-55.0" site="Brazil (Brazil)"/>
<marker lat="46.5" lon="-66.75" site="New Brunswick (Canada)"/>
<marker lat="40.266" lon="-80.983" site="Cadiz, Harrison County, Ohio (Ohio, United States)"/>
<marker lat="38.383" lon="-78.883" site="Rockingham, Va. (Virginia, United States)"/>
<marker lat="45.0" lon="-69.0" site="Maine (Maine, United States)"/>
<marker lat="40.0" lon="-115.0" site="Nevada (Nevada, United States)"/>
<marker lat="44.0" lon="-85.0" site="Michigan (Michigan, United States)"/>
<marker lat="46.0" lon="-94.0" site="Minnesota (Minnesota, United States)"/>
<marker lat="38.0" lon="-98.0" site="Missouri (Missouri, United States)"/>
<marker lat="44.0" lon="-71.666" site="New Hampshire (New Hampshire, United States)"/>
<marker lat="37.316" lon="-88.7" site="Old Bay (Illinois, United States)"/>
<marker lat="38.983" lon="-76.15" site="Queenstown, Md. (Maryland, United States)"/>
<marker lat="51.5" lon="-0.166" site="St. John's church (United Kingdom)"/>
<marker lat="25.9" lon="-97.483" site="Fort Taylor (Texas, United States)"/>
<marker lat="43.0" lon="-84.366" site="Ovid (Michigan, United States)"/>
<marker lat="38.233" lon="-78.1" site="Orange Court House (Virginia, United States)"/>
<marker lat="25.0" lon="-90.0" site="Gulf of Mexico"/>
<marker lat="51.66" lon="-1.25" site="Hampshire (United Kingdom)"/>
<marker lat="34.25" lon="-85.15" site="Rome, Ga. (Georgia, United States)"/>
<marker lat="45.266" lon="-66.5" site="St. John (Canada)"/>
<marker lat="37.516" lon="-77.383" site="Rocketts (Virginia, United States)"/>
<marker lat="38.683" lon="-79.35" site="Pendleton (West Virginia, United States)"/>
<marker lat="22.3" lon="-97.866" site="Tampico (Tamaulipas, Mexico)"/>
<marker lat="38.666" lon="-98.0" site="Kansas (Kansas, United States)"/>
<marker lat="37.766" lon="-122.416" site="San Francisco (California, United States)"/>
<marker lat="40.0" lon="-86.0" site="Indiana (Indiana, United States)"/>
<marker lat="42.0" lon="-93.0" site="Iowa (Iowa, United States)"/>
<marker lat="36.66" lon="-76.966" site="Bertie (North Carolina, United States)"/>
<marker lat="39.0" lon="-75.666" site="Delaware (Delaware, United States)"/>
<marker lat="60.0" lon="-96.0" site="Canada (Canada)"/>
<marker lat="36.3" lon="-76.216" site="Elizabeth City (North Carolina, United States)"/>
<marker lat="35.0" lon="105.0" site="China (China)"/>
<marker lat="9.5" lon="2.25" site="Benin (Benin)"/>
<marker lat="37.233" lon="-76.55" site="York county (Virginia, United States)"/>
<marker lat="34.0" lon="-80.0" site="South Carolina (South Carolina, United States)"/>
<marker lat="35.0" lon="-93.0" site="Arkansas (Arkansas, United States)"/>
<marker lat="39.0" lon="-80.0" site="West Virginia (West Virginia, United States)"/>
<marker lat="37.55" lon="-77.366" site="Henrico (Virginia, United States)"/>
<marker lat="35.9" lon="-100.366" site="Canadian (Texas, United States)"/>
<marker lat="36.683" lon="24.416" site="Melos (Greece)"/>
<marker lat="41.833" lon="-72.833" site="Connecticut (Connecticut, United States)"/>
<marker lat="60.35" lon="-149.883" site="Russian River (Alaska, United States)"/>
<marker lat="32.516" lon="-93.75" site="Shreveport (Louisiana, United States)"/>
<marker lat="44.0" lon="-73.0" site="Vermont (Vermont, United States)"/>
<marker lat="32.75" lon="-94.333" site="Jefferson, Marion County, Texas (Texas, United States)"/>
<marker lat="40.15" lon="-122.983" site="Chicago Spring (California, United States)"/>
<marker lat="39.65" lon="-78.75" site="Cumberland (Maryland, United States)"/>
<marker lat="40.766" lon="-111.883" site="Capitol (Utah, United States)"/>
<marker lat="36.45" lon="-83.566" site="Tazewell, Tenn. (Tennessee, United States)"/>
<marker lat="41.75" lon="-72.683" site="Hartford (Connecticut, United States)"/>
<marker lat="45.0" lon="-90.0" site="Wisconsin (Wisconsin, United States)"/>
<marker lat="50.9" lon="-1.4" site="Southampton (United Kingdom)"/>
<marker lat="38.466" lon="-78.416" site="Staunton River, Va. (Virginia, United States)"/>
<marker lat="37.866" lon="-80.133" site="Alleghany Mountains (United States)"/>
<marker lat="19.416" lon="-99.166" site="Mexico (Mexico, Mexico)"/>
<marker lat="39.0" lon="22.0" site="Greece (Greece)"/>
<marker lat="36.583" lon="-79.383" site="Danville (Virginia, United States)"/>
<marker lat="55.0" lon="-125.0" site="British Columbia (Canada)"/>
<marker lat="37.5" lon="-78.25" site="Cumberland County (Virginia, United States)"/>
<marker lat="37.8" lon="-79.433" site="Rockbridge (Virginia, United States)"/>
<marker lat="39.333" lon="-78.6" site="Hampshire County (West Virginia, United States)"/>
</markers>