<markers>
<marker lat="38.0" lon="-98.0" site="United States (United States)"/>
<marker lat="35.5" lon="-85.0" site="Tennessee (Tennessee, United States)"/>
<marker lat="53.0" lon="-2.0" site="England (United Kingdom)"/>
<marker lat="32.283" lon="-90.183" site="Jackson (Mississippi, United States)"/>
<marker lat="37.55" lon="-77.45" site="Richmond (Virginia, United States)"/>
<marker lat="33.0" lon="-87.0" site="Alabama (Alabama, United States)"/>
<marker lat="36.166" lon="-86.75" site="Edgefield (Tennessee, United States)"/>
<marker lat="33.733" lon="-84.383" site="Atlanta (Georgia, United States)"/>
<marker lat="31.0" lon="-92.0" site="Louisiana (Louisiana, United States)"/>
<marker lat="32.0" lon="-84.0" site="Georgia (Georgia, United States)"/>
<marker lat="37.0" lon="-85.0" site="Kentucky (Kentucky, United States)"/>
<marker lat="34.933" lon="-88.516" site="Corinth (Mississippi, United States)"/>
<marker lat="38.3" lon="-77.45" site="Fredericksburg, Va. (Virginia, United States)"/>
<marker lat="39.0" lon="-76.833" site="Maryland (Maryland, United States)"/>
<marker lat="36.833" lon="-76.283" site="Norfolk (Virginia, United States)"/>
<marker lat="35.5" lon="-80.0" site="North Carolina (North Carolina, United States)"/>
<marker lat="34.0" lon="-81.33" site="Columbia (South Carolina, United States)"/>
<marker lat="32.83" lon="-81.1" site="Savannah (Georgia, United States)"/>
<marker lat="35.0" lon="-93.0" site="Arkansas (Arkansas, United States)"/>
<marker lat="38.0" lon="-98.0" site="Missouri (Missouri, United States)"/>
<marker lat="37.66" lon="-88.55" site="Tennessee River (United States)"/>
<marker lat="34.0" lon="-80.0" site="South Carolina (South Carolina, United States)"/>
<marker lat="46.0" lon="2.0" site="France (France)"/>
<marker lat="39.316" lon="-77.733" site="Harper's Ferry (West Virginia, United States)"/>
<marker lat="47.233" lon="-95.2" site="Mississippi (United States)"/>
<marker lat="37.0" lon="-80.0" site="Virginia (Virginia, United States)"/>
<marker lat="36.483" lon="-87.85" site="Fort Donelson (Tennessee, United States)"/>
<marker lat="37.516" lon="-76.783" site="York (Virginia, United States)"/>
<marker lat="37.266" lon="-76.7" site="Williamsburg (Virginia, United States)"/>
<marker lat="37.233" lon="-76.5" site="Yorktown (Virginia, United States)"/>
<marker lat="28.0" lon="-82.0" site="Florida (Florida, United States)"/>
<marker lat="35.133" lon="-90.33" site="Memphis (Tennessee, United States)"/>
<marker lat="39.183" lon="-78.15" site="Winchester, Va. (Virginia, United States)"/>
<marker lat="38.3" lon="-77.633" site="Chancellorsville (Virginia, United States)"/>
<marker lat="35.216" lon="-80.833" site="Charlotte (North Carolina, United States)"/>
<marker lat="36.583" lon="-79.383" site="Danville (Virginia, United States)"/>
<marker lat="32.366" lon="-80.683" site="Port Royal (South Carolina, United States)"/>
<marker lat="39.0" lon="-80.0" site="West Virginia (West Virginia, United States)"/>
<marker lat="37.333" lon="-77.966" site="Amelia Court House (Virginia, United States)"/>
<marker lat="30.666" lon="-91.266" site="Port Hudson (Louisiana, United States)"/>
<marker lat="35.15" lon="-88.316" site="Pittsburg Landing (Tennessee, United States)"/>
<marker lat="36.5" lon="-88.0" site="Fort Henry (Tennessee, United States)"/>
<marker lat="32.183" lon="-84.133" site="Andersonville, Ga. (Georgia, United States)"/>
<marker lat="43.0" lon="-75.0" site="New York State (New York, United States)"/>
<marker lat="33.466" lon="-82.16" site="Augusta (Georgia, United States)"/>
<marker lat="35.766" lon="-78.633" site="Raleigh (North Carolina, United States)"/>
<marker lat="36.66" lon="-79.783" site="Greensboro (North Carolina, United States)"/>
<marker lat="38.133" lon="-78.183" site="Gordonsville (Virginia, United States)"/>
<marker lat="38.8" lon="-77.33" site="Alexandria (Virginia, United States)"/>
<marker lat="37.416" lon="-77.45" site="Drewry's Bluff (Virginia, United States)"/>
<marker lat="39.566" lon="-80.433" site="Seven Pines (West Virginia, United States)"/>
<marker lat="30.683" lon="-88.33" site="Mobile, Ala. (Alabama, United States)"/>
<marker lat="40.833" lon="-76.0" site="Pennsylvania (Pennsylvania, United States)"/>
<marker lat="39.816" lon="-77.216" site="Gettysburg (Pennsylvania, United States)"/>
<marker lat="34.766" lon="-84.966" site="Dalton, Ga. (Georgia, United States)"/>
<marker lat="39.366" lon="-87.0" site="Bowling Green (Indiana, United States)"/>
<marker lat="39.65" lon="-78.75" site="Cumberland (Maryland, United States)"/>
<marker lat="34.566" lon="-84.933" site="Resaca (Georgia, United States)"/>
<marker lat="38.883" lon="-77.33" site="Washington (United States)"/>
<marker lat="34.216" lon="-77.933" site="Wilmington, N. C. (North Carolina, United States)"/>
<marker lat="29.3" lon="-94.783" site="Galveston (Texas, United States)"/>
<marker lat="32.16" lon="-91.5" site="Grand Gulf (Mississippi, United States)"/>
<marker lat="37.4" lon="-79.133" site="Lynchburg (Virginia, United States)"/>
<marker lat="35.1" lon="-88.35" site="Shiloh, Tenn. (Tennessee, United States)"/>
<marker lat="29.35" lon="-89.516" site="Buras (Louisiana, United States)"/>
<marker lat="37.1" lon="-82.716" site="Cumberland River (Kentucky, United States)"/>
<marker lat="30.0" lon="-100.0" site="Texas (Texas, United States)"/>
<marker lat="35.833" lon="-86.383" site="Murfreesboro (Tennessee, United States)"/>
<marker lat="38.283" lon="-78.8" site="Port Republic (Virginia, United States)"/>
<marker lat="28.5" lon="-96.483" site="Indianola (Texas, United States)"/>
<marker lat="35.95" lon="-83.916" site="Knoxville (Tennessee, United States)"/>
<marker lat="19.416" lon="-99.166" site="Mexico (Mexico, Mexico)"/>
<marker lat="35.633" lon="-89.833" site="Fort Pillow (Tennessee, United States)"/>
<marker lat="40.0" lon="-80.833" site="Ohio (Ohio, United States)"/>
<marker lat="33.0" lon="-90.0" site="Mississippi (Mississippi, United States)"/>
<marker lat="53.416" lon="-3.0" site="Liverpool (United Kingdom)"/>
<marker lat="36.466" lon="-89.466" site="Island Number Ten (Missouri, United States)"/>
<marker lat="51.5" lon="-0.166" site="London (United Kingdom)"/>
<marker lat="41.35" lon="-86.433" site="Donelson (Indiana, United States)"/>
<marker lat="38.433" lon="-78.866" site="Harrisonburg, Va. (Virginia, United States)"/>
<marker lat="39.45" lon="-77.95" site="Martinsburg (West Virginia, United States)"/>
<marker lat="60.0" lon="47.0" site="Russia (Russia)"/>
<marker lat="39.933" lon="-77.65" site="Chambersburg, Pa. (Pennsylvania, United States)"/>
<marker lat="38.983" lon="-78.35" site="Strasburg, Va. (Virginia, United States)"/>
<marker lat="42.25" lon="-71.833" site="Massachusetts (Massachusetts, United States)"/>
<marker lat="30.45" lon="-91.15" site="Baton Rouge (Louisiana, United States)"/>
<marker lat="36.966" lon="-76.35" site="Hampton Roads (Virginia, United States)"/>
<marker lat="37.25" lon="-76.483" site="Gloucester Point (Virginia, United States)"/>
<marker lat="35.5" lon="-78.866" site="Fayetteville (North Carolina, United States)"/>
<marker lat="29.35" lon="-89.45" site="Fort Jackson (Louisiana, United States)"/>
<marker lat="34.9" lon="-85.1" site="Ringgold, Ga. (Georgia, United States)"/>
<marker lat="32.75" lon="-79.883" site="Charleston Harbor (South Carolina, United States)"/>
<marker lat="33.95" lon="-84.55" site="Marietta (Georgia, United States)"/>
<marker lat="38.916" lon="-78.183" site="Front Royal (Virginia, United States)"/>
<marker lat="39.283" lon="-76.6" site="Baltimore, Md. (Maryland, United States)"/>
<marker lat="35.75" lon="-86.916" site="Spring Hill (Tennessee, United States)"/>
<marker lat="39.5" lon="-77.65" site="Boonsboro (Maryland, United States)"/>
<marker lat="34.25" lon="-88.7" site="Tupelo (Mississippi, United States)"/>
<marker lat="39.45" lon="-77.733" site="Sharpsburg (Maryland, United States)"/>
<marker lat="37.75" lon="-77.366" site="Hanover Court House (Virginia, United States)"/>
<marker lat="38.833" lon="-77.416" site="Centreville (Virginia, United States)"/>
<marker lat="29.733" lon="-93.883" site="Sabine Pass (Texas, United States)"/>
<marker lat="38.466" lon="-77.766" site="Kelly's Ford (Virginia, United States)"/>
<marker lat="60.0" lon="-96.0" site="Canada (Canada)"/>
<marker lat="35.5" lon="-78.333" site="Smithfield, N. C. (North Carolina, United States)"/>
<marker lat="37.233" lon="-78.233" site="Sailor's Creek (Virginia, United States)"/>
<marker lat="46.0" lon="-94.0" site="Minnesota (Minnesota, United States)"/>
<marker lat="31.95" lon="-90.983" site="Port Gibson (Mississippi, United States)"/>
<marker lat="32.466" lon="-84.983" site="Chattahoochee River, Ga. (Georgia, United States)"/>
<marker lat="36.983" lon="-86.433" site="Bowling Green (Kentucky, United States)"/>
<marker lat="37.383" lon="-77.233" site="Malvern Hill (Virginia, United States)"/>
<marker lat="33.516" lon="-84.35" site="Jonesboro (Georgia, United States)"/>
<marker lat="35.833" lon="-87.233" site="Lick Creek (Tennessee, United States)"/>
<marker lat="31.85" lon="-93.5" site="Pleasant Hill (Louisiana, United States)"/>
<marker lat="34.983" lon="-85.333" site="Lookout Mountain, Tenn. (Tennessee, United States)"/>
<marker lat="33.533" lon="-90.166" site="Yazoo River (United States)"/>
<marker lat="29.95" lon="-90.66" site="New Orleans (Louisiana, United States)"/>
<marker lat="35.333" lon="-78.283" site="Bentonville (North Carolina, United States)"/>
<marker lat="32.316" lon="-90.6" site="Edward's Depot (Mississippi, United States)"/>
<marker lat="36.583" lon="-83.666" site="Cumberland Gap (Tennessee, United States)"/>
<marker lat="38.7" lon="-77.783" site="Warrenton (Virginia, United States)"/>
<marker lat="37.3" lon="-77.15" site="Westover (Virginia, United States)"/>
<marker lat="40.616" lon="-98.65" site="Kenesaw (Nebraska, United States)"/>
<marker lat="38.633" lon="-78.666" site="New Market (Virginia, United States)"/>
<marker lat="37.383" lon="-84.65" site="Fishing Creek (Kentucky, United States)"/>
<marker lat="35.183" lon="-87.16" site="Pulaski, Tenn. (Tennessee, United States)"/>
<marker lat="38.25" lon="-85.75" site="Louisville (Kentucky, United States)"/>
<marker lat="37.5" lon="-77.3" site="White Oak Swamp (Virginia, United States)"/>
<marker lat="34.0" lon="-86.0" site="Gadsden (Alabama, United States)"/>
<marker lat="37.316" lon="-77.266" site="City Point (Virginia, United States)"/>
<marker lat="34.683" lon="-79.883" site="Cheraw (South Carolina, United States)"/>
<marker lat="32.216" lon="-80.666" site="Hilton Head (South Carolina, United States)"/>
<marker lat="37.583" lon="-77.1" site="Tunstall (Virginia, United States)"/>
<marker lat="34.25" lon="-85.15" site="Rome, Ga. (Georgia, United States)"/>
<marker lat="40.683" lon="-73.966" site="Brooklyn (New York, United States)"/>
<marker lat="37.7" lon="-75.583" site="Warwick (Virginia, United States)"/>
<marker lat="37.4" lon="-78.816" site="Appomattox (Virginia, United States)"/>
<marker lat="38.75" lon="-77.466" site="Manassas, Va. (Virginia, United States)"/>
<marker lat="32.25" lon="-90.416" site="Raymond (Mississippi, United States)"/>
<marker lat="40.0" lon="-4.0" site="Spain (Spain)"/>
<marker lat="35.5" lon="-88.483" site="Caffey (Tennessee, United States)"/>
<marker lat="30.566" lon="-81.683" site="Nassau River (Florida, United States)"/>
<marker lat="37.316" lon="-78.283" site="Jamestown (Virginia) (Virginia, United States)"/>
<marker lat="34.766" lon="-89.433" site="Holly Springs (Mississippi, United States)"/>
<marker lat="34.8" lon="-88.183" site="Iuka (Mississippi, United States)"/>
<marker lat="30.433" lon="-84.266" site="Newton (Florida, United States)"/>
<marker lat="39.16" lon="-78.266" site="Middletown (Virginia, United States)"/>
<marker lat="35.95" lon="-87.366" site="Missionary Ridge, Tenn. (Tennessee, United States)"/>
<marker lat="35.383" lon="-77.983" site="Goldsboro (North Carolina, United States)"/>
<marker lat="-11.0" lon="-42.0" site="Bahia (Bahia, Brazil)"/>
<marker lat="40.133" lon="-77.716" site="New Bridge (Pennsylvania, United States)"/>
<marker lat="32.333" lon="-90.316" site="Clinton (Mississippi, United States)"/>
<marker lat="29.683" lon="-91.216" site="Berwick City (Louisiana, United States)"/>
<marker lat="34.366" lon="-84.933" site="Adairsville (Georgia, United States)"/>
<marker lat="33.5" lon="-109.283" site="Clifton, Arizona (Arizona, United States)"/>
<marker lat="34.233" lon="-84.933" site="Kingston, Ga. (Georgia, United States)"/>
<marker lat="37.3" lon="-78.383" site="Farmville (Virginia, United States)"/>
<marker lat="39.1" lon="-77.55" site="Leesburg (Virginia, United States)"/>
<marker lat="34.833" lon="-88.3" site="Burnsville (Mississippi, United States)"/>
<marker lat="39.633" lon="-77.716" site="Hagerstown (Maryland, United States)"/>
<marker lat="37.33" lon="-89.183" site="Cairo, Ill. (Illinois, United States)"/>
<marker lat="32.33" lon="-93.7" site="Mansfield (Louisiana, United States)"/>
<marker lat="36.916" lon="-84.766" site="Mill Springs (Kentucky, United States)"/>
<marker lat="32.833" lon="-83.616" site="Macon (Georgia, United States)"/>
<marker lat="38.816" lon="-77.516" site="Bull Run, Va. (Virginia, United States)"/>
<marker lat="35.216" lon="-88.233" site="Savannah, Tenn. (Tennessee, United States)"/>
<marker lat="32.283" lon="-90.283" site="Bakers Creek (Mississippi, United States)"/>
<marker lat="37.333" lon="-77.266" site="Bermuda Hundred (Virginia, United States)"/>
<marker lat="37.7" lon="-77.616" site="Chickahominy (Virginia, United States)"/>
<marker lat="38.483" lon="-78.416" site="Rapidan (Virginia, United States)"/>
<marker lat="40.0" lon="-89.0" site="Illinois (Illinois, United States)"/>
<marker lat="35.83" lon="-89.8" site="Germantown (Tennessee, United States)"/>
<marker lat="36.7" lon="-81.966" site="Abingdon, Va. (Virginia, United States)"/>
<marker lat="32.633" lon="-80.85" site="Pocotaligo (South Carolina, United States)"/>
<marker lat="37.3" lon="-77.166" site="Harrison's Landing (Virginia, United States)"/>
<marker lat="39.0" lon="35.0" site="Turquie (Turkey)"/>
<marker lat="37.216" lon="-77.4" site="Petersburg, Va. (Virginia, United States)"/>
<marker lat="36.95" lon="-76.316" site="Sewell's Point (Virginia, United States)"/>
<marker lat="30.216" lon="-88.16" site="Fort Morgan (Alabama, United States)"/>
<marker lat="39.83" lon="-84.6" site="Hatcher's Run (Ohio, United States)"/>
<marker lat="38.966" lon="-76.483" site="Annapolis (Maryland, United States)"/>
<marker lat="41.816" lon="-71.4" site="Providence, R. I. (Rhode Island, United States)"/>
<marker lat="37.816" lon="-79.25" site="South Mountain, Va. (Virginia, United States)"/>
<marker lat="38.6" lon="-78.183" site="Slaughter Mountain (Virginia, United States)"/>
<marker lat="34.5" lon="-84.666" site="Ackworth, Ga. (Georgia, United States)"/>
<marker lat="34.183" lon="-79.75" site="Florence, S. C. (South Carolina, United States)"/>
<marker lat="37.16" lon="-78.883" site="Patrick Henry (Virginia, United States)"/>
<marker lat="35.6" lon="-88.8" site="Jackson (Tennessee, United States)"/>
<marker lat="32.66" lon="-99.83" site="Red River (Texas, United States)"/>
<marker lat="35.583" lon="-79.5" site="Cape Fear (North Carolina, United States)"/>
<marker lat="45.766" lon="-116.8" site="Cemetery Ridge (Oregon, United States)"/>
<marker lat="39.6" lon="-77.816" site="Williamsport (Maryland, United States)"/>
<marker lat="29.75" lon="-95.35" site="Harrisburg (Texas, United States)"/>
<marker lat="36.75" lon="-89.1" site="Columbus, Ky. (Kentucky, United States)"/>
<marker lat="38.966" lon="-78.4" site="Fishers Hill (Virginia, United States)"/>
<marker lat="-10.0" lon="-55.0" site="Brazil (Brazil)"/>
<marker lat="32.85" lon="-90.4" site="Yazoo City (Mississippi, United States)"/>
<marker lat="35.866" lon="-75.65" site="Roanoke Island (North Carolina, United States)"/>
<marker lat="34.233" lon="-84.85" site="Cassville (Georgia, United States)"/>
<marker lat="32.7" lon="-90.5" site="Liverpool (Mississippi, United States)"/>
</markers>