<markers>
<marker lat="38.0" lon="-98.0" site="United States (United States)"/>
<marker lat="52.0" lon="20.0" site="Poland (Poland)"/>
<marker lat="37.516" lon="-76.783" site="West Point (Virginia, United States)"/>
<marker lat="60.0" lon="47.0" site="Russia (Russia)"/>
<marker lat="33.733" lon="-84.383" site="Atlanta (Georgia, United States)"/>
<marker lat="32.7" lon="-79.883" site="Morris Island (South Carolina, United States)"/>
<marker lat="60.35" lon="-149.883" site="Russian River (Alaska, United States)"/>
<marker lat="35.5" lon="-85.0" site="Tennessee (Tennessee, United States)"/>
<marker lat="37.0" lon="-80.0" site="Virginia (Virginia, United States)"/>
<marker lat="59.883" lon="30.25" site="St. Petersburg (Russia)"/>
<marker lat="19.416" lon="-99.166" site="Mexico (Mexico, Mexico)"/>
<marker lat="53.5" lon="-2.216" site="Manchester (United Kingdom)"/>
<marker lat="46.666" lon="-117.133" site="Wilma (Washington, United States)"/>
<marker lat="53.0" lon="-2.0" site="England (United Kingdom)"/>
<marker lat="37.55" lon="-77.45" site="Richmond (Virginia, United States)"/>
<marker lat="32.716" lon="-79.866" site="Cumming's Point (South Carolina, United States)"/>
<marker lat="46.0" lon="2.0" site="France (France)"/>
<marker lat="39.583" lon="-75.566" site="Fort Delaware (Delaware, United States)"/>
<marker lat="33.95" lon="-84.55" site="Marietta (Georgia, United States)"/>
<marker lat="38.383" lon="-78.883" site="Rockingham, Va. (Virginia, United States)"/>
<marker lat="52.716" lon="21.833" site="Brok (Poland)"/>
<marker lat="37.3" lon="-78.383" site="Farmville (Virginia, United States)"/>
<marker lat="15.5" lon="-90.25" site="Guatemala (Guatemala)"/>
<marker lat="41.1" lon="-90.15" site="Altona, Knox County, Illinois (Illinois, United States)"/>
<marker lat="13.833" lon="-88.916" site="El Salvador (El Salvador)"/>
<marker lat="-8.1" lon="-34.883" site="Recife (Pernambuco, Brazil)"/>
<marker lat="1.0" lon="-40.0" site="Atlantic Ocean"/>
<marker lat="53.4" lon="-3.33" site="Birkenhead (United Kingdom)"/>
<marker lat="38.233" lon="-78.1" site="Orange Court House (Virginia, United States)"/>
<marker lat="53.7" lon="-2.666" site="Lancaster (United Kingdom)"/>
<marker lat="33.416" lon="-90.66" site="Millers Hill (Mississippi, United States)"/>
<marker lat="22.5" lon="88.333" site="Calcutta (West Bengal, India)"/>
<marker lat="37.766" lon="-122.416" site="San Francisco (California, United States)"/>
<marker lat="37.783" lon="-79.433" site="Lexington, Va. (Virginia, United States)"/>
<marker lat="34.0" lon="-80.0" site="South Carolina (South Carolina, United States)"/>
<marker lat="37.416" lon="-77.45" site="Drewry's Bluff (Virginia, United States)"/>
<marker lat="34.65" lon="-84.116" site="Etowah (Georgia, United States)"/>
<marker lat="34.766" lon="-84.966" site="Dalton, Ga. (Georgia, United States)"/>
<marker lat="13.0" lon="-85.0" site="Nicaragua (Nicaragua)"/>
<marker lat="48.383" lon="-4.5" site="Brest (France)"/>
<marker lat="15.0" lon="-86.5" site="Honduras (Honduras)"/>
<marker lat="36.283" lon="-82.466" site="Jonesboro (Tennessee, United States)"/>
<marker lat="43.666" lon="-92.66" site="Preston (Minnesota, United States)"/>
<marker lat="37.233" lon="-81.45" site="Abb's Valley (Virginia, United States)"/>
<marker lat="-12.66" lon="-77.15" site="Callao (Peru)"/>
<marker lat="31.966" lon="-80.883" site="Tybee Island (Georgia, United States)"/>
<marker lat="28.916" lon="-111.6" site="Costa Rica (Sonora, Mexico)"/>
<marker lat="-10.0" lon="-76.0" site="Peru (Peru)"/>
<marker lat="40.283" lon="-84.15" site="Sydney (Ohio, United States)"/>
<marker lat="36.85" lon="-81.516" site="Smyth (Virginia, United States)"/>
</markers>