<markers>
<marker lat="42.416" lon="-71.1" site="Medford (Massachusetts, United States)"/>
<marker lat="42.516" lon="-70.883" site="Salem (Massachusetts, United States)"/>
<marker lat="42.7" lon="-71.2" site="Meeting House (Massachusetts, United States)"/>
<marker lat="44.0" lon="-71.666" site="New Hampshire (New Hampshire, United States)"/>
<marker lat="36.833" lon="-76.283" site="Portsmouth, Va. (Virginia, United States)"/>
<marker lat="38.666" lon="-98.0" site="Kansas (Kansas, United States)"/>
<marker lat="43.316" lon="-72.633" site="Whitmore Brook (Vermont, United States)"/>
<marker lat="41.4" lon="-71.933" site="Mystic River (Connecticut, United States)"/>
<marker lat="42.366" lon="-71.5" site="Charles (Massachusetts, United States)"/>
<marker lat="42.683" lon="-71.316" site="Winter Hill (Massachusetts, United States)"/>
<marker lat="42.416" lon="-71.133" site="Mystick River (Massachusetts, United States)"/>
<marker lat="42.633" lon="-71.333" site="Middlesex Village (Massachusetts, United States)"/>
<marker lat="39.5" lon="-77.816" site="Rock Hill (Virginia, United States)"/>
<marker lat="42.45" lon="-71.83" site="Spot Pond (Massachusetts, United States)"/>
<marker lat="42.483" lon="-71.266" site="Bedford, Mass. (Massachusetts, United States)"/>
<marker lat="45.466" lon="-92.433" site="Boston Bay (Wisconsin, United States)"/>
<marker lat="42.566" lon="-70.766" site="Manchester (Massachusetts, United States)"/>
<marker lat="42.583" lon="-71.716" site="Lunenburg, Ma. (Massachusetts, United States)"/>
<marker lat="42.25" lon="-71.833" site="Massachusetts (Massachusetts, United States)"/>
<marker lat="45.0" lon="-69.0" site="Maine (Maine, United States)"/>
<marker lat="42.966" lon="-70.933" site="Exeter, N. H. (New Hampshire, United States)"/>
<marker lat="42.316" lon="-71.116" site="Brookline (Massachusetts, United States)"/>
<marker lat="42.466" lon="-71.1" site="Stoneham (Massachusetts, United States)"/>
<marker lat="14.616" lon="120.966" site="Manila (Philippines)"/>
<marker lat="43.83" lon="-79.5" site="Manchester (New York, United States)"/>
<marker lat="43.433" lon="-71.65" site="Merrimack (United States)"/>
<marker lat="42.5" lon="-70.85" site="Marblehead (Massachusetts, United States)"/>
<marker lat="38.0" lon="-98.0" site="United States (United States)"/>
<marker lat="32.83" lon="-81.1" site="Savannah (Georgia, United States)"/>
<marker lat="35.0" lon="105.0" site="China (China)"/>
<marker lat="35.0" lon="-93.0" site="Arkansas (Arkansas, United States)"/>
<marker lat="42.6" lon="-71.566" site="Groton (Massachusetts, United States)"/>
<marker lat="42.666" lon="-70.9" site="Gravelly Brook (Massachusetts, United States)"/>
<marker lat="41.33" lon="-95.733" site="Glenwood, Mills County, Iowa (Iowa, United States)"/>
<marker lat="43.166" lon="-70.816" site="Piscataqua River (United States)"/>
<marker lat="36.666" lon="-7.75" site="Malaga (Spain)"/>
<marker lat="42.4" lon="-71.116" site="College Hill (Massachusetts, United States)"/>
<marker lat="39.33" lon="-95.383" site="Lecompton (Kansas, United States)"/>
<marker lat="43.0" lon="-91.65" site="Clermont (Iowa, United States)"/>
<marker lat="42.45" lon="-71.1" site="Turkey Swamp (Massachusetts, United States)"/>
<marker lat="37.483" lon="-94.266" site="Lamar (Missouri, United States)"/>
<marker lat="42.533" lon="-71.1" site="Mystic River (Massachusetts, United States)"/>
<marker lat="44.8" lon="-68.766" site="Bangor (Maine, United States)"/>
<marker lat="42.366" lon="-70.75" site="Massachusetts Bay (Massachusetts, United States)"/>
<marker lat="39.0" lon="-76.833" site="Maryland (Maryland, United States)"/>
<marker lat="46.0" lon="-94.0" site="Minnesota (Minnesota, United States)"/>
<marker lat="40.0" lon="-75.0" site="New Jersey (New Jersey, United States)"/>
<marker lat="42.583" lon="-71.2" site="Chelmsford, Mass. (Massachusetts, United States)"/>
<marker lat="40.55" lon="-75.966" site="Hamburg (Pennsylvania, United States)"/>
<marker lat="42.55" lon="-71.266" site="Billerica (Massachusetts, United States)"/>
<marker lat="51.5" lon="-0.166" site="St. John's church (United Kingdom)"/>
<marker lat="43.16" lon="-71.6" site="Goffstown (New Hampshire, United States)"/>
<marker lat="41.166" lon="-73.2" site="Bridgeport (Connecticut, United States)"/>
<marker lat="51.5" lon="-0.166" site="Chelsea bridge (United Kingdom)"/>
<marker lat="30.183" lon="-82.633" site="Lake City (Florida, United States)"/>
<marker lat="42.5" lon="-71.66" site="The Common (Massachusetts, United States)"/>
<marker lat="42.45" lon="-71.133" site="Wedge Pond (Massachusetts, United States)"/>
<marker lat="48.866" lon="2.333" site="Paris (France)"/>
<marker lat="32.783" lon="-96.866" site="Trinity (Texas, United States)"/>
<marker lat="42.283" lon="-73.16" site="Horn Pond (Massachusetts, United States)"/>
<marker lat="45.266" lon="-66.5" site="St. John (Canada)"/>
<marker lat="41.266" lon="-110.95" site="Evanston (Wyoming, United States)"/>
<marker lat="42.666" lon="-71.3" site="Dracut (Massachusetts, United States)"/>
<marker lat="34.866" lon="-88.633" site="Kossuth (Mississippi, United States)"/>
<marker lat="39.66" lon="-84.166" site="Batavia, Ohio (Ohio, United States)"/>
<marker lat="43.783" lon="11.25" site="Florence (Italy)"/>
<marker lat="39.766" lon="-94.833" site="St. Joseph, Mo. (Missouri, United States)"/>
<marker lat="35.616" lon="-87.833" site="Linden, Tenn. (Tennessee, United States)"/>
<marker lat="38.966" lon="-95.233" site="Lawrence, Kansas (Kansas, United States)"/>
<marker lat="35.0" lon="-98.0" site="Oklahoma (Oklahoma, United States)"/>
<marker lat="44.0" lon="-120.0" site="Oregon (Oregon, United States)"/>
<marker lat="40.433" lon="-79.983" site="Pittsburgh (Pennsylvania, United States)"/>
<marker lat="42.633" lon="-71.316" site="Lowell (Massachusetts, United States)"/>
<marker lat="43.15" lon="-71.45" site="Meetinghouse Brook (New Hampshire, United States)"/>
<marker lat="42.366" lon="-71.233" site="Waltham (Massachusetts, United States)"/>
<marker lat="42.583" lon="-72.3" site="Orange, Ma. (Massachusetts, United States)"/>
<marker lat="41.833" lon="-72.833" site="Connecticut (Connecticut, United States)"/>
<marker lat="37.0" lon="-119.0" site="California (California, United States)"/>
<marker lat="42.366" lon="-71.183" site="Watertown (Massachusetts, United States)"/>
<marker lat="42.433" lon="-71.1" site="Pasture Hill (Massachusetts, United States)"/>
<marker lat="34.183" lon="-79.75" site="Florence, S. C. (South Carolina, United States)"/>
<marker lat="15.0" lon="115.0" site="China Sea"/>
<marker lat="45.5" lon="-73.6" site="Montreal (Canada)"/>
<marker lat="31.1" lon="121.366" site="Shanghai (China)"/>
<marker lat="42.45" lon="-71.35" site="Concord (Massachusetts, United States)"/>
<marker lat="45.183" lon="-87.85" site="Gravelly Brook (Wisconsin, United States)"/>
<marker lat="32.316" lon="-90.916" site="Delta (Louisiana, United States)"/>
<marker lat="51.5" lon="10.5" site="Germany (Germany)"/>
<marker lat="42.25" lon="-71.8" site="Worcester (Massachusetts, United States)"/>
<marker lat="43.9" lon="-69.816" site="Bath, Me. (Maine, United States)"/>
<marker lat="33.66" lon="-97.85" site="Boonsville (Texas, United States)"/>
<marker lat="45.0" lon="-90.0" site="Wisconsin (Wisconsin, United States)"/>
<marker lat="43.35" lon="-72.166" site="Newport, N. H. (New Hampshire, United States)"/>
<marker lat="42.316" lon="-71.83" site="Roxbury, Mass. (Massachusetts, United States)"/>
<marker lat="42.116" lon="-71.166" site="Sharon (Massachusetts, United States)"/>
<marker lat="42.383" lon="-71.33" site="Chelsea (Massachusetts, United States)"/>
<marker lat="42.366" lon="-71.5" site="Charlestown, Mass. (Massachusetts, United States)"/>
<marker lat="46.0" lon="2.0" site="France (France)"/>
<marker lat="42.366" lon="-71.33" site="Middlesex Canal (Massachusetts, United States)"/>
<marker lat="41.0" lon="-91.95" site="Fairfield, Iowa (Iowa, United States)"/>
<marker lat="39.15" lon="-84.45" site="Cincinnati (Ohio, United States)"/>
</markers>