<markers>
<marker lat="38.0" lon="-98.0" site="United States (United States)"/>
<marker lat="39.0" lon="-76.833" site="Maryland (Maryland, United States)"/>
<marker lat="46.0" lon="2.0" site="France (France)"/>
<marker lat="40.0" lon="-89.0" site="Illinois (Illinois, United States)"/>
<marker lat="60.0" lon="-96.0" site="Canada (Canada)"/>
<marker lat="53.0" lon="-2.0" site="England (United Kingdom)"/>
<marker lat="35.5" lon="-80.0" site="North Carolina (North Carolina, United States)"/>
<marker lat="38.0" lon="-98.0" site="Missouri (Missouri, United States)"/>
<marker lat="33.0" lon="-87.0" site="Alabama (Alabama, United States)"/>
<marker lat="31.0" lon="-92.0" site="Louisiana (Louisiana, United States)"/>
<marker lat="37.75" lon="-77.483" site="Hanover County (Virginia, United States)"/>
<marker lat="39.233" lon="-78.2" site="Nain (Virginia, United States)"/>
<marker lat="39.45" lon="-77.95" site="Martinsburg (West Virginia, United States)"/>
<marker lat="42.833" lon="12.833" site="Italy (Italy)"/>
<marker lat="37.3" lon="-79.566" site="Bedford County (Virginia, United States)"/>
<marker lat="36.95" lon="-76.316" site="Sewell's Point (Virginia, United States)"/>
<marker lat="32.0" lon="-84.0" site="Georgia (Georgia, United States)"/>
<marker lat="37.55" lon="-77.45" site="Richmond (Virginia, United States)"/>
<marker lat="35.5" lon="-85.0" site="Tennessee (Tennessee, United States)"/>
<marker lat="54.0" lon="-60.0" site="Labrador (Canada)"/>
<marker lat="44.633" lon="-63.583" site="Halifax (Canada)"/>
<marker lat="37.33" lon="-89.183" site="Cairo, Ill. (Illinois, United States)"/>
<marker lat="40.0" lon="-4.0" site="Spain (Spain)"/>
<marker lat="43.116" lon="5.916" site="Toulon (France)"/>
<marker lat="45.766" lon="4.833" site="Lyons (France)"/>
<marker lat="37.516" lon="-76.783" site="York (Virginia, United States)"/>
<marker lat="29.45" lon="-89.7" site="Plaquemines (Louisiana, United States)"/>
<marker lat="42.25" lon="-71.833" site="Massachusetts (Massachusetts, United States)"/>
<marker lat="44.0" lon="-85.0" site="Michigan (Michigan, United States)"/>
<marker lat="46.0" lon="-94.0" site="Minnesota (Minnesota, United States)"/>
<marker lat="35.483" lon="-86.66" site="Coffee county, Tennessee (Tennessee, United States)"/>
<marker lat="33.5" lon="-90.166" site="Greenwood (Mississippi, United States)"/>
<marker lat="31.566" lon="-84.15" site="Albany (Georgia, United States)"/>
<marker lat="37.83" lon="-89.15" site="Mound City (Illinois, United States)"/>
<marker lat="47.233" lon="-95.2" site="Mississippi (United States)"/>
<marker lat="37.4" lon="-76.516" site="Gloucester, Va. (Virginia, United States)"/>
<marker lat="41.416" lon="2.166" site="Barcino (Spain)"/>
<marker lat="33.166" lon="-86.6" site="Columbiana (Alabama, United States)"/>
<marker lat="42.316" lon="-72.633" site="Northampton (Massachusetts, United States)"/>
<marker lat="37.333" lon="-77.66" site="Charles City (Virginia, United States)"/>
<marker lat="44.33" lon="5.783" site="St. Etienne (France)"/>
<marker lat="19.0" lon="-70.666" site="Dominican Republic (Dominican Republic)"/>
<marker lat="36.966" lon="-89.116" site="Bird's Point, Mo. (Missouri, United States)"/>
<marker lat="36.883" lon="-76.35" site="Craney Island (Virginia, United States)"/>
<marker lat="40.766" lon="-89.766" site="Peoria County (Illinois, United States)"/>
<marker lat="8.0" lon="39.0" site="Ethiopia (Ethiopia)"/>
<marker lat="38.666" lon="-98.0" site="Kansas (Kansas, United States)"/>
<marker lat="42.0" lon="-93.0" site="Iowa (Iowa, United States)"/>
<marker lat="40.616" lon="-79.616" site="Westmoreland (Pennsylvania, United States)"/>
<marker lat="37.316" lon="-78.283" site="Jamestown (Virginia) (Virginia, United States)"/>
<marker lat="33.83" lon="-79.8" site="Huger (South Carolina, United States)"/>
<marker lat="42.7" lon="-74.916" site="Susquehanna (United States)"/>
<marker lat="51.383" lon="0.533" site="Chatham (United Kingdom)"/>
<marker lat="38.25" lon="-85.75" site="Louisville (Kentucky, United States)"/>
<marker lat="35.0" lon="-93.0" site="Arkansas (Arkansas, United States)"/>
<marker lat="39.0" lon="-80.0" site="West Virginia (West Virginia, United States)"/>
<marker lat="38.3" lon="-77.45" site="Fredericksburg, Va. (Virginia, United States)"/>
<marker lat="44.0" lon="21.0" site="Serbia (Yugoslavia)"/>
<marker lat="41.783" lon="-69.983" site="Orleans, Ma. (Massachusetts, United States)"/>
<marker lat="41.833" lon="-72.833" site="Connecticut (Connecticut, United States)"/>
<marker lat="48.383" lon="-4.5" site="Brest (France)"/>
<marker lat="44.0" lon="-73.0" site="Vermont (Vermont, United States)"/>
<marker lat="37.66" lon="-77.583" site="Dinwiddie Court House (Virginia, United States)"/>
<marker lat="49.633" lon="-1.616" site="Cherbourg (France)"/>
<marker lat="35.683" lon="-75.716" site="Old Point (North Carolina, United States)"/>
<marker lat="38.533" lon="-81.35" site="Cotton (West Virginia, United States)"/>
<marker lat="37.16" lon="-76.333" site="Hampton (Virginia, United States)"/>
<marker lat="32.416" lon="-85.683" site="Tuskegee (Alabama, United States)"/>
<marker lat="33.983" lon="-94.25" site="Sevier (Arkansas, United States)"/>
<marker lat="35.9" lon="-77.533" site="Glenburnie (North Carolina, United States)"/>
<marker lat="36.166" lon="-86.75" site="Edgefield (Tennessee, United States)"/>
<marker lat="40.5" lon="-80.716" site="Wheeling, W. Va. (West Virginia, United States)"/>
<marker lat="37.366" lon="-77.66" site="Charles City (Virginia, United States)"/>
<marker lat="37.0" lon="-80.0" site="Virginia (Virginia, United States)"/>
<marker lat="35.883" lon="-77.533" site="Tarboro (North Carolina, United States)"/>
<marker lat="34.583" lon="-87.666" site="Camp Smith (Alabama, United States)"/>
<marker lat="37.816" lon="-77.45" site="Taylorsville (Virginia, United States)"/>
<marker lat="32.766" lon="-79.916" site="Charleston (South Carolina, United States)"/>
<marker lat="19.416" lon="-99.166" site="Mexico (Mexico, Mexico)"/>
<marker lat="47.333" lon="13.333" site="Austria (Austria)"/>
<marker lat="37.316" lon="-78.1" site="Amelia Springs (Virginia, United States)"/>
<marker lat="37.566" lon="-77.916" site="Powhatan (Virginia, United States)"/>
<marker lat="38.166" lon="-79.116" site="Augusta county (Virginia, United States)"/>
<marker lat="37.233" lon="-79.1" site="Campbell (Virginia, United States)"/>
</markers>