<markers>
<marker lat="38.0" lon="-98.0" site="United States (United States)"/>
<marker lat="30.316" lon="-87.283" site="Fort Pickens (Florida, United States)"/>
<marker lat="53.5" lon="-2.216" site="Manchester (United Kingdom)"/>
<marker lat="35.5" lon="-80.0" site="North Carolina (North Carolina, United States)"/>
<marker lat="37.0" lon="-80.0" site="Virginia (Virginia, United States)"/>
<marker lat="35.1" lon="-77.33" site="New Bern (North Carolina, United States)"/>
<marker lat="29.35" lon="-89.516" site="Buras (Louisiana, United States)"/>
<marker lat="35.5" lon="-85.0" site="Tennessee (Tennessee, United States)"/>
<marker lat="30.316" lon="-87.3" site="Fort McRae (Florida, United States)"/>
<marker lat="32.75" lon="-79.883" site="Charleston Harbor (South Carolina, United States)"/>
<marker lat="35.216" lon="-88.516" site="Purdy (Tennessee, United States)"/>
<marker lat="34.766" lon="-89.433" site="Holly Springs (Mississippi, United States)"/>
<marker lat="34.0" lon="-88.75" site="Okolona (Mississippi, United States)"/>
<marker lat="29.3" lon="-94.783" site="Galveston (Texas, United States)"/>
<marker lat="42.25" lon="-71.833" site="Massachusetts (Massachusetts, United States)"/>
<marker lat="33.0" lon="-90.0" site="Mississippi (Mississippi, United States)"/>
<marker lat="38.0" lon="-98.0" site="Missouri (Missouri, United States)"/>
<marker lat="34.5" lon="-89.5" site="Abbeville (Mississippi, United States)"/>
<marker lat="40.0" lon="-75.0" site="New Jersey (New Jersey, United States)"/>
<marker lat="35.33" lon="-89.183" site="Grand Junction (Tennessee, United States)"/>
<marker lat="37.65" lon="-84.95" site="Perryville (Kentucky, United States)"/>
<marker lat="37.366" lon="-77.5" site="Chesterfield (Virginia, United States)"/>
<marker lat="37.316" lon="-77.266" site="City Point (Virginia, United States)"/>
<marker lat="37.25" lon="-76.483" site="Gloucester Point (Virginia, United States)"/>
<marker lat="18.83" lon="-63.83" site="St. Martin"/>
<marker lat="32.183" lon="-81.15" site="Mulberry Grove (Georgia, United States)"/>
<marker lat="1.0" lon="-40.0" site="Atlantic Ocean"/>
<marker lat="36.383" lon="-78.366" site="Flat Rock (North Carolina, United States)"/>
<marker lat="53.7" lon="-2.666" site="Lancaster (United Kingdom)"/>
<marker lat="36.85" lon="-76.816" site="Zuni (Virginia, United States)"/>
<marker lat="39.65" lon="-94.0" site="Caldwell (Missouri, United States)"/>
<marker lat="36.483" lon="-87.85" site="Fort Donelson (Tennessee, United States)"/>
<marker lat="60.0" lon="47.0" site="Russia (Russia)"/>
<marker lat="37.983" lon="-87.7" site="St. Phillip (Indiana, United States)"/>
<marker lat="40.0" lon="-89.0" site="Illinois (Illinois, United States)"/>
<marker lat="32.0" lon="-84.0" site="Georgia (Georgia, United States)"/>
<marker lat="30.216" lon="-88.16" site="Fort Morgan (Alabama, United States)"/>
<marker lat="35.0" lon="-93.0" site="Arkansas (Arkansas, United States)"/>
<marker lat="39.15" lon="-77.2" site="Montgomery County (Maryland, United States)"/>
<marker lat="37.55" lon="-77.366" site="Henrico (Virginia, United States)"/>
<marker lat="39.883" lon="-85.6" site="Wilkinson (Indiana, United States)"/>
<marker lat="35.6" lon="-77.483" site="Rochdale (North Carolina, United States)"/>
<marker lat="34.766" lon="-84.966" site="Dalton, Ga. (Georgia, United States)"/>
<marker lat="37.433" lon="-77.233" site="Glendale, Va. (Virginia, United States)"/>
<marker lat="39.45" lon="-77.733" site="Sharpsburg (Maryland, United States)"/>
<marker lat="40.0" lon="-110.0" site="Utah (Utah, United States)"/>
<marker lat="35.95" lon="-83.916" site="Knoxville (Tennessee, United States)"/>
<marker lat="35.6" lon="-88.8" site="Jackson (Tennessee, United States)"/>
<marker lat="32.75" lon="-79.85" site="Fort Moultrie (South Carolina, United States)"/>
<marker lat="34.366" lon="-88.666" site="Saltillo (Mississippi, United States)"/>
<marker lat="24.616" lon="-82.866" site="Fort Jefferson (Florida, United States)"/>
<marker lat="38.316" lon="-77.466" site="Falmouth, Va. (Virginia, United States)"/>
<marker lat="30.216" lon="-88.916" site="Ship Island (Mississippi, United States)"/>
<marker lat="38.5" lon="-77.966" site="Culpeper (Virginia, United States)"/>
<marker lat="35.25" lon="-88.983" site="Bolivar, Tenn. (Tennessee, United States)"/>
<marker lat="37.566" lon="-77.916" site="Powhatan (Virginia, United States)"/>
</markers>