<markers>
<marker lat="39.0" lon="22.0" site="Greece (Greece)"/>
<marker lat="41.0333" lon="28.95" site="Byzantium (Turkey)"/>
<marker lat="36.666" lon="34.333" site="Cilicia (Turkey)"/>
<marker lat="31.0" lon="47.416" site="Tigris"/>
<marker lat="40.0" lon="45.0" site="Armenia (Armenia)"/>
<marker lat="37.45" lon="22.0667" site="Trapezus"/>
<marker lat="40.916" lon="38.416" site="Cerasus (Turkey)"/>
<marker lat="37.9667" lon="23.7333" site="Athens (Greece)"/>
<marker lat="41.333" lon="26.75" site="Thrace (Greece)"/>
<marker lat="32.55" lon="44.4" site="Babylon (Iraq)"/>
<marker lat="42.0" lon="38.0" site="Pontus"/>
<marker lat="31.83" lon="47.5" site="Euphrates"/>
<marker lat="40.3" lon="8.9" site="Silanus (Italy)"/>
<marker lat="37.5" lon="27.3" site="Miletus (Turkey)"/>
<marker lat="38.475" lon="28.0167" site="Sardis (Turkey)"/>
<marker lat="36.9167" lon="34.8833" site="Tarsus (Turkey)"/>
<marker lat="37.95" lon="27.35" site="Ephesos (Turkey)"/>
<marker lat="38.683" lon="27.516" site="Lydia (Turkey)"/>
<marker lat="37.9833" lon="22.1333" site="Lusi"/>
<marker lat="37.65" lon="21.6333" site="Olympia (Greece)"/>
<marker lat="35.0" lon="38.0" site="Syria (Syria)"/>
<marker lat="42.183" lon="41.683" site="Phasis (Georgia)"/>
<marker lat="38.4917" lon="22.5167" site="Delphi (Greece)"/>
<marker lat="41.0" lon="37.866" site="Cotyora (Turkey)"/>
<marker lat="37.6333" lon="22.1667" site="Methydrium"/>
<marker lat="37.316" lon="22.83" site="Parrhasia (Greece)"/>
<marker lat="39.0" lon="35.0" site="Asia Minor (Turkey)"/>
<marker lat="32.0" lon="53.0" site="Persia (Iran)"/>
<marker lat="38.5" lon="36.0" site="Cappadocia (Turkey)"/>
<marker lat="39.1333" lon="27.1667" site="Pergamon (Turkey)"/>
<marker lat="39.5" lon="22.25" site="Thessaly (Greece)"/>
<marker lat="32.2" lon="48.333" site="Susa (Iran)"/>
<marker lat="34.766" lon="48.583" site="Ecbatana (Iran)"/>
<marker lat="25.0" lon="45.0" site="Arabia"/>
<marker lat="38.8" lon="22.5583" site="Thermopylae"/>
<marker lat="40.825" lon="23.8583" site="Amphipolis (Greece)"/>
<marker lat="37.83" lon="22.416" site="Lacedaemon (Greece)"/>
<marker lat="37.466" lon="27.183" site="Maeander (Turkey)"/>
<marker lat="40.366" lon="26.7" site="Lampsacus (Turkey)"/>
<marker lat="40.4167" lon="27.9" site="Cyzicus"/>
<marker lat="41.0833" lon="28.25" site="Selymbria (Turkey)"/>
<marker lat="38.916" lon="27.0" site="Caicus (Turkey)"/>
<marker lat="40.983" lon="27.516" site="Bisanthe (Turkey)"/>
<marker lat="36.2" lon="29.7833" site="Apollonia (Greece)"/>
<marker lat="39.5833" lon="27.0167" site="Adramyttium (Turkey)"/>
<marker lat="38.2" lon="23.2667" site="Plataea"/>
<marker lat="38.6833" lon="27.0167" site="Larisa (Greece)"/>
<marker lat="37.5" lon="22.0" site="Peloponnesus (Greece)"/>
<marker lat="37.5833" lon="12.8167" site="Selinus (Italy)"/>
<marker lat="36.75" lon="34.55" site="Soli"/>
<marker lat="40.1333" lon="26.4167" site="Abydos (Turkey)"/>
<marker lat="37.9083" lon="22.9083" site="Corinth (Greece)"/>
<marker lat="40.9083" lon="25.5333" site="Maroneia"/>
<marker lat="40.4167" lon="26.6833" site="Gallipoli (Turkey)"/>
<marker lat="27.0" lon="30.0" site="Egypt (Egypt)"/>
<marker lat="37.5" lon="28.0" site="Caria (Turkey)"/>
<marker lat="37.8667" lon="27.8333" site="Tralleis"/>
<marker lat="37.583" lon="22.25" site="Arcadia (Greece)"/>
<marker lat="40.166" lon="30.25" site="Bithynia (Turkey)"/>
<marker lat="37.85" lon="32.5" site="Iconium (Turkey)"/>
<marker lat="37.8167" lon="34.6" site="Tyana (Turkey)"/>
<marker lat="38.65" lon="27.0833" site="Neonteichos"/>
<marker lat="37.783" lon="29.25" site="Colossae (Turkey)"/>
<marker lat="38.325" lon="23.3333" site="Thebes (Greece)"/>
<marker lat="42.0167" lon="35.15" site="Sinope (Turkey)"/>
</markers>