<markers>
<marker lat="35.5" lon="-85.0" site="Tennessee (Tennessee, United States)"/>
<marker lat="47.333" lon="13.333" site="Austria (Austria)"/>
<marker lat="38.0" lon="-98.0" site="United States (United States)"/>
<marker lat="30.566" lon="-81.683" site="Nassau River (Florida, United States)"/>
<marker lat="40.833" lon="-76.0" site="Pennsylvania (Pennsylvania, United States)"/>
<marker lat="36.716" lon="-76.583" site="Suffolk, Va. (Virginia, United States)"/>
<marker lat="33.733" lon="-84.383" site="Atlanta (Georgia, United States)"/>
<marker lat="36.216" lon="-82.683" site="Rheatown (Tennessee, United States)"/>
<marker lat="34.85" lon="-82.383" site="Greenville (South Carolina, United States)"/>
<marker lat="38.683" lon="-77.483" site="Occoquan River (Virginia, United States)"/>
<marker lat="36.7" lon="-81.966" site="Abingdon, Va. (Virginia, United States)"/>
<marker lat="48.383" lon="-4.5" site="Brest (France)"/>
<marker lat="37.0" lon="-80.0" site="Virginia (Virginia, United States)"/>
<marker lat="46.0" lon="2.0" site="France (France)"/>
<marker lat="37.833" lon="-87.583" site="Henderson, Ky. (Kentucky, United States)"/>
<marker lat="38.366" lon="-78.66" site="Cedar Mountain (Virginia, United States)"/>
<marker lat="38.5" lon="-77.883" site="Brandy Station (Virginia, United States)"/>
<marker lat="30.733" lon="-91.583" site="Morganza (Louisiana, United States)"/>
<marker lat="36.15" lon="-82.816" site="Greenville, Tenn. (Tennessee, United States)"/>
<marker lat="38.433" lon="-77.9" site="Stevensburg (Virginia, United States)"/>
<marker lat="30.333" lon="-91.716" site="Atchafalaya (Louisiana, United States)"/>
<marker lat="38.2" lon="-85.216" site="Shelbyville, Ky. (Kentucky, United States)"/>
<marker lat="34.116" lon="-93.5" site="Arkadelphia (Arkansas, United States)"/>
<marker lat="38.55" lon="-78.4" site="Rose River (Virginia, United States)"/>
<marker lat="31.0" lon="-92.0" site="Louisiana (Louisiana, United States)"/>
<marker lat="36.583" lon="-82.183" site="Bristol (Tennessee, United States)"/>
<marker lat="38.55" lon="-78.333" site="Robinson's River (Virginia, United States)"/>
<marker lat="32.683" lon="-83.416" site="Twiggs (Georgia, United States)"/>
<marker lat="32.716" lon="-79.95" site="James Island (South Carolina, United States)"/>
<marker lat="38.9" lon="-77.25" site="Vienna (Virginia, United States)"/>
<marker lat="30.216" lon="-92.16" site="Lafayette (Louisiana, United States)"/>
<marker lat="37.55" lon="-78.85" site="Bible Ridge (Virginia, United States)"/>
<marker lat="48.216" lon="16.366" site="Vienna (Wien, Austria)"/>
<marker lat="39.166" lon="-91.866" site="Mexico, Mo. (Missouri, United States)"/>
<marker lat="38.566" lon="-77.316" site="Dumfries, Va. (Virginia, United States)"/>
<marker lat="37.66" lon="-88.55" site="Tennessee River (United States)"/>
<marker lat="36.583" lon="-83.666" site="Cumberland Gap (Tennessee, United States)"/>
<marker lat="42.5" lon="-78.666" site="Springville (New York, United States)"/>
<marker lat="36.466" lon="-82.25" site="Zollicoffer (Tennessee, United States)"/>
<marker lat="39.3" lon="-77.85" site="Jefferson (West Virginia, United States)"/>
</markers>