<markers>
<marker lat="38.0" lon="-98.0" site="United States (United States)"/>
<marker lat="35.5" lon="-85.0" site="Tennessee (Tennessee, United States)"/>
<marker lat="30.35" lon="-88.55" site="Pascagoula (Mississippi, United States)"/>
<marker lat="36.333" lon="-88.316" site="Henry (Tennessee, United States)"/>
<marker lat="47.233" lon="-95.2" site="Mississippi (United States)"/>
<marker lat="38.233" lon="-78.1" site="Orange Court House (Virginia, United States)"/>
<marker lat="35.5" lon="-80.0" site="North Carolina (North Carolina, United States)"/>
<marker lat="19.416" lon="-99.166" site="Mexico (Mexico, Mexico)"/>
<marker lat="46.0" lon="2.0" site="France (France)"/>
<marker lat="32.333" lon="-83.783" site="Henderson (Georgia, United States)"/>
<marker lat="42.433" lon="-123.316" site="Grant's Pass (Oregon, United States)"/>
<marker lat="35.1" lon="-77.33" site="New Bern (North Carolina, United States)"/>
<marker lat="37.316" lon="-77.266" site="City Point (Virginia, United States)"/>
<marker lat="53.4" lon="-3.33" site="Birkenhead (United Kingdom)"/>
<marker lat="51.583" lon="0.55" site="Essex (United Kingdom)"/>
<marker lat="39.2" lon="-96.6" site="Manhattan, Riley County, Kansas (Kansas, United States)"/>
<marker lat="37.83" lon="-88.6" site="Paducah (Kentucky, United States)"/>
<marker lat="34.366" lon="-84.33" site="Lumpkin, Ga. (Georgia, United States)"/>
<marker lat="53.0" lon="-2.0" site="England (United Kingdom)"/>
<marker lat="31.0" lon="-92.0" site="Louisiana (Louisiana, United States)"/>
<marker lat="37.766" lon="-79.383" site="South River (Virginia, United States)"/>
<marker lat="34.0" lon="-80.0" site="South Carolina (South Carolina, United States)"/>
<marker lat="37.416" lon="-77.45" site="Drewry's Bluff (Virginia, United States)"/>
<marker lat="39.316" lon="-77.733" site="Harper's Ferry (West Virginia, United States)"/>
<marker lat="35.0" lon="-93.0" site="Arkansas (Arkansas, United States)"/>
<marker lat="37.55" lon="-77.45" site="Richmond (Virginia, United States)"/>
<marker lat="19.333" lon="-96.666" site="Vera Cruz (Veracruz, Mexico)"/>
<marker lat="40.5" lon="-75.233" site="Roxboro, Pa. (Pennsylvania, United States)"/>
<marker lat="32.35" lon="-88.7" site="Meridian (Mississippi, United States)"/>
<marker lat="44.2" lon="-73.233" site="Ferrisburg (Vermont, United States)"/>
<marker lat="35.25" lon="-77.566" site="Kinston (North Carolina, United States)"/>
<marker lat="35.216" lon="-80.833" site="Charlotte (North Carolina, United States)"/>
<marker lat="36.583" lon="-79.383" site="Danville (Virginia, United States)"/>
<marker lat="38.33" lon="-76.316" site="Point Lookout, Md. (Maryland, United States)"/>
<marker lat="37.0" lon="-78.683" site="Charlotte county (Virginia, United States)"/>
<marker lat="38.716" lon="-80.7" site="Braxton (West Virginia, United States)"/>
</markers>