<markers>
<marker lat="37.9667" lon="23.7333" site="Athens (Greece)"/>
<marker lat="38.83" lon="23.5" site="Attica (Greece)"/>
<marker lat="39.0" lon="22.0" site="Greece (Greece)"/>
<marker lat="41.9" lon="12.4833" site="Rome (Italy)"/>
<marker lat="39.0" lon="35.0" site="Asia Minor (Turkey)"/>
<marker lat="38.4917" lon="22.5167" site="Delphi (Greece)"/>
<marker lat="38.5" lon="25.0" site="Aegean"/>
<marker lat="41.333" lon="26.75" site="Thrace (Greece)"/>
<marker lat="42.833" lon="12.833" site="Italy (Italy)"/>
<marker lat="37.416" lon="24.916" site="Cyclades (Greece)"/>
</markers>