<markers>
<marker lat="39.9167" lon="26.2833" site="Troy (Turkey)"/>
<marker lat="35.633" lon="-82.633" site="Juno (North Carolina, United States)"/>
<marker lat="35.166" lon="25.0" site="Crete (Greece)"/>
<marker lat="26.933" lon="-80.83" site="Jupiter (Florida, United States)"/>
<marker lat="45.316" lon="7.366" site="Ceres (Italy)"/>
<marker lat="40.583" lon="-122.383" site="Latona (California, United States)"/>
<marker lat="38.15" lon="-122.83" site="Cygnus (California, United States)"/>
<marker lat="40.766" lon="-75.266" site="Hercules (Pennsylvania, United States)"/>
<marker lat="38.566" lon="-80.45" site="Diana (West Virginia, United States)"/>
<marker lat="43.783" lon="-73.983" site="Minerva (New York, United States)"/>
<marker lat="37.9667" lon="23.7333" site="Athens (Greece)"/>
<marker lat="41.333" lon="26.75" site="Thrace (Greece)"/>
<marker lat="36.5" lon="-83.6" site="Bacchus (Tennessee, United States)"/>
<marker lat="40.2" lon="-74.16" site="Neptune (New Jersey, United States)"/>
<marker lat="41.983" lon="-78.266" site="Ceres (New York, United States)"/>
<marker lat="37.75" lon="15.0" site="Aetna (Italy)"/>
<marker lat="37.5" lon="14.0" site="Sicily (Italy)"/>
<marker lat="38.2583" lon="22.9917" site="Thisbe"/>
<marker lat="39.5" lon="22.25" site="Thessaly (Greece)"/>
<marker lat="48.866" lon="2.333" site="Paris (France)"/>
<marker lat="35.683" lon="-88.516" site="Juno (Tennessee, United States)"/>
<marker lat="30.166" lon="31.1" site="Nile"/>
<marker lat="39.0" lon="22.0" site="Greece (Greece)"/>
<marker lat="47.533" lon="22.783" site="Acis (Romania)"/>
<marker lat="36.75" lon="35.683" site="Pyramus (Turkey)"/>
<marker lat="40.35" lon="-75.383" site="Argus (Pennsylvania, United States)"/>
<marker lat="41.733" lon="12.233" site="Tiber (Italy)"/>
<marker lat="36.7" lon="-92.866" site="Hercules (Missouri, United States)"/>
<marker lat="38.325" lon="23.3333" site="Thebes (Greece)"/>
<marker lat="39.1833" lon="26.2833" site="Pyrrha"/>
<marker lat="33.75" lon="-81.233" site="Pelion (South Carolina, United States)"/>
<marker lat="45.366" lon="23.266" site="Vulcan (Romania)"/>
<marker lat="41.7" lon="-71.15" site="Troy (Massachusetts, United States)"/>
<marker lat="38.766" lon="-82.433" site="Cadmus (Ohio, United States)"/>
<marker lat="38.316" lon="23.316" site="Thebes (Greece)"/>
<marker lat="35.75" lon="-82.583" site="Jupiter (North Carolina, United States)"/>
<marker lat="41.9" lon="12.4833" site="Rome (Italy)"/>
<marker lat="38.25" lon="21.75" site="Achaia (Greece)"/>
<marker lat="37.4" lon="25.2833" site="Delos (Greece)"/>
<marker lat="38.683" lon="27.516" site="Lydia (Turkey)"/>
<marker lat="41.33" lon="-85.35" site="Saturn (Indiana, United States)"/>
<marker lat="38.0" lon="23.6833" site="Daphne (Greece)"/>
<marker lat="20.0" lon="77.0" site="India (India)"/>
<marker lat="35.0" lon="33.0" site="Cyprus (Cyprus)"/>
<marker lat="37.8833" lon="21.4" site="Elis (Greece)"/>
<marker lat="39.916" lon="25.25" site="Lemnos (Greece)"/>
<marker lat="39.95" lon="26.25" site="Ilium (Turkey)"/>
<marker lat="34.6667" lon="33.05" site="Amathus"/>
<marker lat="38.333" lon="-94.883" site="Cadmus (Kansas, United States)"/>
<marker lat="35.5" lon="-89.783" site="Southwind (Tennessee, United States)"/>
<marker lat="38.0" lon="23.733" site="Athens (Greece)"/>
<marker lat="38.1833" lon="15.5667" site="Zancle (Italy)"/>
<marker lat="47.15" lon="-88.55" site="Arcadian (Michigan, United States)"/>
<marker lat="41.366" lon="-79.466" site="Venus (Pennsylvania, United States)"/>
<marker lat="33.266" lon="35.183" site="Tyre (Lebanon)"/>
<marker lat="42.5" lon="-76.866" site="Hector (New York, United States)"/>
<marker lat="37.725" lon="22.7583" site="Mycenae (Greece)"/>
<marker lat="-33.383" lon="19.316" site="Ceres (South Africa)"/>
<marker lat="40.7833" lon="14.0833" site="Cumae (Italy)"/>
<marker lat="37.75" lon="23.433" site="Aegina (Greece)"/>
<marker lat="32.33" lon="25.583" site="Naxos (Greece)"/>
<marker lat="38.0" lon="23.35" site="Megara (Greece)"/>
<marker lat="27.0" lon="30.0" site="Egypt (Egypt)"/>
<marker lat="38.83" lon="-77.266" site="Delos (Virginia, United States)"/>
<marker lat="41.83" lon="25.5" site="Rhodope (Greece)"/>
<marker lat="44.0" lon="-97.916" site="Diana (South Dakota, United States)"/>
<marker lat="42.833" lon="12.833" site="Italy (Italy)"/>
<marker lat="37.583" lon="22.25" site="Arcadia (Greece)"/>
<marker lat="36.916" lon="21.7" site="Navarino (Greece)"/>
<marker lat="34.466" lon="-84.183" site="Juno (Georgia, United States)"/>
<marker lat="40.7" lon="-76.95" site="Pallas (Pennsylvania, United States)"/>
<marker lat="35.283" lon="-86.85" site="Diana (Tennessee, United States)"/>
<marker lat="37.466" lon="27.183" site="Maeander (Turkey)"/>
<marker lat="38.4" lon="20.666" site="Ithaca (Greece)"/>
<marker lat="41.9" lon="-77.75" site="Ulysses (Pennsylvania, United States)"/>
<marker lat="40.683" lon="-80.0" site="Mars (Pennsylvania, United States)"/>
<marker lat="42.0" lon="46.833" site="Caucasus"/>
<marker lat="43.0" lon="13.0" site="Apennines (Italy)"/>
<marker lat="38.1" lon="15.65" site="Rhegium (Italy)"/>
<marker lat="39.8167" lon="26.05" site="Tenedos"/>
<marker lat="42.633" lon="-122.216" site="Lucifer (Oregon, United States)"/>
<marker lat="37.15" lon="-83.65" site="Hector (Kentucky, United States)"/>
<marker lat="50.95" lon="1.866" site="Calais (France)"/>
<marker lat="39.83" lon="17.133" site="Crotona (Italy)"/>
<marker lat="37.816" lon="-86.9" site="Scythia (Kentucky, United States)"/>
<marker lat="37.816" lon="15.283" site="Naxos (Italy)"/>
<marker lat="40.833" lon="14.25" site="Naples (Italy)"/>
<marker lat="39.666" lon="20.833" site="Epirus (Greece)"/>
<marker lat="43.816" lon="-72.716" site="Olympus (Vermont, United States)"/>
<marker lat="34.8" lon="-116.45" site="Hector (California, United States)"/>
<marker lat="39.483" lon="-80.133" site="Palatine (West Virginia, United States)"/>
<marker lat="47.33" lon="-112.35" site="Blackfoot (Montana, United States)"/>
<marker lat="37.5" lon="27.3" site="Miletus (Turkey)"/>
<marker lat="33.516" lon="-89.566" site="Minerva (Mississippi, United States)"/>
<marker lat="37.933" lon="-82.666" site="Ulysses (Kentucky, United States)"/>
<marker lat="25.0" lon="17.0" site="Libya (Libya)"/>
<marker lat="42.183" lon="41.683" site="Phasis (Georgia)"/>
<marker lat="39.25" lon="22.05" site="Arne"/>
<marker lat="33.55" lon="35.366" site="Sidon (Lebanon)"/>
<marker lat="33.666" lon="-82.616" site="Aonia (Georgia, United States)"/>
<marker lat="37.25" lon="21.833" site="Messenia (Greece)"/>
<marker lat="37.9083" lon="22.9083" site="Corinth (Greece)"/>
<marker lat="38.4917" lon="22.5167" site="Delphi (Greece)"/>
<marker lat="25.0" lon="45.0" site="Arabia"/>
<marker lat="39.166" lon="26.333" site="Lesbos (Greece)"/>
<marker lat="38.566" lon="23.833" site="Euboea (Greece)"/>
<marker lat="38.5" lon="25.0" site="Aegean"/>
<marker lat="37.5" lon="27.3" site="Milet (Turkey)"/>
<marker lat="41.16" lon="-89.4" site="Lacon (Illinois, United States)"/>
<marker lat="34.75" lon="32.416" site="Paphos (Cyprus)"/>
<marker lat="37.933" lon="22.916" site="Corinth (Greece)"/>
<marker lat="37.5" lon="28.0" site="Caria (Turkey)"/>
<marker lat="36.366" lon="29.333" site="Xanthus (Turkey)"/>
<marker lat="37.5" lon="23.35" site="Troezen (Greece)"/>
<marker lat="41.85" lon="-77.616" site="Hector (Pennsylvania, United States)"/>
<marker lat="32.0" lon="53.0" site="Persia (Iran)"/>
<marker lat="35.33" lon="24.8" site="Phaestus (Greece)"/>
<marker lat="37.1" lon="25.2" site="Paros (Greece)"/>
<marker lat="38.0333" lon="12.5833" site="Eryx (Italy)"/>
<marker lat="35.3" lon="-85.433" site="Delphi (Tennessee, United States)"/>
<marker lat="41.6" lon="12.55" site="Ardea (Italy)"/>
<marker lat="36.166" lon="28.0" site="Rhodes (Greece)"/>
<marker lat="32.316" lon="-85.1" site="Jupiter (Alabama, United States)"/>
<marker lat="40.716" lon="13.9" site="Ischia (Italy)"/>
<marker lat="44.966" lon="12.5" site="Padus (Italy)"/>
<marker lat="31.916" lon="35.333" site="Palestine"/>
<marker lat="42.566" lon="-75.766" site="Pharsalia (New York, United States)"/>
<marker lat="42.75" lon="-76.833" site="Romulus (New York, United States)"/>
<marker lat="38.916" lon="27.0" site="Caicus (Turkey)"/>
<marker lat="39.3333" lon="26.2" site="Methymna"/>
<marker lat="36.233" lon="-88.9" site="Sidonia (Tennessee, United States)"/>
<marker lat="44.5" lon="8.833" site="Liguria (Italy)"/>
<marker lat="38.283" lon="-79.116" site="Parnassus (Virginia, United States)"/>
<marker lat="41.45" lon="12.6167" site="Antium (Italy)"/>
<marker lat="33.25" lon="-93.533" site="Mars (Arkansas, United States)"/>
<marker lat="31.35" lon="27.233" site="Paraetonium (Egypt)"/>
<marker lat="19.466" lon="30.333" site="Argo (Sudan)"/>
<marker lat="37.566" lon="-101.35" site="Ulysses (Kansas, United States)"/>
<marker lat="37.7" lon="-80.983" site="Pluto (West Virginia, United States)"/>
<marker lat="38.1167" lon="27.1333" site="Colophon"/>
<marker lat="31.166" lon="29.883" site="Canopus (Egypt)"/>
<marker lat="42.416" lon="25.616" site="Beroe (Bulgaria)"/>
<marker lat="39.55" lon="20.8" site="Dodona (Greece)"/>
<marker lat="40.7" lon="14.4833" site="Stabiae (Italy)"/>
<marker lat="35.5" lon="-106.183" site="Venus (New Mexico, United States)"/>
<marker lat="30.566" lon="31.516" site="Bubastis (Egypt)"/>
<marker lat="37.916" lon="-88.966" site="Orient (Illinois, United States)"/>
<marker lat="40.583" lon="-86.666" site="Delphi (Indiana, United States)"/>
<marker lat="53.633" lon="-115.233" site="Wildwood (Canada)"/>
<marker lat="37.566" lon="14.266" site="Enna (Italy)"/>
<marker lat="38.0417" lon="23.5583" site="Eleusis (Greece)"/>
<marker lat="40.7583" lon="22.5333" site="Pella (Greece)"/>
<marker lat="36.683" lon="-88.266" site="Almo (Kentucky, United States)"/>
<marker lat="45.133" lon="-79.983" site="Moon (Canada)"/>
<marker lat="31.866" lon="-93.883" site="Sabine (United States)"/>
<marker lat="40.166" lon="24.316" site="Athos (Greece)"/>
<marker lat="40.5" lon="22.25" site="Emathia (Greece)"/>
<marker lat="38.716" lon="20.65" site="Leucas (Greece)"/>
<marker lat="24.83" lon="32.933" site="Syene (Egypt)"/>
<marker lat="38.475" lon="28.0167" site="Sardis (Turkey)"/>
<marker lat="34.5" lon="-117.75" site="Pomona (California, United States)"/>
<marker lat="43.883" lon="2.45" site="Alban (France)"/>
<marker lat="37.4" lon="-79.5" site="Mount Athos (Virginia, United States)"/>
<marker lat="39.75" lon="16.4833" site="Sybaris"/>
<marker lat="40.583" lon="-91.683" site="Croton (Iowa, United States)"/>
<marker lat="39.55" lon="26.9667" site="Chryse"/>
<marker lat="39.0" lon="19.0" site="Ionian Sea"/>
<marker lat="40.55" lon="14.216" site="Capri (Italy)"/>
<marker lat="40.416" lon="15.0" site="Paestum (Italy)"/>
<marker lat="38.05" lon="23.8833" site="Pallene"/>
<marker lat="37.875" lon="21.9167" site="Psophis"/>
<marker lat="40.866" lon="26.2" site="Hebrus"/>
<marker lat="37.65" lon="21.65" site="Pisa"/>
<marker lat="37.9583" lon="23.6583" site="Piraeus (Greece)"/>
<marker lat="44.65" lon="10.916" site="Modena (Italy)"/>
<marker lat="38.4917" lon="23.4667" site="Anthedon"/>
<marker lat="41.6667" lon="12.4833" site="Lavinium"/>
<marker lat="33.15" lon="-86.233" site="The Moon (Alabama, United States)"/>
<marker lat="36.9" lon="-103.866" site="Alps (New Mexico, United States)"/>
<marker lat="40.4" lon="-84.966" site="Liber (Indiana, United States)"/>
<marker lat="38.5167" lon="22.75" site="Daulis"/>
<marker lat="38.4333" lon="23.5833" site="Aulis"/>
<marker lat="37.433" lon="24.916" site="Syros (Greece)"/>
<marker lat="37.583" lon="25.166" site="Tenos (Greece)"/>
<marker lat="37.95" lon="23.816" site="Hymettus (Greece)"/>
<marker lat="37.583" lon="26.166" site="Icaria (Greece)"/>
<marker lat="38.4167" lon="21.4667" site="Pleuron"/>
<marker lat="38.466" lon="28.33" site="Sardes (Turkey)"/>
<marker lat="42.2" lon="-74.216" site="Hunter (New York, United States)"/>
<marker lat="37.816" lon="34.6" site="Tyana (Turkey)"/>
<marker lat="23.416" lon="90.583" site="Ganga"/>
<marker lat="41.7167" lon="12.6667" site="Aricia (Italy)"/>
<marker lat="39.25" lon="26.0" site="Antissa"/>
<marker lat="28.983" lon="-98.633" site="Amphion (Texas, United States)"/>
<marker lat="40.483" lon="-81.983" site="Killbuck (Ohio, United States)"/>
<marker lat="34.66" lon="-107.2" site="Morning Star (New Mexico, United States)"/>
<marker lat="36.333" lon="-87.2" site="Neptune (Tennessee, United States)"/>
<marker lat="47.5" lon="39.283" site="Tanais (Russia)"/>
<marker lat="42.0" lon="38.0" site="Pontus"/>
<marker lat="32.16" lon="-90.7" site="Myles (Mississippi, United States)"/>
</markers>