<markers>
<marker lat="33.0" lon="-87.0" site="Alabama (Alabama, United States)"/>
<marker lat="38.0" lon="-98.0" site="United States (United States)"/>
<marker lat="35.5" lon="-80.0" site="North Carolina (North Carolina, United States)"/>
<marker lat="25.9" lon="-97.483" site="Fort Taylor (Texas, United States)"/>
<marker lat="60.0" lon="47.0" site="Russia (Russia)"/>
<marker lat="19.416" lon="-99.166" site="Mexico (Mexico, Mexico)"/>
<marker lat="46.0" lon="2.0" site="France (France)"/>
<marker lat="52.0" lon="20.0" site="Poland (Poland)"/>
<marker lat="34.25" lon="-85.15" site="Rome, Ga. (Georgia, United States)"/>
<marker lat="35.5" lon="-85.0" site="Tennessee (Tennessee, United States)"/>
<marker lat="33.733" lon="-84.383" site="Atlanta (Georgia, United States)"/>
<marker lat="35.95" lon="-87.366" site="Missionary Ridge, Tenn. (Tennessee, United States)"/>
<marker lat="32.7" lon="-79.883" site="Morris Island (South Carolina, United States)"/>
<marker lat="32.0" lon="-84.0" site="Georgia (Georgia, United States)"/>
<marker lat="34.0" lon="-80.0" site="South Carolina (South Carolina, United States)"/>
<marker lat="35.583" lon="-89.25" site="Brownsville, Tenn. (Tennessee, United States)"/>
<marker lat="34.766" lon="-84.966" site="Dalton, Ga. (Georgia, United States)"/>
<marker lat="36.816" lon="-79.4" site="Pittsylvania (Virginia, United States)"/>
<marker lat="38.366" lon="-78.66" site="Cedar Mountain (Virginia, United States)"/>
<marker lat="29.3" lon="-94.783" site="Galveston (Texas, United States)"/>
<marker lat="42.25" lon="-71.833" site="Massachusetts (Massachusetts, United States)"/>
<marker lat="39.0" lon="-76.833" site="Maryland (Maryland, United States)"/>
<marker lat="34.233" lon="-84.933" site="Kingston, Ga. (Georgia, United States)"/>
<marker lat="36.533" lon="-82.6" site="Holston (Tennessee, United States)"/>
<marker lat="37.25" lon="-76.483" site="Gloucester Point (Virginia, United States)"/>
<marker lat="35.166" lon="25.0" site="Crete (Greece)"/>
<marker lat="38.233" lon="-78.1" site="Orange Court House (Virginia, United States)"/>
<marker lat="37.433" lon="-122.133" site="Palo Alto (California, United States)"/>
<marker lat="41.366" lon="-74.7" site="Matamoras (Pennsylvania, United States)"/>
<marker lat="42.65" lon="-73.75" site="Albany (New York, United States)"/>
<marker lat="31.0" lon="-92.0" site="Louisiana (Louisiana, United States)"/>
<marker lat="36.7" lon="-81.966" site="Abingdon, Va. (Virginia, United States)"/>
<marker lat="37.216" lon="-77.4" site="Petersburg, Va. (Virginia, United States)"/>
<marker lat="55.883" lon="-4.25" site="Glasgow (United Kingdom)"/>
<marker lat="34.566" lon="-86.55" site="Whitesburg (Alabama, United States)"/>
<marker lat="37.55" lon="-77.366" site="Henrico (Virginia, United States)"/>
<marker lat="23.0" lon="-102.0" site="Mexico (Mexico)"/>
<marker lat="45.5" lon="-73.6" site="Montreal (Canada)"/>
<marker lat="39.133" lon="-121.583" site="Marysville (California, United States)"/>
<marker lat="38.733" lon="-77.816" site="Fauquier (Virginia, United States)"/>
<marker lat="40.566" lon="-89.633" site="Pekin (Illinois, United States)"/>
<marker lat="51.5" lon="10.5" site="Germany (Germany)"/>
<marker lat="37.0" lon="-80.0" site="Virginia (Virginia, United States)"/>
<marker lat="33.466" lon="-82.16" site="Augusta (Georgia, United States)"/>
<marker lat="59.883" lon="30.25" site="St. Petersburg (Russia)"/>
<marker lat="36.583" lon="-83.666" site="Cumberland Gap (Tennessee, United States)"/>
<marker lat="36.35" lon="-83.55" site="Dutch (Tennessee, United States)"/>
<marker lat="39.0" lon="22.0" site="Greece (Greece)"/>
<marker lat="50.833" lon="4.0" site="Belgium (Belgium)"/>
<marker lat="55.95" lon="-4.75" site="Greenock (United Kingdom)"/>
<marker lat="42.833" lon="12.833" site="Italy (Italy)"/>
<marker lat="36.75" lon="-78.933" site="Halifax county (Virginia, United States)"/>
</markers>