<markers>
<marker lat="39.816" lon="-77.216" site="Gettysburg (Pennsylvania, United States)"/>
<marker lat="41.566" lon="-77.233" site="Plank (Pennsylvania, United States)"/>
<marker lat="32.283" lon="-90.183" site="Jackson (Mississippi, United States)"/>
<marker lat="38.0" lon="-98.0" site="United States (United States)"/>
<marker lat="38.3" lon="-77.633" site="Chancellorsville (Virginia, United States)"/>
<marker lat="37.0" lon="-85.0" site="Kentucky (Kentucky, United States)"/>
<marker lat="39.183" lon="-78.15" site="Winchester, Va. (Virginia, United States)"/>
<marker lat="34.933" lon="-88.516" site="Corinth (Mississippi, United States)"/>
<marker lat="38.3" lon="-77.45" site="Fredericksburg, Va. (Virginia, United States)"/>
<marker lat="38.0" lon="-98.0" site="Missouri (Missouri, United States)"/>
<marker lat="34.766" lon="-89.433" site="Holly Springs (Mississippi, United States)"/>
<marker lat="35.5" lon="-85.0" site="Tennessee (Tennessee, United States)"/>
<marker lat="33.0" lon="-87.0" site="Alabama (Alabama, United States)"/>
<marker lat="30.216" lon="-88.16" site="Fort Morgan (Alabama, United States)"/>
<marker lat="37.66" lon="-88.55" site="Tennessee River (United States)"/>
<marker lat="35.133" lon="-90.33" site="Memphis (Tennessee, United States)"/>
<marker lat="39.0" lon="-76.833" site="Maryland (Maryland, United States)"/>
<marker lat="36.166" lon="-86.75" site="Edgefield (Tennessee, United States)"/>
<marker lat="34.35" lon="-89.516" site="Oxford (Mississippi, United States)"/>
<marker lat="34.0" lon="-80.0" site="South Carolina (South Carolina, United States)"/>
<marker lat="40.833" lon="-76.0" site="Pennsylvania (Pennsylvania, United States)"/>
<marker lat="39.866" lon="-77.733" site="Cashtown (Pennsylvania, United States)"/>
<marker lat="32.75" lon="-79.85" site="Fort Moultrie (South Carolina, United States)"/>
<marker lat="35.1" lon="-88.35" site="Shiloh, Tenn. (Tennessee, United States)"/>
<marker lat="39.933" lon="-77.65" site="Chambersburg, Pa. (Pennsylvania, United States)"/>
<marker lat="35.0" lon="-93.0" site="Arkansas (Arkansas, United States)"/>
<marker lat="32.4" lon="-90.833" site="Chickasaw Bayou (Mississippi, United States)"/>
<marker lat="41.35" lon="-86.433" site="Donelson (Indiana, United States)"/>
<marker lat="30.433" lon="-88.0" site="Mobile Bay (Alabama, United States)"/>
<marker lat="37.216" lon="-77.4" site="Petersburg, Va. (Virginia, United States)"/>
<marker lat="32.183" lon="-84.133" site="Andersonville, Ga. (Georgia, United States)"/>
<marker lat="38.25" lon="-85.75" site="Louisville (Kentucky, United States)"/>
<marker lat="37.55" lon="-77.45" site="Richmond (Virginia, United States)"/>
<marker lat="33.0" lon="-90.0" site="Mississippi (Mississippi, United States)"/>
<marker lat="36.366" lon="-94.2" site="Bentonville, Ark. (Arkansas, United States)"/>
<marker lat="36.983" lon="-86.433" site="Bowling Green (Kentucky, United States)"/>
<marker lat="39.633" lon="-77.716" site="Hagerstown (Maryland, United States)"/>
<marker lat="19.416" lon="-99.166" site="Mexico (Mexico, Mexico)"/>
<marker lat="36.483" lon="-87.85" site="Fort Donelson (Tennessee, United States)"/>
<marker lat="53.0" lon="-2.0" site="England (United Kingdom)"/>
<marker lat="34.15" lon="-89.616" site="Water Valley (Mississippi, United States)"/>
<marker lat="32.816" lon="-88.15" site="Gainsville (Alabama, United States)"/>
<marker lat="33.966" lon="-89.666" site="Coffeeville (Mississippi, United States)"/>
<marker lat="32.866" lon="-85.183" site="West Point (Georgia, United States)"/>
<marker lat="38.133" lon="-78.183" site="Gordonsville (Virginia, United States)"/>
<marker lat="39.383" lon="-84.55" site="Fort Hamilton (Ohio, United States)"/>
<marker lat="40.266" lon="-76.883" site="Harrisburg, Pa. (Pennsylvania, United States)"/>
<marker lat="31.0" lon="-92.0" site="Louisiana (Louisiana, United States)"/>
<marker lat="35.5" lon="-80.0" site="North Carolina (North Carolina, United States)"/>
<marker lat="34.283" lon="-83.816" site="Gainesville (Georgia, United States)"/>
<marker lat="33.766" lon="-89.8" site="Grenada (Mississippi, United States)"/>
<marker lat="39.45" lon="-77.733" site="Sharpsburg (Maryland, United States)"/>
<marker lat="34.283" lon="-90.5" site="Tallahatchie River (Mississippi, United States)"/>
<marker lat="30.666" lon="-91.266" site="Port Hudson (Louisiana, United States)"/>
<marker lat="47.233" lon="-95.2" site="Mississippi (United States)"/>
<marker lat="38.2" lon="-77.583" site="Spottsylvania (Virginia, United States)"/>
<marker lat="36.416" lon="-94.33" site="Leetown (Arkansas, United States)"/>
<marker lat="37.0" lon="-80.0" site="Virginia (Virginia, United States)"/>
<marker lat="35.5" lon="-78.866" site="Fayetteville (North Carolina, United States)"/>
<marker lat="40.2" lon="-77.183" site="Carlisle, Pa. (Pennsylvania, United States)"/>
<marker lat="48.866" lon="2.333" site="Department de Ville de Paris (France)"/>
<marker lat="37.133" lon="-77.616" site="Five Forks (Virginia, United States)"/>
<marker lat="36.5" lon="-88.0" site="Fort Henry (Tennessee, United States)"/>
<marker lat="32.0" lon="-84.0" site="Georgia (Georgia, United States)"/>
<marker lat="35.633" lon="-91.3" site="Jacksonport (Arkansas, United States)"/>
<marker lat="33.883" lon="-88.983" site="Houston (Mississippi, United States)"/>
<marker lat="38.15" lon="-78.83" site="North Anna (Virginia, United States)"/>
<marker lat="39.0" lon="-80.0" site="West Virginia (West Virginia, United States)"/>
<marker lat="32.4" lon="-87.16" site="Selma (Alabama, United States)"/>
<marker lat="39.283" lon="-76.6" site="Baltimore, Md. (Maryland, United States)"/>
<marker lat="37.0" lon="-119.0" site="California (California, United States)"/>
<marker lat="39.16" lon="-78.1" site="Stone Bridge (Virginia, United States)"/>
<marker lat="44.0" lon="-73.0" site="Vermont (Vermont, United States)"/>
<marker lat="30.0" lon="-100.0" site="Texas (Texas, United States)"/>
<marker lat="34.233" lon="-88.983" site="Pontotoc (Mississippi, United States)"/>
<marker lat="37.2" lon="-93.283" site="Springfield, Mo. (Missouri, United States)"/>
<marker lat="37.3" lon="-78.383" site="Farmville (Virginia, United States)"/>
<marker lat="52.533" lon="13.416" site="Berlin (Berlin, Germany)"/>
<marker lat="41.383" lon="-84.116" site="Napoleon (Ohio, United States)"/>
<marker lat="33.533" lon="-90.166" site="Yazoo River (United States)"/>
<marker lat="36.5" lon="-94.15" site="Fayetteville, Ark. (Arkansas, United States)"/>
<marker lat="41.75" lon="-72.683" site="Hartford (Connecticut, United States)"/>
<marker lat="37.33" lon="-89.183" site="Cairo, Ill. (Illinois, United States)"/>
<marker lat="51.5" lon="10.5" site="Germany (Germany)"/>
<marker lat="39.566" lon="-80.433" site="Seven Pines (West Virginia, United States)"/>
<marker lat="37.4" lon="-89.4" site="Hamburg Landing (Illinois, United States)"/>
<marker lat="39.45" lon="-77.95" site="Martinsburg (West Virginia, United States)"/>
<marker lat="37.75" lon="-77.366" site="Hanover Court House (Virginia, United States)"/>
<marker lat="35.716" lon="-86.6" site="Harpeth River (Tennessee, United States)"/>
<marker lat="32.766" lon="-108.616" site="Telegraph (New Mexico, United States)"/>
<marker lat="30.683" lon="-88.33" site="Mobile, Ala. (Alabama, United States)"/>
<marker lat="38.16" lon="-78.466" site="Charlottesville (Virginia, United States)"/>
<marker lat="32.766" lon="-79.916" site="Charleston (South Carolina, United States)"/>
<marker lat="37.4" lon="-78.816" site="Appomattox (Virginia, United States)"/>
<marker lat="34.716" lon="-88.95" site="Ripley (Mississippi, United States)"/>
<marker lat="57.0" lon="-4.0" site="Scotland (United Kingdom)"/>
<marker lat="35.25" lon="-88.983" site="Bolivar, Tenn. (Tennessee, United States)"/>
<marker lat="37.1" lon="-82.716" site="Cumberland River (Kentucky, United States)"/>
<marker lat="38.666" lon="-98.0" site="Kansas (Kansas, United States)"/>
<marker lat="39.583" lon="-75.566" site="Fort Delaware (Delaware, United States)"/>
<marker lat="37.766" lon="-122.416" site="San Francisco (California, United States)"/>
<marker lat="37.4" lon="-78.45" site="Curdsville (Virginia, United States)"/>
<marker lat="35.15" lon="-86.566" site="Fayetteville, Tenn. (Tennessee, United States)"/>
<marker lat="28.0" lon="-82.0" site="Florida (Florida, United States)"/>
<marker lat="38.966" lon="-77.633" site="Aldie (Virginia, United States)"/>
<marker lat="44.516" lon="33.583" site="Balaklava (Ukraine)"/>
<marker lat="32.75" lon="-79.883" site="Charleston Harbor (South Carolina, United States)"/>
<marker lat="39.816" lon="-77.233" site="Seminary Ridge (Pennsylvania, United States)"/>
<marker lat="35.183" lon="-87.16" site="Pulaski, Tenn. (Tennessee, United States)"/>
<marker lat="42.433" lon="-71.216" site="Lexington (Massachusetts, United States)"/>
<marker lat="37.783" lon="-79.433" site="Lexington, Va. (Virginia, United States)"/>
<marker lat="33.6" lon="-88.65" site="West Point (Mississippi, United States)"/>
<marker lat="34.9" lon="-82.333" site="Wade Hampton (South Carolina, United States)"/>
<marker lat="37.516" lon="-76.783" site="York (Virginia, United States)"/>
<marker lat="38.8" lon="-77.533" site="Groveton (Virginia, United States)"/>
<marker lat="44.0" lon="-120.0" site="Oregon (Oregon, United States)"/>
<marker lat="32.35" lon="-90.866" site="Vicksburg (Mississippi, United States)"/>
<marker lat="40.433" lon="-79.983" site="Pittsburgh (Pennsylvania, United States)"/>
<marker lat="37.95" lon="-78.466" site="Overton, Va. (Virginia, United States)"/>
<marker lat="39.316" lon="-77.733" site="Harper's Ferry (West Virginia, United States)"/>
<marker lat="38.966" lon="-76.483" site="Annapolis (Maryland, United States)"/>
<marker lat="42.633" lon="-71.316" site="Lowell (Massachusetts, United States)"/>
<marker lat="40.433" lon="-75.333" site="Swamp (Pennsylvania, United States)"/>
<marker lat="38.883" lon="-77.33" site="Washington (United States)"/>
<marker lat="34.716" lon="-76.733" site="Carolina City (North Carolina, United States)"/>
<marker lat="41.816" lon="-71.4" site="Providence, R. I. (Rhode Island, United States)"/>
<marker lat="35.5" lon="-89.4" site="Moscow, Tenn. (Tennessee, United States)"/>
<marker lat="30.9" lon="-84.566" site="Bainbridge (Georgia, United States)"/>
<marker lat="35.6" lon="-87.33" site="Columbia, Tenn. (Tennessee, United States)"/>
<marker lat="37.333" lon="-77.966" site="Amelia Court House (Virginia, United States)"/>
<marker lat="34.3" lon="-89.933" site="Batesville (Mississippi, United States)"/>
<marker lat="38.916" lon="-78.183" site="Front Royal (Virginia, United States)"/>
<marker lat="42.416" lon="-90.416" site="Galena (Illinois, United States)"/>
<marker lat="34.416" lon="-88.416" site="Tombigbee River (United States)"/>
<marker lat="35.75" lon="-86.916" site="Spring Hill (Tennessee, United States)"/>
<marker lat="32.75" lon="-79.833" site="Sullivan's Island (South Carolina, United States)"/>
<marker lat="41.833" lon="-72.833" site="Connecticut (Connecticut, United States)"/>
<marker lat="39.916" lon="-77.983" site="McConnellsburg (Pennsylvania, United States)"/>
<marker lat="39.9" lon="-89.933" site="Rock Creek, Menard County, Illinois (Illinois, United States)"/>
<marker lat="38.433" lon="-77.9" site="Stevensburg (Virginia, United States)"/>
<marker lat="39.8" lon="-76.983" site="McAllister (Pennsylvania, United States)"/>
<marker lat="40.416" lon="-81.4" site="Ohio Canal (Ohio, United States)"/>
<marker lat="39.366" lon="-87.0" site="Bowling Green (Indiana, United States)"/>
<marker lat="36.466" lon="-89.466" site="Island Number Ten (Missouri, United States)"/>
<marker lat="34.783" lon="-87.666" site="Florence, Ala. (Alabama, United States)"/>
<marker lat="42.83" lon="-76.8" site="Newtown (New York, United States)"/>
<marker lat="40.0" lon="-110.0" site="Utah (Utah, United States)"/>
<marker lat="38.983" lon="-77.883" site="Upperville (Virginia, United States)"/>
<marker lat="35.666" lon="-80.466" site="Salisbury, N. C. (North Carolina, United States)"/>
<marker lat="41.7" lon="-71.266" site="Bristol, R. I. (Rhode Island, United States)"/>
<marker lat="37.25" lon="-81.183" site="Cumberland Heights (West Virginia, United States)"/>
<marker lat="37.366" lon="-77.5" site="Chesterfield (Virginia, United States)"/>
<marker lat="40.45" lon="-75.816" site="Fleetwood (Pennsylvania, United States)"/>
<marker lat="37.8" lon="-79.216" site="Boston Mountain (Virginia, United States)"/>
<marker lat="34.0" lon="-89.1" site="Yallabusha (Mississippi, United States)"/>
<marker lat="35.8" lon="-93.5" site="Boston Mountains (Arkansas, United States)"/>
<marker lat="27.75" lon="-81.8" site="Fort Meade (Florida, United States)"/>
<marker lat="38.733" lon="-77.816" site="Fauquier (Virginia, United States)"/>
<marker lat="35.95" lon="-83.916" site="Knoxville (Tennessee, United States)"/>
<marker lat="41.4" lon="-80.383" site="Greenville, Mercer County, Pennsylvania (Pennsylvania, United States)"/>
<marker lat="37.316" lon="-77.266" site="City Point (Virginia, United States)"/>
<marker lat="51.3" lon="9.5" site="Cassel (Hesse, Germany)"/>
<marker lat="39.783" lon="-77.716" site="Greencastle (Pennsylvania, United States)"/>
<marker lat="38.65" lon="-78.216" site="Sperryville (Virginia, United States)"/>
<marker lat="34.983" lon="-85.333" site="Lookout Mountain, Tenn. (Tennessee, United States)"/>
<marker lat="36.25" lon="-85.866" site="Stone Bridge (Tennessee, United States)"/>
<marker lat="36.716" lon="-76.583" site="Suffolk, Va. (Virginia, United States)"/>
<marker lat="39.816" lon="-77.216" site="Cemetery Hill (Pennsylvania, United States)"/>
<marker lat="36.2" lon="-94.233" site="Elm Springs (Arkansas, United States)"/>
<marker lat="45.766" lon="-116.8" site="Cemetery Ridge (Oregon, United States)"/>
<marker lat="31.133" lon="-87.933" site="Alabama river (Alabama, United States)"/>
<marker lat="39.6" lon="-77.816" site="Williamsport (Maryland, United States)"/>
<marker lat="38.85" lon="-77.566" site="Catharpin (Virginia, United States)"/>
<marker lat="38.866" lon="-77.1" site="Arlington (Virginia, United States)"/>
<marker lat="39.816" lon="-77.283" site="Black Horse Tavern (Pennsylvania, United States)"/>
<marker lat="34.0" lon="-81.33" site="Columbia (South Carolina, United States)"/>
<marker lat="29.95" lon="-90.66" site="New Orleans (Louisiana, United States)"/>
<marker lat="37.116" lon="-76.616" site="Mulberry Point, Va. (Virginia, United States)"/>
<marker lat="34.716" lon="-86.583" site="Huntsville (Alabama, United States)"/>
<marker lat="38.583" lon="-83.8" site="Mason County (Kentucky, United States)"/>
<marker lat="37.233" lon="-76.5" site="Yorktown (Virginia, United States)"/>
<marker lat="39.566" lon="-77.95" site="Georgetown (West Virginia, United States)"/>
<marker lat="43.83" lon="-75.65" site="Oneida (N. Y.) (New York, United States)"/>
<marker lat="30.533" lon="-92.66" site="Opelousas (Louisiana, United States)"/>
<marker lat="38.216" lon="-78.216" site="Liberty Mills (Virginia, United States)"/>
<marker lat="35.33" lon="-85.3" site="Chattanooga (Tennessee, United States)"/>
<marker lat="43.283" lon="-89.7" site="Round Top hill (Wisconsin, United States)"/>
<marker lat="31.566" lon="-85.25" site="Abbeville, Alabama (Alabama, United States)"/>
<marker lat="38.5" lon="-90.266" site="Jefferson Barracks (Missouri, United States)"/>
<marker lat="40.416" lon="-79.216" site="Torrance (Pennsylvania, United States)"/>
<marker lat="40.683" lon="-73.966" site="Brooklyn (New York, United States)"/>
<marker lat="32.366" lon="-80.683" site="Port Royal (South Carolina, United States)"/>
<marker lat="39.2" lon="-96.6" site="Manhattan, Riley County, Kansas (Kansas, United States)"/>
<marker lat="35.216" lon="-80.833" site="Charlotte (North Carolina, United States)"/>
<marker lat="32.816" lon="-85.833" site="Tallapoosa (Alabama, United States)"/>
<marker lat="37.4" lon="-79.133" site="Lynchburg (Virginia, United States)"/>
<marker lat="38.816" lon="-77.516" site="Bull Run, Va. (Virginia, United States)"/>
<marker lat="37.0" lon="-76.0" site="Chesapeake Bay (United States)"/>
<marker lat="31.16" lon="-87.166" site="Pollard (Alabama, United States)"/>
<marker lat="43.966" lon="-88.933" site="Berlin (Wisconsin, United States)"/>
</markers>