<markers>
<marker lat="42.25" lon="-71.833" site="Massachusetts (Massachusetts, United States)"/>
<marker lat="39.0" lon="-76.833" site="Maryland (Maryland, United States)"/>
<marker lat="40.0" lon="-4.0" site="Spain (Spain)"/>
<marker lat="46.0" lon="2.0" site="France (France)"/>
<marker lat="38.0" lon="-98.0" site="United States (United States)"/>
<marker lat="41.95" lon="-70.666" site="Accomack (Massachusetts, United States)"/>
<marker lat="41.666" lon="-71.5" site="Rhode Island (Rhode Island, United States)"/>
<marker lat="41.816" lon="-71.4" site="Providence, R. I. (Rhode Island, United States)"/>
<marker lat="45.0" lon="-69.0" site="Maine (Maine, United States)"/>
<marker lat="42.516" lon="-70.883" site="Salem (Massachusetts, United States)"/>
<marker lat="41.833" lon="-72.833" site="Connecticut (Connecticut, United States)"/>
<marker lat="39.5" lon="-8.0" site="Portugal (Portugal)"/>
<marker lat="19.416" lon="-99.166" site="Mexico (Mexico, Mexico)"/>
<marker lat="51.45" lon="-2.583" site="Bristol (United Kingdom)"/>
<marker lat="37.316" lon="-78.283" site="Jamestown (Virginia) (Virginia, United States)"/>
<marker lat="35.5" lon="-80.0" site="North Carolina (North Carolina, United States)"/>
<marker lat="34.716" lon="-76.733" site="Carolina City (North Carolina, United States)"/>
<marker lat="45.0" lon="-63.0" site="Nova Scotia (Canada)"/>
<marker lat="54.0" lon="-72.0" site="Quebec (Canada)"/>
<marker lat="37.4" lon="-5.983" site="Seville (Spain)"/>
<marker lat="44.0" lon="-71.666" site="New Hampshire (New Hampshire, United States)"/>
<marker lat="34.25" lon="-85.15" site="Rome, Ga. (Georgia, United States)"/>
<marker lat="19.0" lon="-72.0" site="Hispaniola"/>
<marker lat="32.366" lon="-80.683" site="Port Royal (South Carolina, United States)"/>
<marker lat="39.283" lon="-76.6" site="Baltimore, Md. (Maryland, United States)"/>
<marker lat="57.0" lon="-4.0" site="Scotland (United Kingdom)"/>
<marker lat="60.0" lon="-96.0" site="Canada (Canada)"/>
<marker lat="42.7" lon="-72.616" site="Leydon (Massachusetts, United States)"/>
<marker lat="-10.0" lon="-76.0" site="Peru (Peru)"/>
<marker lat="41.483" lon="-71.3" site="Newport (Rhode Island, United States)"/>
<marker lat="43.66" lon="-70.75" site="Portsmouth (New Hampshire, United States)"/>
<marker lat="43.2" lon="-75.45" site="Fort Stanwix (New York, United States)"/>
<marker lat="41.833" lon="-70.0" site="Cape Cod (Massachusetts, United States)"/>
<marker lat="34.683" lon="-91.3" site="Clarendon, Ark. (Arkansas, United States)"/>
<marker lat="39.15" lon="-82.483" site="Puritan (Ohio, United States)"/>
<marker lat="35.0" lon="-93.0" site="Arkansas (Arkansas, United States)"/>
<marker lat="54.0" lon="-60.0" site="Labrador (Canada)"/>
<marker lat="50.9" lon="-1.4" site="Southampton (United Kingdom)"/>
<marker lat="37.666" lon="-78.65" site="Manteo (Virginia, United States)"/>
<marker lat="50.383" lon="-4.166" site="Plymouth (United Kingdom)"/>
<marker lat="45.433" lon="12.333" site="Venice (Italy)"/>
<marker lat="60.0" lon="47.0" site="Russia (Russia)"/>
<marker lat="44.633" lon="-63.583" site="Halifax (Canada)"/>
<marker lat="41.75" lon="-72.683" site="Hartford (Connecticut, United States)"/>
<marker lat="38.8" lon="-80.616" site="Dutch (West Virginia, United States)"/>
<marker lat="35.1" lon="-107.933" site="Cibola (New Mexico, United States)"/>
<marker lat="37.983" lon="-120.366" site="Sonora (California, United States)"/>
<marker lat="35.866" lon="-76.733" site="Plymouth, N. C. (North Carolina, United States)"/>
<marker lat="49.916" lon="1.83" site="Dieppe (France)"/>
<marker lat="18.233" lon="-66.55" site="Porto Rico"/>
<marker lat="42.866" lon="-76.966" site="Geneva, N. Y. (New York, United States)"/>
<marker lat="-0.5" lon="-91.0" site="Pacific Ocean"/>
<marker lat="37.0" lon="-80.0" site="Virginia (Virginia, United States)"/>
<marker lat="23.116" lon="-82.35" site="Havana (Cuba)"/>
<marker lat="37.233" lon="-80.2" site="Roanoke (United States)"/>
<marker lat="42.366" lon="-70.75" site="Massachusetts Bay (Massachusetts, United States)"/>
<marker lat="42.333" lon="-70.966" site="Boston Harbor (Massachusetts, United States)"/>
<marker lat="13.166" lon="-59.533" site="Barbados (Barbados)"/>
<marker lat="25.0" lon="-90.0" site="Gulf of Mexico"/>
<marker lat="43.5" lon="-70.433" site="Saco (Maine, United States)"/>
<marker lat="37.266" lon="-79.933" site="Big Lick (Virginia, United States)"/>
<marker lat="36.0" lon="138.0" site="Japan (Japan)"/>
<marker lat="35.0" lon="105.0" site="China (China)"/>
<marker lat="39.166" lon="-79.7" site="St. George, W. Va. (West Virginia, United States)"/>
<marker lat="38.566" lon="-92.166" site="Jefferson City (Missouri, United States)"/>
<marker lat="53.166" lon="-0.333" site="Lincolnshire (United Kingdom)"/>
<marker lat="51.5" lon="10.5" site="Germany (Germany)"/>
<marker lat="41.6" lon="-71.316" site="Narragansett Bay (Rhode Island, United States)"/>
<marker lat="40.733" lon="-73.933" site="Long Island City (New York, United States)"/>
<marker lat="42.633" lon="-70.633" site="Cape Ann (Massachusetts, United States)"/>
<marker lat="39.0" lon="22.0" site="Greece (Greece)"/>
<marker lat="37.166" lon="-3.666" site="Granada (Spain)"/>
<marker lat="29.3" lon="-94.783" site="Galveston (Texas, United States)"/>
<marker lat="40.0" lon="-75.0" site="New Jersey (New Jersey, United States)"/>
<marker lat="42.266" lon="-70.866" site="Nantasket (Massachusetts, United States)"/>
<marker lat="33.0" lon="-87.0" site="Alabama (Alabama, United States)"/>
<marker lat="42.616" lon="-78.5" site="Castile, N. Y. (New York, United States)"/>
<marker lat="51.283" lon="1.83" site="Canterbury (United Kingdom)"/>
<marker lat="39.2" lon="-96.6" site="Manhattan, Riley County, Kansas (Kansas, United States)"/>
<marker lat="32.166" lon="-81.383" site="Eden (Georgia, United States)"/>
<marker lat="31.5" lon="34.75" site="Israel (Israel)"/>
<marker lat="40.866" lon="-72.933" site="Carmans River (New York, United States)"/>
<marker lat="20.833" lon="-89.0" site="Yucatan (Yucatan, Mexico)"/>
<marker lat="38.2" lon="-84.866" site="Frankfort (Kentucky, United States)"/>
<marker lat="42.366" lon="-71.5" site="Charles (Massachusetts, United States)"/>
<marker lat="48.0" lon="-3.16" site="Brittany (France)"/>
<marker lat="42.366" lon="-71.183" site="Watertown (Massachusetts, United States)"/>
<marker lat="45.5" lon="-73.6" site="Montreal (Canada)"/>
<marker lat="27.0" lon="30.0" site="Egypt (Egypt)"/>
<marker lat="42.466" lon="-79.333" site="Dunkirk (New York, United States)"/>
<marker lat="42.83" lon="-79.233" site="Jamestown, N. Y. (New York, United States)"/>
<marker lat="41.8" lon="-71.333" site="Seekonk (Massachusetts, United States)"/>
<marker lat="40.683" lon="-73.8" site="Jamaica, L. I. (New York, United States)"/>
<marker lat="-10.0" lon="-55.0" site="Brazil (Brazil)"/>
<marker lat="42.833" lon="12.833" site="Italy (Italy)"/>
<marker lat="65.0" lon="-18.0" site="Iceland (Iceland)"/>
<marker lat="39.45" lon="-78.33" site="Berkeley County (West Virginia, United States)"/>
<marker lat="47.55" lon="-99.4" site="Cathay (North Dakota, United States)"/>
<marker lat="41.916" lon="-89.66" site="Rochelle (Illinois, United States)"/>
<marker lat="38.966" lon="-76.483" site="Annapolis (Maryland, United States)"/>
<marker lat="42.466" lon="-70.95" site="Lynn (Massachusetts, United States)"/>
<marker lat="39.233" lon="-115.5" site="Babylon (Nevada, United States)"/>
<marker lat="34.466" lon="-87.283" site="Moulton (Alabama, United States)"/>
<marker lat="42.35" lon="-71.5" site="Boston (Massachusetts, United States)"/>
<marker lat="32.0" lon="53.0" site="Persia (Iran)"/>
<marker lat="34.966" lon="-76.966" site="Croatan (North Carolina, United States)"/>
<marker lat="50.733" lon="-3.816" site="Devonshire (United Kingdom)"/>
<marker lat="25.0" lon="45.0" site="Arabia"/>
<marker lat="29.866" lon="-89.583" site="St. Malo (Louisiana, United States)"/>
<marker lat="51.66" lon="-1.25" site="Hampshire (United Kingdom)"/>
<marker lat="49.433" lon="1.83" site="Rouen (France)"/>
<marker lat="50.6" lon="-2.466" site="Weymouth (United Kingdom)"/>
<marker lat="19.0" lon="-70.666" site="Dominican Republic (Dominican Republic)"/>
<marker lat="37.5" lon="14.0" site="Sicily (Italy)"/>
<marker lat="42.25" lon="-71.0" site="Quincy (Massachusetts, United States)"/>
<marker lat="47.766" lon="-122.683" site="Vinland (Washington, United States)"/>
<marker lat="43.483" lon="-70.45" site="Biddeford (Maine, United States)"/>
<marker lat="42.216" lon="-70.933" site="Weymouth (Massachusetts, United States)"/>
<marker lat="37.0" lon="-105.5" site="Canadian (United States)"/>
<marker lat="56.0" lon="-2.516" site="Dunbar (United Kingdom)"/>
<marker lat="39.333" lon="-77.166" site="Patuxent (Maryland, United States)"/>
<marker lat="53.966" lon="-1.83" site="York (United Kingdom)"/>
<marker lat="53.0" lon="-2.0" site="England (United Kingdom)"/>
<marker lat="41.33" lon="28.95" site="Constantinople (Turkey)"/>
<marker lat="22.3" lon="-97.866" site="Tampico (Tamaulipas, Mexico)"/>
<marker lat="31.0" lon="-92.0" site="Louisiana (Louisiana, United States)"/>
<marker lat="32.0" lon="-84.0" site="Georgia (Georgia, United States)"/>
<marker lat="45.6" lon="-68.516" site="Penobscot (Maine, United States)"/>
<marker lat="36.3" lon="-76.216" site="Elizabeth City (North Carolina, United States)"/>
<marker lat="34.0" lon="-80.0" site="South Carolina (South Carolina, United States)"/>
<marker lat="40.833" lon="-76.0" site="Pennsylvania (Pennsylvania, United States)"/>
<marker lat="37.55" lon="-77.366" site="Henrico (Virginia, United States)"/>
<marker lat="37.0" lon="-119.0" site="California (California, United States)"/>
<marker lat="41.85" lon="-72.633" site="Windsor, Conn. (Connecticut, United States)"/>
<marker lat="47.0" lon="8.0" site="Switzerland (Switzerland)"/>
<marker lat="34.183" lon="-79.75" site="Florence, S. C. (South Carolina, United States)"/>
<marker lat="44.0" lon="-73.0" site="Vermont (Vermont, United States)"/>
<marker lat="42.233" lon="-70.883" site="Hingham (Massachusetts, United States)"/>
<marker lat="18.25" lon="-77.5" site="Jamaica (Jamaica)"/>
<marker lat="35.583" lon="-79.5" site="Cape Fear (North Carolina, United States)"/>
<marker lat="43.633" lon="-70.5" site="Casco Bay (Maine, United States)"/>
<marker lat="47.0" lon="20.0" site="Hungary (Hungary)"/>
<marker lat="38.933" lon="-76.3" site="Kent Island (Maryland, United States)"/>
<marker lat="39.583" lon="-75.216" site="Salem (New Jersey, United States)"/>
<marker lat="31.5" lon="30.0" site="Mediterranean Sea"/>
<marker lat="42.283" lon="-71.66" site="Dorchester, Mass. (Massachusetts, United States)"/>
<marker lat="43.183" lon="-70.866" site="Dover, N. H. (New Hampshire, United States)"/>
<marker lat="43.5" lon="-76.983" site="Lyons, N. Y. (New York, United States)"/>
<marker lat="38.566" lon="-78.95" site="Palos (Virginia, United States)"/>
<marker lat="42.233" lon="-71.9" site="Leicester, Mass. (Massachusetts, United States)"/>
<marker lat="43.3" lon="5.366" site="Marseilles (France)"/>
<marker lat="43.333" lon="-2.75" site="Biscay (Spain)"/>
<marker lat="41.65" lon="-4.75" site="Valladolid (Spain)"/>
<marker lat="39.483" lon="-0.4" site="Valencia (Spain)"/>
<marker lat="44.2" lon="-71.9" site="Lisbon, Grafton County, New Hampshire (New Hampshire, United States)"/>
<marker lat="37.516" lon="-76.783" site="York (Virginia, United States)"/>
<marker lat="37.8" lon="-77.4" site="Pamunkey (Virginia, United States)"/>
<marker lat="41.166" lon="-91.0" site="Boston Bay (Illinois, United States)"/>
<marker lat="43.516" lon="-71.466" site="Laconia (New Hampshire, United States)"/>
<marker lat="42.6" lon="-70.65" site="Glocester (Massachusetts, United States)"/>
<marker lat="42.233" lon="-71.83" site="Milton, Mass. (Massachusetts, United States)"/>
<marker lat="35.5" lon="-89.4" site="Moscow, Tenn. (Tennessee, United States)"/>
<marker lat="35.383" lon="-88.683" site="Montezuma, Tenn. (Tennessee, United States)"/>
<marker lat="40.9" lon="-111.883" site="Gold (Utah, United States)"/>
<marker lat="36.533" lon="-6.3" site="Gades (Spain)"/>
<marker lat="41.283" lon="-72.366" site="Saybrook, Conn. (Connecticut, United States)"/>
<marker lat="33.0" lon="-90.0" site="Mississippi (Mississippi, United States)"/>
<marker lat="35.216" lon="-75.516" site="Cape Hatteras (North Carolina, United States)"/>
<marker lat="41.883" lon="-70.33" site="Wellfleet Harbor (Massachusetts, United States)"/>
<marker lat="38.583" lon="-28.7" site="Fayal (Portugal)"/>
<marker lat="43.0" lon="-75.0" site="New York State (New York, United States)"/>
<marker lat="33.983" lon="-82.633" site="Huguenot (Georgia, United States)"/>
<marker lat="44.2" lon="-71.4" site="Saco River (United States)"/>
<marker lat="41.983" lon="-70.5" site="Dangerfield (Massachusetts, United States)"/>
<marker lat="42.966" lon="-70.933" site="Exeter, N. H. (New Hampshire, United States)"/>
<marker lat="42.416" lon="-70.916" site="Nahant (Massachusetts, United States)"/>
<marker lat="41.4" lon="-70.483" site="Edgartown Harbor (Massachusetts, United States)"/>
<marker lat="25.916" lon="-100.0" site="Marin (Nuevo Leon, Mexico)"/>
<marker lat="36.816" lon="-76.283" site="Saint Helena (Virginia, United States)"/>
<marker lat="41.65" lon="-71.266" site="Bristol Bay (Rhode Island, United States)"/>
<marker lat="32.333" lon="-80.683" site="Paris Island (South Carolina, United States)"/>
<marker lat="33.2" lon="-87.566" site="Shelbyville (Alabama, United States)"/>
<marker lat="43.983" lon="-69.483" site="Pemaquid River (Maine, United States)"/>
<marker lat="36.0" lon="-82.666" site="Appalachian Mountains"/>
<marker lat="10.5" lon="-61.25" site="Trinidad (Trinidad and Tobago)"/>
<marker lat="17.333" lon="-62.75" site="St. Christopher (Saint Kitts and Nevis)"/>
<marker lat="52.16" lon="4.35" site="Delft (Netherlands)"/>
<marker lat="43.75" lon="-69.3" site="Monhegan Island (Maine, United States)"/>
<marker lat="33.533" lon="-90.166" site="Yazoo River (United States)"/>
<marker lat="35.83" lon="-88.3" site="Hamburg, Tenn. (Tennessee, United States)"/>
<marker lat="36.833" lon="-76.283" site="Norfolk (Virginia, United States)"/>
<marker lat="49.966" lon="-55.483" site="Cape Saint John (Canada)"/>
<marker lat="40.75" lon="-123.283" site="Little Prairie (California, United States)"/>
<marker lat="42.516" lon="-70.866" site="Salem Harbor (Massachusetts, United States)"/>
<marker lat="45.583" lon="-69.7" site="Kennebec (Maine, United States)"/>
<marker lat="41.166" lon="-71.55" site="Block Island (Rhode Island, United States)"/>
<marker lat="37.733" lon="-97.55" site="Saint Marks (Kansas, United States)"/>
<marker lat="53.7" lon="-2.666" site="Lancaster (United Kingdom)"/>
<marker lat="32.633" lon="-86.366" site="Coosa River (Alabama, United States)"/>
<marker lat="36.85" lon="-76.816" site="Zuni (Virginia, United States)"/>
</markers>