<markers>
<marker lat="32.183" lon="-84.133" site="Andersonville, Ga. (Georgia, United States)"/>
<marker lat="38.316" lon="-77.716" site="Wilderness, Va. (Virginia, United States)"/>
<marker lat="37.216" lon="-77.4" site="Petersburg, Va. (Virginia, United States)"/>
<marker lat="39.4" lon="-77.733" site="Antietam (Maryland, United States)"/>
<marker lat="39.816" lon="-77.216" site="Gettysburg (Pennsylvania, United States)"/>
<marker lat="38.2" lon="-77.583" site="Spottsylvania (Virginia, United States)"/>
<marker lat="35.666" lon="-80.466" site="Salisbury, N. C. (North Carolina, United States)"/>
<marker lat="38.3" lon="-77.45" site="Fredericksburg, Va. (Virginia, United States)"/>
<marker lat="38.883" lon="-77.33" site="Washington (United States)"/>
<marker lat="37.55" lon="-77.45" site="Richmond (Virginia, United States)"/>
<marker lat="38.966" lon="-76.483" site="Annapolis (Maryland, United States)"/>
<marker lat="37.583" lon="-77.3" site="Gaines Mill (Virginia, United States)"/>
<marker lat="38.75" lon="-77.466" site="Manassas, Va. (Virginia, United States)"/>
<marker lat="39.183" lon="-78.15" site="Winchester, Va. (Virginia, United States)"/>
<marker lat="30.666" lon="-91.266" site="Port Hudson (Louisiana, United States)"/>
<marker lat="34.183" lon="-79.75" site="Florence, S. C. (South Carolina, United States)"/>
<marker lat="35.1" lon="-77.33" site="New Bern (North Carolina, United States)"/>
<marker lat="36.583" lon="-79.383" site="Danville (Virginia, United States)"/>
<marker lat="37.83" lon="-78.25" site="Laurel Hill, Va. (Virginia, United States)"/>
<marker lat="38.3" lon="-77.633" site="Chancellorsville (Virginia, United States)"/>
<marker lat="32.7" lon="-79.883" site="Morris Island (South Carolina, United States)"/>
<marker lat="38.816" lon="-77.516" site="Bull Run, Va. (Virginia, United States)"/>
<marker lat="37.383" lon="-77.233" site="Malvern Hill (Virginia, United States)"/>
<marker lat="37.416" lon="-77.45" site="Drewry's Bluff (Virginia, United States)"/>
<marker lat="38.366" lon="-78.66" site="Cedar Mountain (Virginia, United States)"/>
<marker lat="38.883" lon="-77.416" site="Chantilly (Virginia, United States)"/>
<marker lat="39.16" lon="-78.3" site="Meadow Mills (Virginia, United States)"/>
<marker lat="38.8" lon="-77.33" site="Alexandria (Virginia, United States)"/>
<marker lat="32.8" lon="-81.933" site="Millen (Georgia, United States)"/>
<marker lat="32.766" lon="-79.916" site="Charleston (South Carolina, United States)"/>
<marker lat="32.466" lon="-80.933" site="Honey Hill (South Carolina, United States)"/>
<marker lat="37.433" lon="-77.233" site="Glendale, Va. (Virginia, United States)"/>
<marker lat="35.866" lon="-75.65" site="Roanoke Island (North Carolina, United States)"/>
<marker lat="30.45" lon="-91.15" site="Baton Rouge (Louisiana, United States)"/>
<marker lat="32.416" lon="-80.666" site="Beaufort, S. C. (South Carolina, United States)"/>
<marker lat="38.633" lon="-78.666" site="New Market (Virginia, United States)"/>
<marker lat="38.15" lon="-78.83" site="North Anna (Virginia, United States)"/>
<marker lat="38.966" lon="-77.633" site="Aldie (Virginia, United States)"/>
<marker lat="34.566" lon="-84.933" site="Resaca (Georgia, United States)"/>
<marker lat="35.216" lon="-77.833" site="Whitehall (North Carolina, United States)"/>
<marker lat="39.95" lon="-75.15" site="Philadelphia (Pennsylvania, United States)"/>
<marker lat="39.283" lon="-76.6" site="Baltimore, Md. (Maryland, United States)"/>
<marker lat="38.2" lon="-78.883" site="Piedmont, Va. (Virginia, United States)"/>
<marker lat="35.25" lon="-77.566" site="Kinston (North Carolina, United States)"/>
<marker lat="32.716" lon="-79.95" site="James Island (South Carolina, United States)"/>
<marker lat="39.0" lon="-105.0" site="Colorado (Colorado, United States)"/>
<marker lat="37.266" lon="-76.7" site="Williamsburg (Virginia, United States)"/>
<marker lat="38.316" lon="-77.466" site="Falmouth, Va. (Virginia, United States)"/>
<marker lat="32.83" lon="-81.1" site="Savannah (Georgia, United States)"/>
<marker lat="37.5" lon="-77.3" site="White Oak Swamp (Virginia, United States)"/>
<marker lat="34.983" lon="-85.333" site="Lookout Mountain, Tenn. (Tennessee, United States)"/>
<marker lat="37.4" lon="-77.3" site="Deep Bottom (Virginia, United States)"/>
<marker lat="37.16" lon="-76.333" site="Hampton (Virginia, United States)"/>
<marker lat="29.95" lon="-90.66" site="New Orleans (Louisiana, United States)"/>
<marker lat="30.916" lon="-91.8" site="Yellow Bayou (Louisiana, United States)"/>
<marker lat="32.7" lon="-79.933" site="Secessionville (South Carolina, United States)"/>
<marker lat="39.15" lon="-78.233" site="Opequon (Virginia, United States)"/>
<marker lat="38.866" lon="-77.1" site="Arlington (Virginia, United States)"/>
<marker lat="38.283" lon="-77.466" site="Marye's Heights (Virginia, United States)"/>
<marker lat="37.233" lon="-78.233" site="Sailor's Creek (Virginia, United States)"/>
<marker lat="34.216" lon="-77.933" site="Wilmington, N. C. (North Carolina, United States)"/>
<marker lat="35.95" lon="-83.916" site="Knoxville (Tennessee, United States)"/>
<marker lat="37.833" lon="-76.416" site="Oak Grove (Virginia, United States)"/>
<marker lat="37.766" lon="-76.6" site="Belle Isle, Va. (Virginia, United States)"/>
<marker lat="38.483" lon="-78.2" site="Deep Run (Virginia, United States)"/>
<marker lat="31.0" lon="-92.0" site="Louisiana (Louisiana, United States)"/>
<marker lat="30.2" lon="-82.416" site="Olustee (Florida, United States)"/>
<marker lat="39.4" lon="-77.4" site="Frederick, Md. (Maryland, United States)"/>
<marker lat="33.916" lon="-84.833" site="Dallas, Ga. (Georgia, United States)"/>
<marker lat="29.7" lon="-91.383" site="Ricohoc (Louisiana, United States)"/>
<marker lat="37.233" lon="-76.5" site="Yorktown (Virginia, United States)"/>
<marker lat="43.0" lon="-75.0" site="New York State (New York, United States)"/>
<marker lat="39.0" lon="-77.333" site="Dranesville (Virginia, United States)"/>
<marker lat="30.1" lon="-90.983" site="Donaldsonville (Louisiana, United States)"/>
<marker lat="29.683" lon="-91.2" site="Brashear City (Louisiana, United States)"/>
<marker lat="37.316" lon="-77.266" site="City Point (Virginia, United States)"/>
<marker lat="40.0" lon="-80.833" site="Ohio (Ohio, United States)"/>
<marker lat="42.25" lon="-71.833" site="Massachusetts (Massachusetts, United States)"/>
<marker lat="33.966" lon="-84.566" site="Kenesaw Mountain (Georgia, United States)"/>
<marker lat="38.966" lon="-78.4" site="Fishers Hill (Virginia, United States)"/>
<marker lat="42.35" lon="-71.5" site="Boston (Massachusetts, United States)"/>
<marker lat="39.66" lon="-84.366" site="Salem Heights (Ohio, United States)"/>
<marker lat="39.166" lon="-78.25" site="Opequan Creek (United States)"/>
<marker lat="35.866" lon="-76.733" site="Plymouth, N. C. (North Carolina, United States)"/>
<marker lat="31.3" lon="-92.433" site="Alexandria (Louisiana, United States)"/>
<marker lat="32.283" lon="-90.183" site="Jackson (Mississippi, United States)"/>
<marker lat="37.0" lon="-76.3" site="Old Point Comfort (Virginia, United States)"/>
<marker lat="37.6" lon="-77.366" site="Mechanicsville (Virginia, United States)"/>
<marker lat="37.4" lon="-79.133" site="Lynchburg (Virginia, United States)"/>
<marker lat="35.33" lon="-85.3" site="Chattanooga (Tennessee, United States)"/>
<marker lat="39.283" lon="-77.85" site="Charles Town (West Virginia, United States)"/>
<marker lat="46.383" lon="-90.733" site="High Bridge (Wisconsin, United States)"/>
<marker lat="35.883" lon="-84.166" site="Station West (Tennessee, United States)"/>
<marker lat="35.783" lon="-77.3" site="Tranter's Creek (North Carolina, United States)"/>
<marker lat="37.816" lon="-79.25" site="South Mountain, Va. (Virginia, United States)"/>
<marker lat="36.716" lon="-76.583" site="Suffolk, Va. (Virginia, United States)"/>
<marker lat="38.266" lon="-77.633" site="Ny River (Virginia, United States)"/>
<marker lat="31.55" lon="-92.966" site="Cane (Louisiana, United States)"/>
<marker lat="40.5" lon="-74.916" site="Beverly (New Jersey, United States)"/>
<marker lat="38.33" lon="-76.316" site="Point Lookout, Md. (Maryland, United States)"/>
<marker lat="33.733" lon="-84.383" site="Atlanta (Georgia, United States)"/>
<marker lat="32.65" lon="-79.916" site="Folly Island, S. C. (South Carolina, United States)"/>
<marker lat="36.433" lon="-76.316" site="South Mills (North Carolina, United States)"/>
<marker lat="35.433" lon="-86.983" site="Campbell's Station (Tennessee, United States)"/>
<marker lat="39.16" lon="-78.266" site="Middletown (Virginia, United States)"/>
<marker lat="30.83" lon="-96.66" site="Hempstead, Texas (Texas, United States)"/>
<marker lat="38.266" lon="-77.8" site="Gold Dale (Virginia, United States)"/>
<marker lat="35.5" lon="-80.0" site="North Carolina (North Carolina, United States)"/>
<marker lat="29.683" lon="-91.216" site="Berwick City (Louisiana, United States)"/>
<marker lat="39.1" lon="-77.55" site="Leesburg (Virginia, United States)"/>
<marker lat="32.35" lon="-95.3" site="Tyler, Texas (Texas, United States)"/>
<marker lat="39.566" lon="-77.95" site="Georgetown (West Virginia, United States)"/>
<marker lat="35.3" lon="-78.6" site="Averasboro (North Carolina, United States)"/>
<marker lat="33.95" lon="-84.55" site="Marietta (Georgia, United States)"/>
<marker lat="39.0" lon="-76.833" site="Maryland (Maryland, United States)"/>
<marker lat="37.75" lon="-77.466" site="Ashland (Virginia, United States)"/>
<marker lat="40.883" lon="-73.766" site="David's Island, N. Y. (New York, United States)"/>
<marker lat="36.833" lon="-76.283" site="Portsmouth, Va. (Virginia, United States)"/>
<marker lat="39.483" lon="-77.7" site="Keedysville (Maryland, United States)"/>
<marker lat="38.383" lon="-77.533" site="Potomac Creek (Virginia, United States)"/>
<marker lat="38.133" lon="-79.66" site="Staunton, Va. (Virginia, United States)"/>
<marker lat="38.9" lon="-77.5" site="George-Town (United States)"/>
<marker lat="40.266" lon="-76.883" site="Harrisburg, Pa. (Pennsylvania, United States)"/>
<marker lat="38.433" lon="-78.866" site="Harrisonburg, Va. (Virginia, United States)"/>
<marker lat="33.466" lon="-82.16" site="Augusta (Georgia, United States)"/>
<marker lat="32.933" lon="-90.75" site="White House Landing (Mississippi, United States)"/>
<marker lat="30.2" lon="-84.33" site="Gum Creek (Florida, United States)"/>
<marker lat="32.35" lon="-90.866" site="Vicksburg (Mississippi, United States)"/>
<marker lat="39.15" lon="-77.966" site="Berryville (Virginia, United States)"/>
<marker lat="38.233" lon="-77.666" site="Todd's Tavern (Virginia, United States)"/>
<marker lat="30.833" lon="-91.216" site="Jackson, La. (Louisiana, United States)"/>
<marker lat="34.0" lon="-80.0" site="South Carolina (South Carolina, United States)"/>
<marker lat="38.233" lon="-77.85" site="Mine Run (Virginia, United States)"/>
<marker lat="37.133" lon="-77.583" site="Gravelly Run (Virginia, United States)"/>
<marker lat="38.433" lon="-77.9" site="Stevensburg (Virginia, United States)"/>
<marker lat="32.216" lon="-80.666" site="Hilton Head (South Carolina, United States)"/>
<marker lat="39.55" lon="-77.616" site="Smoketown (Maryland, United States)"/>
<marker lat="32.33" lon="-93.7" site="Mansfield (Louisiana, United States)"/>
<marker lat="39.933" lon="-77.65" site="Chambersburg, Pa. (Pennsylvania, United States)"/>
<marker lat="44.466" lon="-91.533" site="Lookout Valley (Wisconsin, United States)"/>
<marker lat="38.9" lon="-77.25" site="Vienna (Virginia, United States)"/>
<marker lat="39.45" lon="-77.733" site="Sharpsburg (Maryland, United States)"/>
<marker lat="30.0" lon="-81.683" site="Magnolia, Fla. (Florida, United States)"/>
<marker lat="39.633" lon="-77.716" site="Hagerstown (Maryland, United States)"/>
<marker lat="37.3" lon="-78.383" site="Farmville (Virginia, United States)"/>
<marker lat="31.0" lon="-92.5" site="Bayou De Glaize (Louisiana, United States)"/>
<marker lat="37.116" lon="-76.45" site="Dalbytown (Virginia, United States)"/>
<marker lat="39.3" lon="-77.783" site="Halltown (West Virginia, United States)"/>
<marker lat="38.0" lon="-98.0" site="United States (United States)"/>
<marker lat="38.466" lon="-77.766" site="Kelly's Ford (Virginia, United States)"/>
<marker lat="39.833" lon="-75.35" site="Chester, Pa. (Pennsylvania, United States)"/>
<marker lat="37.8" lon="-77.4" site="Pamunkey (Virginia, United States)"/>
<marker lat="38.5" lon="-77.883" site="Brandy Station (Virginia, United States)"/>
<marker lat="29.65" lon="-82.316" site="Gainesville (Florida, United States)"/>
<marker lat="29.633" lon="-81.633" site="Palatka (Florida, United States)"/>
<marker lat="38.933" lon="-77.83" site="Tennallytown (United States)"/>
<marker lat="39.3" lon="-77.966" site="Smithfield, W. Va. (West Virginia, United States)"/>
<marker lat="30.833" lon="-91.95" site="Bayou Jack (Louisiana, United States)"/>
<marker lat="41.216" lon="-111.933" site="Arlington Heights (Utah, United States)"/>
<marker lat="40.733" lon="-74.166" site="Milford (New Jersey, United States)"/>
<marker lat="38.7" lon="-77.783" site="Warrenton (Virginia, United States)"/>
<marker lat="32.833" lon="-83.616" site="Macon (Georgia, United States)"/>
<marker lat="42.133" lon="-71.516" site="Milford, Mass. (Massachusetts, United States)"/>
<marker lat="37.333" lon="-77.266" site="Bermuda Hundred (Virginia, United States)"/>
<marker lat="38.516" lon="-77.6" site="Aquia Creek (Virginia, United States)"/>
<marker lat="42.516" lon="-70.883" site="Salem (Massachusetts, United States)"/>
<marker lat="29.883" lon="-81.3" site="St. Augustine (Florida, United States)"/>
<marker lat="39.216" lon="-77.9" site="Rippon, W. Va. (West Virginia, United States)"/>
<marker lat="32.783" lon="-80.1" site="John's Island, S. C. (South Carolina, United States)"/>
<marker lat="38.733" lon="-78.633" site="Mount Jackson (Virginia, United States)"/>
<marker lat="38.25" lon="-85.75" site="Louisville (Kentucky, United States)"/>
<marker lat="39.316" lon="-77.7" site="Sandy Hook, Md. (Maryland, United States)"/>
<marker lat="38.983" lon="-78.35" site="Strasburg, Va. (Virginia, United States)"/>
<marker lat="37.383" lon="-77.5" site="Proctor's Creek (Virginia, United States)"/>
<marker lat="30.316" lon="-81.65" site="Jacksonville (Florida, United States)"/>
<marker lat="36.7" lon="-76.816" site="Carrsville (Virginia, United States)"/>
<marker lat="35.716" lon="-77.9" site="Wilson, N. C. (North Carolina, United States)"/>
<marker lat="39.95" lon="-76.716" site="York, Pa. (Pennsylvania, United States)"/>
<marker lat="30.283" lon="-91.233" site="Plaquemine (Louisiana, United States)"/>
<marker lat="42.25" lon="-71.8" site="Worcester (Massachusetts, United States)"/>
<marker lat="34.0" lon="-81.33" site="Columbia (South Carolina, United States)"/>
<marker lat="42.316" lon="-71.83" site="Roxbury, Mass. (Massachusetts, United States)"/>
<marker lat="32.3" lon="-99.35" site="Belle Plain (Texas, United States)"/>
<marker lat="30.85" lon="-91.0" site="Clinton, La. (Louisiana, United States)"/>
<marker lat="29.3" lon="-94.783" site="Galveston (Texas, United States)"/>
<marker lat="35.6" lon="-78.83" site="Black Creek (North Carolina, United States)"/>
<marker lat="46.516" lon="-100.583" site="Fort Rice (North Dakota, United States)"/>
<marker lat="38.7" lon="-77.7" site="Auburn, Va. (Virginia, United States)"/>
<marker lat="45.0" lon="8.0" site="Piedmont (Italy)"/>
<marker lat="34.5" lon="-78.9" site="Gum Swamp (North Carolina, United States)"/>
<marker lat="38.35" lon="-78.683" site="Island Ford (Virginia, United States)"/>
<marker lat="39.316" lon="-77.733" site="Harper's Ferry (West Virginia, United States)"/>
<marker lat="36.416" lon="-77.583" site="Weldon, N. C. (North Carolina, United States)"/>
<marker lat="29.35" lon="-89.45" site="Fort Jackson (Louisiana, United States)"/>
<marker lat="39.83" lon="-77.15" site="Rockville, Md. (Maryland, United States)"/>
<marker lat="37.133" lon="-77.616" site="Five Forks (Virginia, United States)"/>
<marker lat="42.633" lon="-71.9" site="Ashburnham (Massachusetts, United States)"/>
<marker lat="44.283" lon="-72.33" site="Barnet (Vermont, United States)"/>
<marker lat="30.216" lon="-90.9" site="Ascension Parish, La. (Louisiana, United States)"/>
<marker lat="37.733" lon="-77.33" site="Whitehall (Virginia, United States)"/>
</markers>