<markers>
<marker lat="35.5" lon="-85.0" site="Tennessee (Tennessee, United States)"/>
<marker lat="38.0" lon="-98.0" site="United States (United States)"/>
<marker lat="37.0" lon="-80.0" site="Virginia (Virginia, United States)"/>
<marker lat="35.666" lon="-80.466" site="Salisbury, N. C. (North Carolina, United States)"/>
<marker lat="32.0" lon="-84.0" site="Georgia (Georgia, United States)"/>
<marker lat="37.55" lon="-77.366" site="Henrico (Virginia, United States)"/>
<marker lat="37.366" lon="-77.5" site="Chesterfield (Virginia, United States)"/>
<marker lat="30.566" lon="-81.683" site="Nassau River (Florida, United States)"/>
<marker lat="60.0" lon="-96.0" site="Canada (Canada)"/>
<marker lat="37.55" lon="-77.45" site="Richmond (Virginia, United States)"/>
<marker lat="33.583" lon="-92.833" site="Camden, Ark. (Arkansas, United States)"/>
<marker lat="42.85" lon="-71.366" site="Londonderry, N. H. (New Hampshire, United States)"/>
<marker lat="38.0" lon="-98.0" site="Missouri (Missouri, United States)"/>
<marker lat="43.166" lon="-78.766" site="Niagara County (New York, United States)"/>
<marker lat="36.783" lon="-81.766" site="Glade Spring, Virginia (Virginia, United States)"/>
<marker lat="37.4" lon="-79.133" site="Lynchburg (Virginia, United States)"/>
<marker lat="39.5" lon="-77.183" site="Beaver Dam Creek, Md. (Maryland, United States)"/>
<marker lat="36.85" lon="-81.733" site="Saltville (Virginia, United States)"/>
<marker lat="36.7" lon="-81.966" site="Abingdon, Va. (Virginia, United States)"/>
<marker lat="37.216" lon="-77.4" site="Petersburg, Va. (Virginia, United States)"/>
<marker lat="34.0" lon="-80.0" site="South Carolina (South Carolina, United States)"/>
<marker lat="44.0" lon="-73.0" site="Vermont (Vermont, United States)"/>
<marker lat="37.1" lon="-80.683" site="Dublin (Virginia, United States)"/>
<marker lat="30.766" lon="-85.216" site="Marianna (Florida, United States)"/>
<marker lat="36.533" lon="-82.55" site="Kingsport (Tennessee, United States)"/>
<marker lat="33.466" lon="-82.16" site="Augusta (Georgia, United States)"/>
<marker lat="35.216" lon="-80.833" site="Charlotte (North Carolina, United States)"/>
<marker lat="36.583" lon="-79.383" site="Danville (Virginia, United States)"/>
<marker lat="40.283" lon="-84.15" site="Sydney (Ohio, United States)"/>
</markers>