<markers>
<marker lat="32.7" lon="-79.883" site="Morris Island (South Carolina, United States)"/>
<marker lat="39.0" lon="-76.833" site="Maryland (Maryland, United States)"/>
<marker lat="37.316" lon="-77.266" site="City Point (Virginia, United States)"/>
<marker lat="34.366" lon="-106.8" site="Contreras (New Mexico, United States)"/>
<marker lat="35.5" lon="-80.0" site="North Carolina (North Carolina, United States)"/>
<marker lat="41.216" lon="-85.316" site="Churubusco (Indiana, United States)"/>
<marker lat="32.366" lon="-80.683" site="Port Royal (South Carolina, United States)"/>
<marker lat="32.266" lon="-115.816" site="Chapultepec (Baja Caifornia Norte, Mexico)"/>
<marker lat="35.1" lon="-77.33" site="New Bern (North Carolina, United States)"/>
<marker lat="31.933" lon="-80.95" site="Warsaw Sound (Georgia, United States)"/>
<marker lat="38.0" lon="-98.0" site="United States (United States)"/>
<marker lat="32.0" lon="-84.0" site="Georgia (Georgia, United States)"/>
<marker lat="40.833" lon="-76.0" site="Pennsylvania (Pennsylvania, United States)"/>
<marker lat="32.7" lon="-79.933" site="Secessionville (South Carolina, United States)"/>
<marker lat="19.416" lon="-99.166" site="Mexico (Mexico, Mexico)"/>
<marker lat="37.85" lon="-78.266" site="Fluvanna (Virginia, United States)"/>
<marker lat="33.733" lon="-84.383" site="Atlanta (Georgia, United States)"/>
<marker lat="39.333" lon="-77.716" site="Maryland Heights (Maryland, United States)"/>
<marker lat="44.0" lon="-85.0" site="Michigan (Michigan, United States)"/>
<marker lat="33.0" lon="-90.0" site="Mississippi (Mississippi, United States)"/>
<marker lat="38.0" lon="-98.0" site="Missouri (Missouri, United States)"/>
<marker lat="39.5" lon="-77.65" site="Boonsboro (Maryland, United States)"/>
<marker lat="34.2" lon="-80.733" site="Gillies Creek (South Carolina, United States)"/>
<marker lat="33.0" lon="-87.0" site="Alabama (Alabama, United States)"/>
<marker lat="30.666" lon="-91.266" site="Port Hudson (Louisiana, United States)"/>
<marker lat="47.233" lon="-95.2" site="Mississippi (United States)"/>
<marker lat="37.983" lon="-91.6" site="Saint James (Missouri, United States)"/>
<marker lat="38.4" lon="-79.566" site="Monterey (Virginia, United States)"/>
<marker lat="38.683" lon="-77.9" site="Waterloo, Va. (Virginia, United States)"/>
<marker lat="30.566" lon="-81.683" site="Nassau River (Florida, United States)"/>
<marker lat="34.0" lon="-80.0" site="South Carolina (South Carolina, United States)"/>
<marker lat="39.316" lon="-77.733" site="Harper's Ferry (West Virginia, United States)"/>
<marker lat="35.0" lon="-93.0" site="Arkansas (Arkansas, United States)"/>
<marker lat="37.55" lon="-77.45" site="Richmond (Virginia, United States)"/>
<marker lat="37.55" lon="-77.366" site="Henrico (Virginia, United States)"/>
<marker lat="25.2" lon="-99.833" site="Monterrey (Nuevo Leon, Mexico)"/>
<marker lat="32.716" lon="-79.95" site="James Island (South Carolina, United States)"/>
<marker lat="23.0" lon="-102.0" site="Mexico (Mexico)"/>
<marker lat="39.633" lon="-77.716" site="Hagerstown (Maryland, United States)"/>
<marker lat="35.25" lon="-77.566" site="Kinston (North Carolina, United States)"/>
<marker lat="31.95" lon="-83.983" site="Cobb (Ga.) (Georgia, United States)"/>
<marker lat="39.6" lon="-77.7" site="Funkstown (Maryland, United States)"/>
<marker lat="36.8" lon="-79.3" site="Shockoe Creek (Virginia, United States)"/>
<marker lat="31.85" lon="-91.183" site="Rodney (Mississippi, United States)"/>
<marker lat="40.766" lon="-74.16" site="Weehawken (New Jersey, United States)"/>
</markers>