<markers>
<marker lat="53.0" lon="-2.0" site="England (United Kingdom)"/>
<marker lat="53.416" lon="-3.0" site="Liverpool (United Kingdom)"/>
<marker lat="51.5" lon="-0.166" site="London (United Kingdom)"/>
<marker lat="-4.916" lon="29.65" site="Ujiji (Tanzania)"/>
<marker lat="52.516" lon="-3.5" site="Cambria (United Kingdom)"/>
<marker lat="27.0" lon="30.0" site="Egypt (Egypt)"/>
<marker lat="51.45" lon="5.983" site="America (Netherlands)"/>
<marker lat="35.0" lon="-93.0" site="Arkansas (Arkansas, United States)"/>
<marker lat="-6.0" lon="29.65" site="Lake Tanganyika"/>
<marker lat="6.75" lon="-1.583" site="Coomassie (Ghana)"/>
<marker lat="40.0" lon="-4.0" site="Spain (Spain)"/>
<marker lat="53.266" lon="-3.233" site="Brynford (United Kingdom)"/>
<marker lat="15.55" lon="32.533" site="Khartoum (Sudan)"/>
<marker lat="46.0" lon="2.0" site="France (France)"/>
<marker lat="-1.0" lon="33.0" site="Victoria Nyanza"/>
<marker lat="-7.0" lon="20.0" site="Congo"/>
<marker lat="1.283" lon="24.566" site="Yambuya (Congo)"/>
<marker lat="53.183" lon="-3.416" site="Denbigh (United Kingdom)"/>
<marker lat="50.833" lon="4.0" site="Belgium (Belgium)"/>
<marker lat="38.0" lon="-98.0" site="United States (United States)"/>
<marker lat="51.5" lon="10.5" site="Germany (Germany)"/>
<marker lat="20.0" lon="77.0" site="India (India)"/>
<marker lat="38.333" lon="-118.183" site="Douglass (Nevada, United States)"/>
<marker lat="-42.0" lon="174.0" site="New Zealand (New Zealand)"/>
<marker lat="2.0" lon="48.0" site="Indian Ocean"/>
<marker lat="-25.0" lon="135.0" site="Australia (Australia)"/>
<marker lat="34.733" lon="-92.283" site="Little Rock (Arkansas, United States)"/>
<marker lat="41.816" lon="-71.4" site="Providence, R. I. (Rhode Island, United States)"/>
<marker lat="51.216" lon="2.916" site="Ostend (Belgium)"/>
<marker lat="37.33" lon="-89.183" site="Cairo, Ill. (Illinois, United States)"/>
<marker lat="37.133" lon="-85.95" site="Cave City (Kentucky, United States)"/>
<marker lat="36.75" lon="-89.1" site="Columbus, Ky. (Kentucky, United States)"/>
<marker lat="40.416" lon="-3.716" site="Madrid (Spain)"/>
<marker lat="35.1" lon="-88.35" site="Shiloh, Tenn. (Tennessee, United States)"/>
<marker lat="35.666" lon="-92.733" site="Arkansas (United States)"/>
<marker lat="29.966" lon="32.55" site="Suez (Egypt)"/>
<marker lat="-6.66" lon="12.4" site="Congo River"/>
<marker lat="41.85" lon="-87.65" site="Chicago (Illinois, United States)"/>
<marker lat="48.866" lon="2.333" site="Department de Ville de Paris (France)"/>
<marker lat="38.8" lon="-77.33" site="Alexandria (Virginia, United States)"/>
<marker lat="53.5" lon="-2.216" site="Manchester (United Kingdom)"/>
<marker lat="35.0" lon="105.0" site="China (China)"/>
<marker lat="37.433" lon="24.916" site="Hermoupolis (Greece)"/>
<marker lat="51.3" lon="-0.65" site="Pirbright (United Kingdom)"/>
<marker lat="-36.916" lon="174.783" site="Auckland (New Zealand)"/>
<marker lat="50.833" lon="4.333" site="Brussels (Belgium)"/>
<marker lat="47.566" lon="-98.45" site="Mose (North Dakota, United States)"/>
<marker lat="37.66" lon="-88.55" site="Tennessee River (United States)"/>
<marker lat="45.15" lon="-92.583" site="Johannesburg (Wisconsin, United States)"/>
<marker lat="42.833" lon="12.833" site="Italy (Italy)"/>
<marker lat="41.65" lon="-0.9" site="Caesaraugusta (Spain)"/>
<marker lat="38.65" lon="-77.533" site="Aden (Virginia, United States)"/>
<marker lat="39.483" lon="-0.4" site="Valencia (Spain)"/>
<marker lat="39.883" lon="-83.433" site="London, Madison County, Ohio (Ohio, United States)"/>
<marker lat="42.633" lon="-71.316" site="Lowell (Massachusetts, United States)"/>
<marker lat="18.933" lon="72.85" site="Bombay (Maharashtra, India)"/>
<marker lat="36.166" lon="-86.75" site="Edgefield (Tennessee, United States)"/>
<marker lat="1.0" lon="-40.0" site="Atlantic Ocean"/>
<marker lat="52.633" lon="1.3" site="Norwich (United Kingdom)"/>
<marker lat="31.283" lon="-87.83" site="London (Alabama, United States)"/>
<marker lat="39.0" lon="22.0" site="Greece (Greece)"/>
<marker lat="39.5" lon="-8.0" site="Portugal (Portugal)"/>
<marker lat="34.33" lon="-91.45" site="South Bend, Arkansas (Arkansas, United States)"/>
<marker lat="60.0" lon="-96.0" site="Canada (Canada)"/>
<marker lat="34.933" lon="-88.516" site="Corinth (Mississippi, United States)"/>
<marker lat="39.316" lon="-77.733" site="Harper's Ferry (West Virginia, United States)"/>
<marker lat="38.0" lon="-98.0" site="Missouri (Missouri, United States)"/>
<marker lat="-5.833" lon="13.5" site="Boma (Congo)"/>
<marker lat="52.533" lon="13.416" site="Berlin (Berlin, Germany)"/>
<marker lat="34.533" lon="-91.966" site="England (Arkansas, United States)"/>
<marker lat="51.283" lon="1.83" site="Canterbury (United Kingdom)"/>
<marker lat="35.666" lon="51.433" site="Teheran (Iran)"/>
<marker lat="43.833" lon="-66.133" site="Yarmouth (Canada)"/>
<marker lat="56.0" lon="10.0" site="Denmark (Denmark)"/>
<marker lat="39.283" lon="-75.6" site="Smyrna, Del. (Delaware, United States)"/>
<marker lat="33.8" lon="-94.533" site="America (Oklahoma, United States)"/>
<marker lat="39.15" lon="-84.45" site="Cincinnati (Ohio, United States)"/>
<marker lat="60.0" lon="47.0" site="Russia (Russia)"/>
<marker lat="57.0" lon="-4.0" site="Scotland (United Kingdom)"/>
<marker lat="41.33" lon="28.95" site="Constantinople (Turkey)"/>
<marker lat="8.0" lon="39.0" site="Ethiopia (Ethiopia)"/>
<marker lat="32.0" lon="-84.0" site="Georgia (Georgia, United States)"/>
<marker lat="34.66" lon="-6.833" site="Sala (Morocco)"/>
<marker lat="39.0" lon="35.0" site="Turquie (Turkey)"/>
<marker lat="-43.0" lon="147.0" site="Tasmania (Tasmania, Australia)"/>
<marker lat="-30.0" lon="26.0" site="South Africa (South Africa)"/>
<marker lat="38.25" lon="-85.75" site="Louisville (Kentucky, United States)"/>
<marker lat="32.4" lon="-81.716" site="Pretoria (Georgia, United States)"/>
<marker lat="36.983" lon="-86.433" site="Bowling Green (Kentucky, United States)"/>
<marker lat="51.2" lon="-0.5" site="Surrey (United Kingdom)"/>
<marker lat="32.0" lon="53.0" site="Persia (Iran)"/>
<marker lat="12.783" lon="45.5" site="Adan (Yemen)"/>
<marker lat="39.633" lon="-77.716" site="Hagerstown (Maryland, United States)"/>
<marker lat="34.216" lon="-92.0" site="Pine Bluff (Arkansas, United States)"/>
<marker lat="39.566" lon="-76.983" site="Westminster (Maryland, United States)"/>
<marker lat="34.316" lon="-91.4" site="Arkansas County (Arkansas, United States)"/>
<marker lat="25.0" lon="45.0" site="Arabia"/>
<marker lat="41.25" lon="-95.933" site="Omaha (Nebraska, United States)"/>
<marker lat="34.683" lon="-94.316" site="Ouachita (United States)"/>
<marker lat="51.133" lon="1.316" site="Dubris (United Kingdom)"/>
<marker lat="47.333" lon="13.333" site="Austria (Austria)"/>
<marker lat="35.133" lon="-90.33" site="Memphis (Tennessee, United States)"/>
<marker lat="-6.433" lon="38.916" site="Bagamoyo (Tanzania)"/>
<marker lat="39.183" lon="-78.15" site="Winchester, Va. (Virginia, United States)"/>
<marker lat="37.433" lon="-84.633" site="Green (Kentucky, United States)"/>
<marker lat="53.133" lon="-4.266" site="Carnarvon (United Kingdom)"/>
<marker lat="55.95" lon="-3.216" site="Edinburgh (United Kingdom)"/>
<marker lat="-33.933" lon="18.466" site="Cape Town (South Africa)"/>
<marker lat="40.0" lon="-89.0" site="Illinois (Illinois, United States)"/>
<marker lat="14.0" lon="-13.0" site="Oriental (Senegal)"/>
<marker lat="36.833" lon="3.0" site="Algiers (Algeria)"/>
<marker lat="35.5" lon="-80.0" site="North Carolina (North Carolina, United States)"/>
<marker lat="32.183" lon="-84.133" site="Andersonville, Ga. (Georgia, United States)"/>
<marker lat="38.883" lon="-77.33" site="Washington (United States)"/>
<marker lat="39.55" lon="-94.683" site="Platte River (Missouri, United States)"/>
<marker lat="42.25" lon="-71.833" site="Massachusetts (Massachusetts, United States)"/>
<marker lat="39.0" lon="-76.833" site="Maryland (Maryland, United States)"/>
<marker lat="47.0" lon="8.0" site="Switzerland (Switzerland)"/>
<marker lat="39.45" lon="-77.733" site="Sharpsburg (Maryland, United States)"/>
<marker lat="35.5" lon="-85.0" site="Tennessee (Tennessee, United States)"/>
<marker lat="42.333" lon="-76.833" site="Havana, N. Y. (New York, United States)"/>
<marker lat="33.0" lon="-87.0" site="Alabama (Alabama, United States)"/>
<marker lat="34.6" lon="-92.883" site="Whittington (Arkansas, United States)"/>
<marker lat="47.233" lon="-95.2" site="Mississippi (United States)"/>
<marker lat="-43.0" lon="170.833" site="West Coast (New Zealand)"/>
<marker lat="46.55" lon="7.9" site="Murren (Switzerland)"/>
<marker lat="40.3" lon="-90.5" site="Havana (Illinois, United States)"/>
<marker lat="41.416" lon="2.166" site="Barcino (Spain)"/>
<marker lat="37.133" lon="-89.116" site="America (Illinois, United States)"/>
<marker lat="43.483" lon="-1.55" site="Biarritz (France)"/>
<marker lat="38.15" lon="-122.883" site="Cypress Grove (California, United States)"/>
<marker lat="38.7" lon="-77.7" site="Auburn, Va. (Virginia, United States)"/>
<marker lat="50.9" lon="-1.4" site="Southampton (United Kingdom)"/>
<marker lat="35.166" lon="25.0" site="Crete (Greece)"/>
<marker lat="42.483" lon="-76.283" site="Dryden, Tompkins County, New York (New York, United States)"/>
<marker lat="51.5" lon="-0.15" site="Lambeth (United Kingdom)"/>
<marker lat="38.433" lon="-85.166" site="New Castle, Ky. (Kentucky, United States)"/>
<marker lat="53.766" lon="-2.816" site="Clifton (United Kingdom)"/>
<marker lat="51.5" lon="-0.166" site="Grammar school (United Kingdom)"/>
<marker lat="40.75" lon="14.483" site="Pompeii (Italy)"/>
<marker lat="8.0" lon="-66.0" site="Venezuela (Venezuela)"/>
<marker lat="50.833" lon="-0.166" site="Brighton (United Kingdom)"/>
<marker lat="22.5" lon="88.333" site="Calcutta (West Bengal, India)"/>
<marker lat="52.2" lon="0.116" site="Cantabrigia (United Kingdom)"/>
<marker lat="36.5" lon="-88.0" site="Fort Henry (Tennessee, United States)"/>
<marker lat="33.75" lon="-86.75" site="Columbus (Alabama, United States)"/>
<marker lat="52.133" lon="-0.483" site="Bedford (United Kingdom)"/>
<marker lat="51.516" lon="-0.616" site="Eton (United Kingdom)"/>
<marker lat="51.5" lon="-0.166" site="National school (United Kingdom)"/>
<marker lat="38.666" lon="-98.0" site="Kansas (Kansas, United States)"/>
<marker lat="31.0" lon="-92.0" site="Louisiana (Louisiana, United States)"/>
<marker lat="35.25" lon="-91.733" site="Searcy (Arkansas, United States)"/>
<marker lat="51.5" lon="-0.166" site="St. Paul's cathedral (United Kingdom)"/>
<marker lat="39.766" lon="-94.833" site="St. Joseph, Mo. (Missouri, United States)"/>
<marker lat="50.0" lon="-1.0" site="English Channel"/>
<marker lat="36.133" lon="-5.35" site="Gibraltar"/>
<marker lat="38.0" lon="23.733" site="Athens (Greece)"/>
<marker lat="50.733" lon="4.233" site="Halle (Belgium)"/>
<marker lat="33.666" lon="-84.433" site="South River, Ga. (Georgia, United States)"/>
<marker lat="46.216" lon="6.15" site="Geneva (Switzerland)"/>
<marker lat="36.966" lon="-122.16" site="Branciforte (California, United States)"/>
<marker lat="30.166" lon="31.1" site="Nile"/>
<marker lat="43.55" lon="-73.6" site="Refuge Island (New York, United States)"/>
<marker lat="43.3" lon="5.366" site="Marseilles (France)"/>
<marker lat="31.5" lon="34.75" site="Israel (Israel)"/>
<marker lat="-37.75" lon="144.966" site="Melbourne (Victoria, Australia)"/>
<marker lat="35.0" lon="38.0" site="Syria (Syria)"/>
<marker lat="43.55" lon="7.0" site="Cannes (France)"/>
<marker lat="28.983" lon="50.833" site="Bushire (Iran)"/>
<marker lat="40.0" lon="-80.833" site="Ohio (Ohio, United States)"/>
<marker lat="43.75" lon="-97.0" site="Clear Lake (South Dakota, United States)"/>
<marker lat="39.866" lon="-4.33" site="Toledo (Spain)"/>
<marker lat="32.35" lon="-90.866" site="Vicksburg (Mississippi, United States)"/>
<marker lat="33.733" lon="-84.383" site="Atlanta (Georgia, United States)"/>
<marker lat="55.883" lon="-4.25" site="Glasgow (United Kingdom)"/>
<marker lat="-38.566" lon="144.16" site="Lorne (Victoria, Australia)"/>
<marker lat="33.366" lon="-91.966" site="Longview (Arkansas, United States)"/>
<marker lat="33.5" lon="-86.5" site="Providence (Alabama, United States)"/>
<marker lat="51.9" lon="-2.66" site="Cheltenham (United Kingdom)"/>
<marker lat="31.833" lon="-91.65" site="Sicily Island (Louisiana, United States)"/>
<marker lat="40.75" lon="-111.883" site="Salt Lake City (Utah, United States)"/>
<marker lat="35.533" lon="-96.216" site="Oriental (Oklahoma, United States)"/>
<marker lat="38.816" lon="-90.183" site="Missouri (United States)"/>
<marker lat="34.5" lon="-118.233" site="Los Angeles (California, United States)"/>
<marker lat="42.616" lon="-77.866" site="Tuscarora (New York, United States)"/>
<marker lat="52.5" lon="-1.833" site="Birmingham (United Kingdom)"/>
<marker lat="44.733" lon="-95.566" site="Lorne (Minnesota, United States)"/>
<marker lat="37.9" lon="-78.483" site="Blenheim, Va. (Virginia, United States)"/>
<marker lat="35.916" lon="-86.166" site="Milton, Tenn. (Tennessee, United States)"/>
<marker lat="51.883" lon="-2.233" site="Gloucester (United Kingdom)"/>
<marker lat="59.333" lon="18.83" site="Stockholm (Sweden)"/>
<marker lat="39.283" lon="-76.6" site="Baltimore, Md. (Maryland, United States)"/>
<marker lat="40.0" lon="45.0" site="Armenia (Armenia)"/>
<marker lat="54.783" lon="-1.566" site="Durham (United Kingdom)"/>
<marker lat="35.633" lon="-92.716" site="South Fork Little Red River (Arkansas, United States)"/>
<marker lat="50.466" lon="2.116" site="Agincourt (France)"/>
<marker lat="46.0" lon="-94.0" site="Minnesota (Minnesota, United States)"/>
<marker lat="33.0" lon="-90.0" site="Mississippi (Mississippi, United States)"/>
<marker lat="47.0" lon="-110.0" site="Montana (Montana, United States)"/>
<marker lat="41.5" lon="-100.0" site="Nebraska (Nebraska, United States)"/>
</markers>