<markers>
<marker lat="38.0" lon="-98.0" site="United States (United States)"/>
<marker lat="33.0" lon="-90.0" site="Mississippi (Mississippi, United States)"/>
<marker lat="38.883" lon="-77.33" site="Washington (United States)"/>
<marker lat="19.416" lon="-99.166" site="Mexico (Mexico, Mexico)"/>
<marker lat="37.0" lon="-85.0" site="Kentucky (Kentucky, United States)"/>
<marker lat="42.25" lon="-71.833" site="Massachusetts (Massachusetts, United States)"/>
<marker lat="53.0" lon="-2.0" site="England (United Kingdom)"/>
<marker lat="30.0" lon="-100.0" site="Texas (Texas, United States)"/>
<marker lat="44.0" lon="-120.0" site="Oregon (Oregon, United States)"/>
<marker lat="38.0" lon="-98.0" site="Missouri (Missouri, United States)"/>
<marker lat="43.5" lon="-91.133" site="Prairie Du Chien (Wisconsin, United States)"/>
<marker lat="25.5" lon="-101.0" site="Saltillo (Coahuila, Mexico)"/>
<marker lat="34.0" lon="-80.0" site="South Carolina (South Carolina, United States)"/>
<marker lat="36.6" lon="-121.883" site="Monterey (California, United States)"/>
<marker lat="32.0" lon="-84.0" site="Georgia (Georgia, United States)"/>
<marker lat="31.55" lon="-91.4" site="Natchez (Mississippi, United States)"/>
<marker lat="32.866" lon="-85.183" site="West Point (Georgia, United States)"/>
<marker lat="40.0" lon="-75.0" site="New Jersey (New Jersey, United States)"/>
<marker lat="38.33" lon="-84.5" site="Lexington (Kentucky, United States)"/>
<marker lat="28.0" lon="-82.0" site="Florida (Florida, United States)"/>
<marker lat="47.233" lon="-95.2" site="Mississippi (United States)"/>
<marker lat="42.0" lon="-93.0" site="Iowa (Iowa, United States)"/>
<marker lat="32.533" lon="-116.733" site="Buena Vista (Baja Caifornia Norte, Mexico)"/>
<marker lat="23.0" lon="-102.0" site="Mexico (Mexico)"/>
<marker lat="40.0" lon="-80.833" site="Ohio (Ohio, United States)"/>
<marker lat="42.5" lon="-90.65" site="Dubuque (Iowa, United States)"/>
<marker lat="32.35" lon="-90.866" site="Vicksburg (Mississippi, United States)"/>
<marker lat="42.416" lon="-90.416" site="Galena (Illinois, United States)"/>
<marker lat="40.0" lon="-89.0" site="Illinois (Illinois, United States)"/>
<marker lat="37.0" lon="-119.0" site="California (California, United States)"/>
<marker lat="40.833" lon="-76.0" site="Pennsylvania (Pennsylvania, United States)"/>
<marker lat="33.0" lon="-87.0" site="Alabama (Alabama, United States)"/>
<marker lat="33.33" lon="-86.9" site="Brierfield (Alabama, United States)"/>
<marker lat="38.5" lon="-90.266" site="Jefferson Barracks (Missouri, United States)"/>
<marker lat="31.0" lon="-92.0" site="Louisiana (Louisiana, United States)"/>
<marker lat="25.2" lon="-99.833" site="Monterrey (Nuevo Leon, Mexico)"/>
<marker lat="40.0" lon="-86.0" site="Indiana (Indiana, United States)"/>
<marker lat="41.5" lon="-90.566" site="Rock Island, Ill. (Illinois, United States)"/>
<marker lat="35.5" lon="-85.0" site="Tennessee (Tennessee, United States)"/>
<marker lat="35.783" lon="-95.25" site="Fort Gibson (Oklahoma, United States)"/>
<marker lat="38.666" lon="-98.0" site="Kansas (Kansas, United States)"/>
<marker lat="38.616" lon="-90.183" site="St. Louis (Missouri, United States)"/>
<marker lat="41.85" lon="-87.65" site="Chicago (Illinois, United States)"/>
<marker lat="46.0" lon="2.0" site="France (France)"/>
<marker lat="28.75" lon="-96.966" site="Hughes (Texas, United States)"/>
<marker lat="44.0" lon="-71.666" site="New Hampshire (New Hampshire, United States)"/>
<marker lat="39.0" lon="-76.833" site="Maryland (Maryland, United States)"/>
<marker lat="44.0" lon="-85.0" site="Michigan (Michigan, United States)"/>
<marker lat="32.766" lon="-79.916" site="Charleston (South Carolina, United States)"/>
<marker lat="46.533" lon="-86.5" site="Fox River (Michigan, United States)"/>
<marker lat="-0.5" lon="-91.0" site="Pacific Ocean"/>
<marker lat="45.0" lon="-90.0" site="Wisconsin (Wisconsin, United States)"/>
<marker lat="34.66" lon="-88.633" site="Camargo (Mississippi, United States)"/>
<marker lat="39.0" lon="-75.666" site="Delaware (Delaware, United States)"/>
<marker lat="37.883" lon="-122.316" site="Point Isabel (California, United States)"/>
<marker lat="36.983" lon="-89.133" site="Ohio (United States)"/>
<marker lat="31.1" lon="-91.283" site="Woodville (Mississippi, United States)"/>
<marker lat="35.0" lon="-93.0" site="Arkansas (Arkansas, United States)"/>
<marker lat="60.0" lon="47.0" site="Russia (Russia)"/>
<marker lat="32.283" lon="-90.183" site="Jackson (Mississippi, United States)"/>
<marker lat="40.55" lon="-85.25" site="Matamoras (Indiana, United States)"/>
<marker lat="41.5" lon="-100.0" site="Nebraska (Nebraska, United States)"/>
<marker lat="37.516" lon="-76.783" site="West Point (Virginia, United States)"/>
<marker lat="20.0" lon="77.0" site="India (India)"/>
<marker lat="42.333" lon="-76.833" site="Havana, N. Y. (New York, United States)"/>
<marker lat="35.5" lon="-80.0" site="North Carolina (North Carolina, United States)"/>
<marker lat="34.366" lon="-88.666" site="Saltillo (Mississippi, United States)"/>
<marker lat="44.583" lon="-92.5" site="Wisconsin (Wisconsin, United States)"/>
<marker lat="34.16" lon="-83.966" site="Yellow River, Georgia (Georgia, United States)"/>
<marker lat="38.666" lon="-87.516" site="Vincennes (Indiana, United States)"/>
<marker lat="62.0" lon="15.0" site="Sweden (Sweden)"/>
<marker lat="43.65" lon="-70.25" site="Portland (Maine, United States)"/>
<marker lat="39.283" lon="-76.6" site="Baltimore, Md. (Maryland, United States)"/>
<marker lat="40.383" lon="-91.383" site="Keokuk, Iowa (Iowa, United States)"/>
<marker lat="45.0" lon="-69.0" site="Maine (Maine, United States)"/>
<marker lat="46.0" lon="-94.0" site="Minnesota (Minnesota, United States)"/>
<marker lat="43.65" lon="-70.233" site="Portland Harbor (Maine, United States)"/>
<marker lat="42.5" lon="-96.4" site="Sioux City (Iowa, United States)"/>
<marker lat="43.2" lon="-71.533" site="Concord, N. H. (New Hampshire, United States)"/>
<marker lat="40.0" lon="-110.0" site="Utah (Utah, United States)"/>
<marker lat="44.0" lon="-73.0" site="Vermont (Vermont, United States)"/>
<marker lat="35.0" lon="-98.0" site="Oklahoma (Oklahoma, United States)"/>
<marker lat="37.966" lon="-90.33" site="Santa Genoveva (Missouri, United States)"/>
<marker lat="37.216" lon="-77.4" site="Petersburg, Va. (Virginia, United States)"/>
<marker lat="38.666" lon="-95.516" site="Michigan Valley (Kansas, United States)"/>
<marker lat="25.9" lon="-97.483" site="Fort Taylor (Texas, United States)"/>
<marker lat="38.25" lon="-85.75" site="Louisville (Kentucky, United States)"/>
<marker lat="39.316" lon="-77.733" site="Harper's Ferry (West Virginia, United States)"/>
<marker lat="39.15" lon="-84.45" site="Cincinnati (Ohio, United States)"/>
<marker lat="44.516" lon="-88.16" site="Green Bay (Wisconsin, United States)"/>
<marker lat="40.0" lon="-4.0" site="Spain (Spain)"/>
<marker lat="51.416" lon="-118.5" site="Columbia River (United States)"/>
<marker lat="19.0" lon="-70.666" site="Dominican Republic (Dominican Republic)"/>
<marker lat="37.766" lon="-122.416" site="San Francisco (California, United States)"/>
<marker lat="39.166" lon="-91.866" site="Mexico, Mo. (Missouri, United States)"/>
<marker lat="40.9" lon="-90.633" site="Monmouth, Ill. (Illinois, United States)"/>
<marker lat="46.83" lon="-85.0" site="Mackinac (Michigan, United States)"/>
<marker lat="19.333" lon="-96.666" site="Vera Cruz (Veracruz, Mexico)"/>
<marker lat="40.75" lon="-92.716" site="Fox River (Iowa, United States)"/>
<marker lat="33.6" lon="-88.65" site="West Point (Mississippi, United States)"/>
<marker lat="60.0" lon="-96.0" site="Canada (Canada)"/>
<marker lat="36.166" lon="-86.75" site="Edgefield (Tennessee, United States)"/>
<marker lat="40.5" lon="-80.716" site="Wheeling, W. Va. (West Virginia, United States)"/>
<marker lat="48.866" lon="2.333" site="Department de Ville de Paris (France)"/>
<marker lat="27.8" lon="-97.383" site="Corpus Christi (Texas, United States)"/>
<marker lat="43.633" lon="-70.5" site="Casco Bay (Maine, United States)"/>
<marker lat="44.866" lon="-91.916" site="Menomonie (Wisconsin, United States)"/>
<marker lat="1.0" lon="-40.0" site="Atlantic Ocean"/>
<marker lat="41.266" lon="-85.5" site="Tippecanoe (Indiana, United States)"/>
<marker lat="30.383" lon="-88.883" site="Biloxi (Mississippi, United States)"/>
<marker lat="32.366" lon="-86.3" site="Montgomery (Alabama, United States)"/>
<marker lat="40.433" lon="-79.983" site="Pittsburgh (Pennsylvania, United States)"/>
<marker lat="45.983" lon="-95.633" site="Chippewa (Minnesota, United States)"/>
<marker lat="34.8" lon="-86.966" site="Athens, Ala. (Alabama, United States)"/>
<marker lat="43.633" lon="-72.0" site="Canaan, N. H. (New Hampshire, United States)"/>
<marker lat="30.416" lon="-87.216" site="Pensacola (Florida, United States)"/>
<marker lat="37.733" lon="-79.35" site="Buena Vista (Virginia, United States)"/>
<marker lat="41.25" lon="-95.933" site="Omaha (Nebraska, United States)"/>
<marker lat="34.25" lon="-85.15" site="Rome, Ga. (Georgia, United States)"/>
<marker lat="33.733" lon="-87.25" site="America (Alabama, United States)"/>
<marker lat="44.933" lon="-93.83" site="St. Paul (Minnesota, United States)"/>
<marker lat="52.516" lon="-3.5" site="Cambria (United Kingdom)"/>
<marker lat="47.55" lon="-117.583" site="Four Lakes (Washington, United States)"/>
<marker lat="36.5" lon="-88.0" site="Fort Henry (Tennessee, United States)"/>
<marker lat="42.45" lon="-71.35" site="Concord (Massachusetts, United States)"/>
<marker lat="33.466" lon="-82.16" site="Augusta (Georgia, United States)"/>
<marker lat="40.766" lon="-111.883" site="Capitol (Utah, United States)"/>
<marker lat="44.8" lon="-68.766" site="Bangor (Maine, United States)"/>
<marker lat="32.316" lon="-90.85" site="Warren (Mississippi, United States)"/>
<marker lat="31.116" lon="-91.25" site="Wilkinson (Mississippi, United States)"/>
<marker lat="45.0" lon="-85.0" site="Great Lakes"/>
<marker lat="39.55" lon="-95.116" site="Atchison, Kan. (Kansas, United States)"/>
<marker lat="50.466" lon="2.116" site="Agincourt (France)"/>
<marker lat="36.716" lon="-76.583" site="Suffolk, Va. (Virginia, United States)"/>
<marker lat="41.433" lon="-82.7" site="Sandusky, Ohio (Ohio, United States)"/>
<marker lat="40.733" lon="-89.0" site="El Paso, Woodford County, Illinois (Illinois, United States)"/>
<marker lat="52.383" lon="-0.983" site="Naseby (United Kingdom)"/>
<marker lat="33.933" lon="-88.9" site="Chickasaw (Mississippi, United States)"/>
<marker lat="40.416" lon="-3.716" site="Madrid (Spain)"/>
<marker lat="41.683" lon="-87.6" site="Pullman (Illinois, United States)"/>
<marker lat="42.516" lon="-70.883" site="Salem (Massachusetts, United States)"/>
<marker lat="36.966" lon="-93.183" site="Christian (Missouri, United States)"/>
<marker lat="31.533" lon="-91.35" site="Adams (Mississippi, United States)"/>
<marker lat="37.133" lon="-89.116" site="America (Illinois, United States)"/>
<marker lat="35.83" lon="-89.8" site="Germantown (Tennessee, United States)"/>
<marker lat="39.983" lon="-74.783" site="Mount Holly, N. J. (New Jersey, United States)"/>
<marker lat="42.516" lon="-90.533" site="Sinsinawa Mound (Wisconsin, United States)"/>
<marker lat="33.916" lon="-84.833" site="Dallas, Ga. (Georgia, United States)"/>
<marker lat="41.833" lon="-72.833" site="Connecticut (Connecticut, United States)"/>
<marker lat="45.583" lon="-91.583" site="Red Cedar (Wisconsin, United States)"/>
<marker lat="33.483" lon="-88.416" site="Columbus (Mississippi, United States)"/>
<marker lat="39.383" lon="-75.333" site="Greenwich, N. J. (New Jersey, United States)"/>
<marker lat="35.433" lon="-94.333" site="Van Buren, Ark. (Arkansas, United States)"/>
<marker lat="38.5" lon="-83.933" site="Mount Sterling, Ky. (Kentucky, United States)"/>
<marker lat="30.85" lon="-81.433" site="Cumberland Island (Georgia, United States)"/>
<marker lat="37.8" lon="-85.466" site="Bardstown (Kentucky, United States)"/>
<marker lat="41.833" lon="-89.466" site="Dixon, Ill. (Illinois, United States)"/>
<marker lat="43.1" lon="-73.566" site="Saratoga, N. Y. (New York, United States)"/>
<marker lat="36.85" lon="-87.483" site="Hopkinsville, Ky. (Kentucky, United States)"/>
<marker lat="43.183" lon="-100.75" site="Todd (South Dakota, United States)"/>
<marker lat="32.816" lon="-90.25" site="Benton (Mississippi, United States)"/>
<marker lat="18.35" lon="-64.933" site="Saint Thomas"/>
<marker lat="40.683" lon="-73.8" site="Jamaica, L. I. (New York, United States)"/>
<marker lat="37.583" lon="-77.1" site="Tunstall (Virginia, United States)"/>
<marker lat="21.0" lon="-99.916" site="Queretaro (Queretaro, Mexico)"/>
<marker lat="41.766" lon="-88.66" site="Four Lakes (Illinois, United States)"/>
<marker lat="34.766" lon="-89.433" site="Holly Springs (Mississippi, United States)"/>
<marker lat="36.0" lon="138.0" site="Japan (Japan)"/>
<marker lat="35.216" lon="-88.233" site="Savannah, Tenn. (Tennessee, United States)"/>
<marker lat="31.8" lon="-82.65" site="Jeff Davis (Georgia, United States)"/>
<marker lat="51.5" lon="10.5" site="Germany (Germany)"/>
<marker lat="49.45" lon="8.0" site="Frankenstein (Rheinland-Pfalz, Germany)"/>
<marker lat="36.833" lon="-76.283" site="Norfolk (Virginia, United States)"/>
<marker lat="42.283" lon="-71.66" site="Dorchester, Mass. (Massachusetts, United States)"/>
<marker lat="38.966" lon="-95.233" site="Lawrence, Kansas (Kansas, United States)"/>
<marker lat="39.783" lon="-91.516" site="Springfield, Mo. (Missouri, United States)"/>
<marker lat="42.55" lon="-88.183" site="Fox River (Wisconsin, United States)"/>
<marker lat="32.233" lon="-90.916" site="Warrenton (Mississippi, United States)"/>
<marker lat="43.16" lon="-82.633" site="Abbotsford (Michigan, United States)"/>
<marker lat="41.516" lon="-90.566" site="Davenport (Iowa, United States)"/>
<marker lat="29.95" lon="-90.66" site="New Orleans (Louisiana, United States)"/>
<marker lat="39.8" lon="-89.633" site="Springfield (Illinois, United States)"/>
<marker lat="47.0" lon="-120.0" site="Washington (Washington, United States)"/>
<marker lat="38.233" lon="-93.366" site="Warsaw, Mo. (Missouri, United States)"/>
<marker lat="33.316" lon="-96.2" site="Cowleech Fork Sabine River (Texas, United States)"/>
<marker lat="34.233" lon="-80.6" site="Camden, S. C. (South Carolina, United States)"/>
<marker lat="39.833" lon="-88.95" site="Decatur (Illinois, United States)"/>
<marker lat="44.466" lon="-93.583" site="Lake Pepin (Minnesota, United States)"/>
<marker lat="41.483" lon="-71.3" site="Newport (Rhode Island, United States)"/>
<marker lat="41.116" lon="-85.7" site="America (Indiana, United States)"/>
<marker lat="42.916" lon="-78.933" site="Fort Erie (Canada)"/>
<marker lat="24.9" lon="-99.633" site="Linares (Nuevo Leon, Mexico)"/>
<marker lat="42.566" lon="-78.33" site="Portage, N. Y. (New York, United States)"/>
<marker lat="41.383" lon="-73.95" site="West Point (New York, United States)"/>
<marker lat="39.883" lon="-83.433" site="London, Madison County, Ohio (Ohio, United States)"/>
<marker lat="41.666" lon="-71.5" site="Rhode Island (Rhode Island, United States)"/>
<marker lat="40.633" lon="-90.15" site="Fairview, Ill. (Illinois, United States)"/>
<marker lat="32.716" lon="-97.316" site="Fort Worth (Texas, United States)"/>
<marker lat="56.983" lon="-156.45" site="Navy Island (Alaska, United States)"/>
<marker lat="42.83" lon="-70.7" site="Marshfield (Massachusetts, United States)"/>
</markers>