<markers>
<marker lat="35.5" lon="-85.0" site="Tennessee (Tennessee, United States)"/>
<marker lat="46.0" lon="2.0" site="France (France)"/>
<marker lat="32.216" lon="-80.666" site="Hilton Head (South Carolina, United States)"/>
<marker lat="36.583" lon="-82.183" site="Bristol, Va. (Virginia, United States)"/>
<marker lat="38.0" lon="-98.0" site="United States (United States)"/>
<marker lat="37.633" lon="-76.566" site="Urbana (Virginia, United States)"/>
<marker lat="38.4" lon="-77.33" site="Mathias Point (Virginia, United States)"/>
<marker lat="37.0" lon="-80.0" site="Virginia (Virginia, United States)"/>
<marker lat="37.75" lon="-77.366" site="Hanover Court House (Virginia, United States)"/>
<marker lat="32.0" lon="-84.0" site="Georgia (Georgia, United States)"/>
<marker lat="39.0" lon="-80.0" site="West Virginia (West Virginia, United States)"/>
<marker lat="38.0" lon="-98.0" site="Missouri (Missouri, United States)"/>
<marker lat="37.0" lon="-85.0" site="Kentucky (Kentucky, United States)"/>
<marker lat="60.0" lon="-96.0" site="Canada (Canada)"/>
<marker lat="35.5" lon="-80.0" site="North Carolina (North Carolina, United States)"/>
<marker lat="34.0" lon="-80.0" site="South Carolina (South Carolina, United States)"/>
<marker lat="42.833" lon="12.833" site="Italy (Italy)"/>
<marker lat="36.3" lon="-82.133" site="Carter County (Tennessee, United States)"/>
<marker lat="34.85" lon="-82.383" site="Greenville (South Carolina, United States)"/>
<marker lat="41.366" lon="-83.65" site="Bowling Green, Wood County, Ohio (Ohio, United States)"/>
<marker lat="37.766" lon="-79.383" site="South River (Virginia, United States)"/>
<marker lat="32.633" lon="-80.85" site="Pocotaligo (South Carolina, United States)"/>
<marker lat="39.0" lon="35.0" site="Turquie (Turkey)"/>
<marker lat="32.233" lon="-80.85" site="Bluffton (South Carolina, United States)"/>
<marker lat="37.0" lon="-119.0" site="California (California, United States)"/>
<marker lat="35.95" lon="-83.916" site="Knoxville (Tennessee, United States)"/>
<marker lat="36.45" lon="-83.566" site="Tazewell, Tenn. (Tennessee, United States)"/>
<marker lat="37.33" lon="-89.183" site="Cairo, Ill. (Illinois, United States)"/>
<marker lat="33.35" lon="-93.566" site="Lewisville (Arkansas, United States)"/>
<marker lat="41.416" lon="-84.383" site="Evansport (Ohio, United States)"/>
<marker lat="36.583" lon="-83.666" site="Cumberland Gap (Tennessee, United States)"/>
<marker lat="32.366" lon="-80.683" site="Port Royal (South Carolina, United States)"/>
<marker lat="19.416" lon="-99.166" site="Mexico (Mexico, Mexico)"/>
<marker lat="39.516" lon="-78.583" site="Potomac River (United States)"/>
<marker lat="35.15" lon="-84.866" site="Cleveland, Tenn. (Tennessee, United States)"/>
<marker lat="33.733" lon="-84.383" site="Atlanta (Georgia, United States)"/>
<marker lat="32.416" lon="-80.666" site="Beaufort, S. C. (South Carolina, United States)"/>
<marker lat="38.766" lon="-79.966" site="Rich Mountain (West Virginia, United States)"/>
<marker lat="-15.0" lon="143.0" site="Queensland (Queensland, Australia)"/>
<marker lat="33.0" lon="-87.0" site="Alabama (Alabama, United States)"/>
<marker lat="32.833" lon="-87.883" site="Eutaw (Alabama, United States)"/>
<marker lat="37.366" lon="-77.5" site="Chesterfield (Virginia, United States)"/>
<marker lat="36.533" lon="-82.6" site="Holston (Tennessee, United States)"/>
<marker lat="33.516" lon="-84.35" site="Jonesboro (Georgia, United States)"/>
<marker lat="32.383" lon="-80.55" site="Saint Helena Island, S.C. (South Carolina, United States)"/>
<marker lat="40.3" lon="-90.5" site="Havana (Illinois, United States)"/>
<marker lat="29.216" lon="-94.9" site="Galveston Island (Texas, United States)"/>
<marker lat="41.316" lon="-74.8" site="Milford (Pennsylvania, United States)"/>
<marker lat="36.85" lon="-76.816" site="Zuni (Virginia, United States)"/>
<marker lat="18.233" lon="-66.55" site="Porto Rico"/>
<marker lat="38.816" lon="-77.516" site="Bull Run, Va. (Virginia, United States)"/>
<marker lat="37.516" lon="-76.783" site="West Point (Virginia, United States)"/>
<marker lat="37.516" lon="-77.383" site="Rocketts (Virginia, United States)"/>
<marker lat="35.916" lon="-76.25" site="Elizabeth Town (North Carolina, United States)"/>
<marker lat="38.516" lon="-77.6" site="Aquia Creek (Virginia, United States)"/>
<marker lat="32.283" lon="-81.66" site="Hardeeville (South Carolina, United States)"/>
<marker lat="-25.0" lon="135.0" site="Australia (Australia)"/>
<marker lat="31.0" lon="-92.0" site="Louisiana (Louisiana, United States)"/>
<marker lat="40.0" lon="-86.0" site="Indiana (Indiana, United States)"/>
<marker lat="38.616" lon="-90.183" site="St. Louis (Missouri, United States)"/>
<marker lat="37.5" lon="-76.333" site="Back River, Va. (Virginia, United States)"/>
<marker lat="35.0" lon="38.0" site="Syria (Syria)"/>
<marker lat="41.166" lon="-84.733" site="Antwerp, Paulding County, Ohio (Ohio, United States)"/>
<marker lat="39.316" lon="-77.733" site="Harper's Ferry (West Virginia, United States)"/>
<marker lat="32.916" lon="-81.483" site="Beaufort Island (Georgia, United States)"/>
<marker lat="37.55" lon="-77.366" site="Henrico (Virginia, United States)"/>
<marker lat="38.3" lon="-77.45" site="Fredericksburg, Va. (Virginia, United States)"/>
<marker lat="38.65" lon="-92.766" site="Tipton, Mo. (Missouri, United States)"/>
<marker lat="36.416" lon="-77.583" site="Weldon, N. C. (North Carolina, United States)"/>
<marker lat="27.0" lon="30.0" site="Egypt (Egypt)"/>
<marker lat="37.1" lon="-80.683" site="Dublin (Virginia, United States)"/>
<marker lat="34.85" lon="-83.83" site="Station Creek, S. C. (South Carolina, United States)"/>
<marker lat="38.3" lon="-76.616" site="St. Marys county (Maryland, United States)"/>
<marker lat="35.683" lon="-75.716" site="Old Point (North Carolina, United States)"/>
<marker lat="36.716" lon="-76.583" site="Suffolk, Va. (Virginia, United States)"/>
<marker lat="38.33" lon="-77.35" site="Caroline (Virginia, United States)"/>
<marker lat="47.0" lon="20.0" site="Hungary (Hungary)"/>
<marker lat="31.133" lon="-81.483" site="Brunswick, Ga. (Georgia, United States)"/>
<marker lat="37.66" lon="-88.55" site="Tennessee River (United States)"/>
<marker lat="37.866" lon="-80.133" site="Alleghany Mountains (United States)"/>
<marker lat="38.16" lon="-78.466" site="Charlottesville (Virginia, United States)"/>
<marker lat="35.216" lon="-80.833" site="Charlotte (North Carolina, United States)"/>
<marker lat="40.683" lon="-73.8" site="Jamaica, L. I. (New York, United States)"/>
<marker lat="41.483" lon="-81.683" site="Cleveland (Ohio, United States)"/>
<marker lat="40.0" lon="-4.0" site="Spain (Spain)"/>
<marker lat="35.633" lon="-89.833" site="Fort Pillow (Tennessee, United States)"/>
<marker lat="36.816" lon="-79.4" site="Pittsylvania (Virginia, United States)"/>
<marker lat="37.8" lon="-79.433" site="Rockbridge (Virginia, United States)"/>
<marker lat="36.85" lon="-81.516" site="Smyth (Virginia, United States)"/>
<marker lat="37.1" lon="-81.566" site="Tazewell (Virginia, United States)"/>
<marker lat="52.0" lon="20.0" site="Poland (Poland)"/>
<marker lat="39.3" lon="-77.85" site="Jefferson (West Virginia, United States)"/>
<marker lat="38.33" lon="-76.55" site="White Point (Virginia, United States)"/>
</markers>