<markers>
<marker lat="38.0" lon="-98.0" site="United States (United States)"/>
<marker lat="47.233" lon="-95.2" site="Mississippi (United States)"/>
<marker lat="32.16" lon="-81.0" site="Whitemarsh Island (Georgia, United States)"/>
<marker lat="35.266" lon="-80.85" site="Mecklenburg (North Carolina, United States)"/>
<marker lat="34.0" lon="-88.75" site="Okolona (Mississippi, United States)"/>
<marker lat="40.916" lon="-81.616" site="Savanna (Ohio, United States)"/>
<marker lat="42.433" lon="-123.316" site="Grant's Pass (Oregon, United States)"/>
<marker lat="31.6" lon="-85.33" site="Fort Gaines (Georgia, United States)"/>
<marker lat="37.916" lon="-79.33" site="Saint Marys River (Virginia, United States)"/>
<marker lat="30.233" lon="-88.183" site="Dauphin Island (Alabama, United States)"/>
<marker lat="38.233" lon="-78.1" site="Orange Court House (Virginia, United States)"/>
<marker lat="35.466" lon="-86.83" site="Manchester, Tenn. (Tennessee, United States)"/>
<marker lat="39.55" lon="-82.983" site="Chillicothe (Ohio, United States)"/>
<marker lat="53.0" lon="-2.0" site="England (United Kingdom)"/>
<marker lat="48.4" lon="2.7" site="Fontainebleau (France)"/>
<marker lat="32.516" lon="-87.833" site="Demopolis (Alabama, United States)"/>
<marker lat="32.0" lon="-84.0" site="Georgia (Georgia, United States)"/>
<marker lat="39.0" lon="35.0" site="Turquie (Turkey)"/>
<marker lat="35.5" lon="-80.0" site="North Carolina (North Carolina, United States)"/>
<marker lat="30.216" lon="-88.16" site="Fort Morgan (Alabama, United States)"/>
<marker lat="37.55" lon="-77.366" site="Henrico (Virginia, United States)"/>
<marker lat="27.0" lon="30.0" site="Egypt (Egypt)"/>
<marker lat="37.95" lon="-76.95" site="Essex County (Virginia, United States)"/>
<marker lat="33.45" lon="-88.816" site="Starkville (Mississippi, United States)"/>
<marker lat="30.433" lon="-88.0" site="Mobile Bay (Alabama, United States)"/>
<marker lat="32.366" lon="-80.683" site="Port Royal (South Carolina, United States)"/>
<marker lat="42.833" lon="12.833" site="Italy (Italy)"/>
<marker lat="37.983" lon="-77.966" site="Louisa (Virginia, United States)"/>
<marker lat="37.0" lon="-78.683" site="Charlotte county (Virginia, United States)"/>
</markers>