<markers>
<marker lat="38.0" lon="-98.0" site="United States (United States)"/>
<marker lat="39.5" lon="-8.0" site="Portugal (Portugal)"/>
<marker lat="38.66" lon="-78.883" site="Waynesboro, Va. (Virginia, United States)"/>
<marker lat="33.0" lon="-90.0" site="Mississippi (Mississippi, United States)"/>
<marker lat="38.6" lon="-78.783" site="Broadway (Virginia, United States)"/>
<marker lat="41.366" lon="-74.7" site="Matamoras (Pennsylvania, United States)"/>
<marker lat="30.3" lon="-81.966" site="Baldwin, Fla. (Florida, United States)"/>
<marker lat="37.55" lon="-77.366" site="Henrico (Virginia, United States)"/>
<marker lat="38.733" lon="-9.133" site="Lisbon (Portugal)"/>
<marker lat="38.183" lon="-77.65" site="Spotsylvania county (Virginia, United States)"/>
<marker lat="33.95" lon="-84.55" site="Marietta (Georgia, United States)"/>
<marker lat="33.583" lon="-92.833" site="Camden, Ark. (Arkansas, United States)"/>
<marker lat="38.2" lon="-78.883" site="Piedmont, Va. (Virginia, United States)"/>
<marker lat="34.85" lon="-82.383" site="Greenville (South Carolina, United States)"/>
<marker lat="38.183" lon="-79.233" site="Buffalo Gap (Virginia, United States)"/>
<marker lat="47.233" lon="-95.2" site="Mississippi (United States)"/>
<marker lat="34.25" lon="-85.15" site="Rome, Ga. (Georgia, United States)"/>
<marker lat="42.366" lon="-72.516" site="Amherst (Massachusetts, United States)"/>
<marker lat="31.0" lon="-92.0" site="Louisiana (Louisiana, United States)"/>
<marker lat="32.0" lon="-84.0" site="Georgia (Georgia, United States)"/>
<marker lat="38.316" lon="-78.166" site="Twymans Mill (Virginia, United States)"/>
<marker lat="34.0" lon="-80.0" site="South Carolina (South Carolina, United States)"/>
<marker lat="40.833" lon="-76.0" site="Pennsylvania (Pennsylvania, United States)"/>
<marker lat="35.0" lon="-93.0" site="Arkansas (Arkansas, United States)"/>
<marker lat="37.75" lon="-78.866" site="Lovingston (Virginia, United States)"/>
<marker lat="55.716" lon="12.566" site="Copenhagen (Denmark)"/>
<marker lat="45.5" lon="-73.6" site="Montreal (Canada)"/>
<marker lat="32.35" lon="-88.7" site="Meridian (Mississippi, United States)"/>
<marker lat="38.383" lon="-84.283" site="Cynthiana, Ky. (Kentucky, United States)"/>
<marker lat="38.5" lon="-83.933" site="Mount Sterling, Ky. (Kentucky, United States)"/>
<marker lat="37.583" lon="-77.3" site="Gaines Mill (Virginia, United States)"/>
<marker lat="37.383" lon="-77.6" site="Chesterfield (Virginia, United States)"/>
<marker lat="47.0" lon="20.0" site="Hungary (Hungary)"/>
<marker lat="37.75" lon="-77.366" site="Hanover Court House (Virginia, United States)"/>
<marker lat="38.0" lon="-81.35" site="Coalfield (West Virginia, United States)"/>
<marker lat="37.866" lon="-80.133" site="Alleghany Mountains (United States)"/>
<marker lat="40.616" lon="-98.65" site="Kenesaw (Nebraska, United States)"/>
<marker lat="36.4" lon="-79.333" site="Yanceyville (North Carolina, United States)"/>
<marker lat="33.933" lon="-84.683" site="Lost Mountain (Georgia, United States)"/>
<marker lat="37.2" lon="-78.45" site="Prince Edward (Virginia, United States)"/>
<marker lat="37.616" lon="-79.25" site="Amherst county (Virginia, United States)"/>
<marker lat="42.566" lon="-74.483" site="Fulton Hill (New York, United States)"/>
</markers>