<markers>
<marker lat="35.5" lon="-80.0" site="North Carolina (North Carolina, United States)"/>
<marker lat="40.0" lon="-89.0" site="Illinois (Illinois, United States)"/>
<marker lat="38.5" lon="-77.883" site="Brandy Station (Virginia, United States)"/>
<marker lat="38.0" lon="-98.0" site="United States (United States)"/>
<marker lat="31.0" lon="-92.0" site="Louisiana (Louisiana, United States)"/>
<marker lat="40.833" lon="-76.0" site="Pennsylvania (Pennsylvania, United States)"/>
<marker lat="37.55" lon="-77.366" site="Henrico (Virginia, United States)"/>
<marker lat="37.0" lon="-80.0" site="Virginia (Virginia, United States)"/>
<marker lat="35.3" lon="-86.95" site="Odd Fellows Hall (Tennessee, United States)"/>
<marker lat="37.516" lon="-76.783" site="York (Virginia, United States)"/>
<marker lat="33.95" lon="-84.55" site="Marietta (Georgia, United States)"/>
<marker lat="43.5" lon="-76.15" site="Onondaga, N. Y. (New York, United States)"/>
<marker lat="42.25" lon="-71.833" site="Massachusetts (Massachusetts, United States)"/>
<marker lat="38.0" lon="-98.0" site="Missouri (Missouri, United States)"/>
<marker lat="40.0" lon="-75.0" site="New Jersey (New Jersey, United States)"/>
<marker lat="43.0" lon="-75.0" site="New York State (New York, United States)"/>
<marker lat="42.83" lon="-76.8" site="Newtown (New York, United States)"/>
<marker lat="42.866" lon="-71.216" site="Howard's Grove (New Hampshire, United States)"/>
<marker lat="38.533" lon="-77.8" site="Remington (Virginia, United States)"/>
<marker lat="60.0" lon="47.0" site="Russia (Russia)"/>
<marker lat="40.616" lon="-80.116" site="Westmoreland County (Pennsylvania, United States)"/>
<marker lat="32.0" lon="-84.0" site="Georgia (Georgia, United States)"/>
<marker lat="35.666" lon="-81.233" site="Catawba (North Carolina, United States)"/>
<marker lat="34.0" lon="-80.0" site="South Carolina (South Carolina, United States)"/>
<marker lat="37.55" lon="-77.45" site="Richmond (Virginia, United States)"/>
<marker lat="43.33" lon="-76.133" site="Syracuse (New York, United States)"/>
<marker lat="35.5" lon="-85.0" site="Tennessee (Tennessee, United States)"/>
<marker lat="34.733" lon="-80.83" site="Chesterfield (South Carolina, United States)"/>
<marker lat="42.216" lon="-72.716" site="Southampton, Mass. (Massachusetts, United States)"/>
<marker lat="37.383" lon="-77.6" site="Chesterfield (Virginia, United States)"/>
<marker lat="37.75" lon="-77.366" site="Hanover Court House (Virginia, United States)"/>
<marker lat="35.783" lon="-78.633" site="Wake county (North Carolina, United States)"/>
<marker lat="46.0" lon="2.0" site="France (France)"/>
<marker lat="37.783" lon="-78.783" site="Nelson (Virginia, United States)"/>
<marker lat="38.416" lon="-78.266" site="Madison County (Virginia, United States)"/>
<marker lat="36.75" lon="-78.933" site="Halifax county (Virginia, United States)"/>
<marker lat="36.816" lon="-79.4" site="Pittsylvania (Virginia, United States)"/>
<marker lat="38.516" lon="-78.883" site="Rockingham (Virginia, United States)"/>
<marker lat="38.25" lon="-78.33" site="Orange County (Virginia, United States)"/>
<marker lat="37.3" lon="-79.566" site="Bedford County (Virginia, United States)"/>
<marker lat="37.566" lon="-79.783" site="Botetourt (Virginia, United States)"/>
</markers>