<markers>
<marker lat="40.75" lon="22.55" site="Pella (Greece)"/>
<marker lat="38.0" lon="23.733" site="Athens (Greece)"/>
<marker lat="41.9" lon="12.4833" site="Rome (Italy)"/>
<marker lat="43.883" lon="-71.666" site="Thornton (New Hampshire, United States)"/>
<marker lat="29.883" lon="-81.3" site="St. Augustine (Florida, United States)"/>
<marker lat="47.15" lon="-88.55" site="Arcadian (Michigan, United States)"/>
<marker lat="39.0" lon="22.0" site="Greece (Greece)"/>
<marker lat="35.916" lon="-91.933" site="Louis (Arkansas, United States)"/>
<marker lat="41.366" lon="-79.466" site="Venus (Pennsylvania, United States)"/>
<marker lat="40.716" lon="-75.283" site="Hallo (Pennsylvania, United States)"/>
<marker lat="-33.383" lon="19.316" site="Ceres (South Africa)"/>
<marker lat="36.166" lon="28.0" site="Rhodes (Greece)"/>
<marker lat="41.833" lon="22.0" site="Macedonia (Macedonia)"/>
</markers>