<markers>
<marker lat="41.3" lon="19.466" site="Epidamnus (Albania)"/>
<marker lat="37.0667" lon="15.3" site="Syracuse (Italy)"/>
<marker lat="40.466" lon="17.216" site="Tarentum (Italy)"/>
<marker lat="42.833" lon="12.833" site="Italy (Italy)"/>
<marker lat="37.5" lon="14.0" site="Sicily (Italy)"/>
<marker lat="38.15" lon="-122.83" site="Cygnus (California, United States)"/>
<marker lat="43.33" lon="-76.133" site="Syracuse (New York, United States)"/>
<marker lat="39.0" lon="22.0" site="Greece (Greece)"/>
<marker lat="37.9667" lon="23.7333" site="Athens (Greece)"/>
<marker lat="41.7" lon="-71.15" site="Troy (Massachusetts, United States)"/>
<marker lat="32.316" lon="-85.1" site="Jupiter (Alabama, United States)"/>
<marker lat="37.566" lon="-101.35" site="Ulysses (Kansas, United States)"/>
<marker lat="40.65" lon="-112.83" site="Bacchus (Utah, United States)"/>
<marker lat="43.3" lon="5.366" site="Marseilles (France)"/>
<marker lat="40.716" lon="-75.283" site="Hallo (Pennsylvania, United States)"/>
<marker lat="45.316" lon="7.366" site="Ceres (Italy)"/>
<marker lat="41.333" lon="26.75" site="Thrace (Greece)"/>
<marker lat="26.933" lon="-80.83" site="Jupiter (Florida, United States)"/>
<marker lat="40.0" lon="-4.0" site="Spain (Spain)"/>
<marker lat="43.0" lon="16.0" site="Adriatic Sea"/>
<marker lat="37.283" lon="-99.583" site="Ulysses (Kansas, United States)"/>
<marker lat="33.25" lon="-93.533" site="Mars (Arkansas, United States)"/>
<marker lat="43.0" lon="17.0" site="Dalmatia (Croatia)"/>
<marker lat="38.466" lon="14.95" site="Lipari (Italy)"/>
<marker lat="37.316" lon="13.566" site="Agrigentum (Italy)"/>
<marker lat="39.0" lon="16.5" site="Bruttium (Italy)"/>
<marker lat="38.5" lon="14.95" site="Lipara (Italy)"/>
<marker lat="45.366" lon="23.266" site="Vulcan (Romania)"/>
<marker lat="38.4917" lon="22.5167" site="Delphi (Greece)"/>
<marker lat="38.883" lon="-77.33" site="Washington (United States)"/>
<marker lat="35.75" lon="-82.583" site="Jupiter (North Carolina, United States)"/>
<marker lat="39.9167" lon="26.2833" site="Troy (Turkey)"/>
<marker lat="46.16" lon="-95.33" site="Clotho (Minnesota, United States)"/>
<marker lat="41.9" lon="-77.75" site="Ulysses (Pennsylvania, United States)"/>
<marker lat="44.5" lon="-121.816" site="The Wife (Oregon, United States)"/>
<marker lat="37.1" lon="13.9333" site="Phintias"/>
<marker lat="36.733" lon="-105.333" site="Neptune (New Mexico, United States)"/>
<marker lat="41.266" lon="-70.8" site="Old Man (Massachusetts, United States)"/>
<marker lat="41.833" lon="22.0" site="Macedonia (Macedonia)"/>
</markers>