<markers>
<marker lat="38.0" lon="-98.0" site="Missouri (Missouri, United States)"/>
<marker lat="39.16" lon="-78.3" site="Meadow Mills (Virginia, United States)"/>
<marker lat="38.0" lon="-98.0" site="United States (United States)"/>
<marker lat="38.983" lon="-78.35" site="Strasburg, Va. (Virginia, United States)"/>
<marker lat="33.733" lon="-84.383" site="Atlanta (Georgia, United States)"/>
<marker lat="38.916" lon="-78.183" site="Front Royal (Virginia, United States)"/>
<marker lat="37.633" lon="-79.45" site="Glasgow (Virginia, United States)"/>
<marker lat="37.216" lon="-77.4" site="Petersburg, Va. (Virginia, United States)"/>
<marker lat="33.95" lon="-84.55" site="Marietta (Georgia, United States)"/>
<marker lat="35.866" lon="-76.733" site="Plymouth, N. C. (North Carolina, United States)"/>
<marker lat="44.8" lon="-73.83" site="St. Albans, Vt. (Vermont, United States)"/>
<marker lat="37.0" lon="-85.0" site="Kentucky (Kentucky, United States)"/>
<marker lat="60.0" lon="-96.0" site="Canada (Canada)"/>
<marker lat="44.0" lon="-73.0" site="Vermont (Vermont, United States)"/>
<marker lat="39.83" lon="-94.566" site="Milton (Missouri, United States)"/>
<marker lat="39.45" lon="-77.95" site="Martinsburg (West Virginia, United States)"/>
<marker lat="46.0" lon="2.0" site="France (France)"/>
<marker lat="37.0" lon="-78.683" site="Charlotte county (Virginia, United States)"/>
<marker lat="38.816" lon="-90.183" site="Missouri (United States)"/>
<marker lat="39.0" lon="-76.833" site="Maryland (Maryland, United States)"/>
<marker lat="38.133" lon="-83.75" site="Owingsville (Kentucky, United States)"/>
<marker lat="38.2" lon="-78.883" site="Piedmont, Va. (Virginia, United States)"/>
<marker lat="33.0" lon="-87.0" site="Alabama (Alabama, United States)"/>
<marker lat="37.316" lon="-77.266" site="City Point (Virginia, United States)"/>
<marker lat="39.66" lon="-93.783" site="LaFayette County (Missouri, United States)"/>
<marker lat="39.15" lon="-92.683" site="Howard (Missouri, United States)"/>
<marker lat="38.7" lon="-77.7" site="Auburn, Va. (Virginia, United States)"/>
<marker lat="34.25" lon="-85.15" site="Rome, Ga. (Georgia, United States)"/>
<marker lat="36.85" lon="-76.816" site="Zuni (Virginia, United States)"/>
<marker lat="38.666" lon="-98.0" site="Kansas (Kansas, United States)"/>
<marker lat="32.0" lon="-84.0" site="Georgia (Georgia, United States)"/>
<marker lat="39.766" lon="-94.833" site="St. Joseph, Mo. (Missouri, United States)"/>
<marker lat="38.33" lon="-84.5" site="Lexington (Kentucky, United States)"/>
<marker lat="41.583" lon="-77.33" site="East Point (Pennsylvania, United States)"/>
<marker lat="35.5" lon="-80.0" site="North Carolina (North Carolina, United States)"/>
<marker lat="34.0" lon="-80.0" site="South Carolina (South Carolina, United States)"/>
<marker lat="35.0" lon="-93.0" site="Arkansas (Arkansas, United States)"/>
<marker lat="30.833" lon="-82.133" site="Charlton (Georgia, United States)"/>
<marker lat="43.6" lon="-72.966" site="Rutland (Vermont, United States)"/>
<marker lat="40.683" lon="-75.133" site="Port Warren (New Jersey, United States)"/>
<marker lat="33.466" lon="-82.16" site="Augusta (Georgia, United States)"/>
<marker lat="32.3" lon="-101.45" site="Howard (Texas, United States)"/>
<marker lat="34.883" lon="-88.1" site="Eastport (Mississippi, United States)"/>
<marker lat="36.583" lon="-79.383" site="Danville (Virginia, United States)"/>
<marker lat="39.833" lon="-88.95" site="Decatur (Illinois, United States)"/>
<marker lat="37.733" lon="-77.916" site="Goochland (Virginia, United States)"/>
</markers>