<markers>
<marker lat="41.483" lon="-71.3" site="Newport (Rhode Island, United States)"/>
<marker lat="51.533" lon="9.95" site="Gottingen (Lower Saxony, Germany)"/>
<marker lat="38.0" lon="-98.0" site="United States (United States)"/>
<marker lat="42.25" lon="-71.833" site="Massachusetts (Massachusetts, United States)"/>
<marker lat="51.5" lon="10.5" site="Germany (Germany)"/>
<marker lat="37.216" lon="-77.4" site="Petersburg, Va. (Virginia, United States)"/>
<marker lat="42.833" lon="12.833" site="Italy (Italy)"/>
<marker lat="42.45" lon="-71.35" site="Concord (Massachusetts, United States)"/>
<marker lat="42.633" lon="-71.316" site="Lowell (Massachusetts, United States)"/>
<marker lat="34.25" lon="-85.15" site="Rome, Ga. (Georgia, United States)"/>
<marker lat="42.25" lon="-71.8" site="Worcester (Massachusetts, United States)"/>
<marker lat="43.2" lon="-71.533" site="Concord, N. H. (New Hampshire, United States)"/>
<marker lat="42.316" lon="-71.116" site="Brookline (Massachusetts, United States)"/>
<marker lat="42.366" lon="-71.1" site="Cambridge (Massachusetts, United States)"/>
<marker lat="42.316" lon="-72.633" site="Northampton (Massachusetts, United States)"/>
<marker lat="48.866" lon="2.333" site="Department de Ville de Paris (France)"/>
<marker lat="50.383" lon="-4.166" site="Plymouth (United Kingdom)"/>
<marker lat="34.116" lon="-92.783" site="Round Hill, Ark. (Arkansas, United States)"/>
<marker lat="38.2" lon="-84.25" site="Paris, Ky. (Kentucky, United States)"/>
<marker lat="37.0" lon="-119.0" site="California (California, United States)"/>
<marker lat="36.166" lon="-93.7" site="Forum (Arkansas, United States)"/>
<marker lat="40.766" lon="-89.95" site="Elmwood, Ill. (Illinois, United States)"/>
<marker lat="35.566" lon="-88.316" site="Shady Hill (Tennessee, United States)"/>
<marker lat="42.516" lon="-70.883" site="Salem (Massachusetts, United States)"/>
<marker lat="35.5" lon="-80.0" site="North Carolina (North Carolina, United States)"/>
<marker lat="41.816" lon="-71.4" site="Providence, R. I. (Rhode Island, United States)"/>
<marker lat="42.666" lon="-70.833" site="Ipswich, Mass. (Massachusetts, United States)"/>
<marker lat="42.516" lon="-72.783" site="Ashfield (Massachusetts, United States)"/>
<marker lat="33.733" lon="-84.383" site="Atlanta (Georgia, United States)"/>
<marker lat="45.433" lon="12.333" site="Venice (Italy)"/>
<marker lat="49.416" lon="8.7" site="Heidelberg (Baden-Wurttemberg, Germany)"/>
<marker lat="39.15" lon="-82.483" site="Puritan (Ohio, United States)"/>
<marker lat="41.516" lon="-72.66" site="Norwich (Connecticut, United States)"/>
<marker lat="42.366" lon="-72.516" site="Amherst (Massachusetts, United States)"/>
<marker lat="51.516" lon="-0.616" site="Eton (United Kingdom)"/>
<marker lat="41.666" lon="-71.5" site="Rhode Island (Rhode Island, United States)"/>
<marker lat="34.0" lon="-80.0" site="South Carolina (South Carolina, United States)"/>
<marker lat="40.833" lon="-76.0" site="Pennsylvania (Pennsylvania, United States)"/>
<marker lat="38.883" lon="-77.33" site="Washington (United States)"/>
<marker lat="47.0" lon="8.0" site="Switzerland (Switzerland)"/>
<marker lat="23.0" lon="-102.0" site="Mexico (Mexico)"/>
<marker lat="37.766" lon="-91.0" site="Quaker (Missouri, United States)"/>
<marker lat="32.866" lon="-85.183" site="West Point (Georgia, United States)"/>
<marker lat="42.316" lon="-71.83" site="Roxbury, Mass. (Massachusetts, United States)"/>
<marker lat="46.0" lon="2.0" site="France (France)"/>
<marker lat="39.0" lon="22.0" site="Greece (Greece)"/>
<marker lat="49.216" lon="-2.116" site="Jersey"/>
<marker lat="37.366" lon="-88.483" site="Golconda (Illinois, United States)"/>
<marker lat="34.45" lon="-85.483" site="Alpine, Ga. (Georgia, United States)"/>
<marker lat="42.233" lon="-71.83" site="Milton, Mass. (Massachusetts, United States)"/>
<marker lat="50.983" lon="11.316" site="Weimar (Thuringia, Germany)"/>
<marker lat="38.966" lon="-76.483" site="Annapolis (Maryland, United States)"/>
<marker lat="42.466" lon="-70.95" site="Lynn (Massachusetts, United States)"/>
<marker lat="40.75" lon="-86.66" site="Peru, Ind. (Indiana, United States)"/>
<marker lat="40.6" lon="-74.83" site="Grasmere (New York, United States)"/>
<marker lat="32.416" lon="-80.666" site="Beaufort, S. C. (South Carolina, United States)"/>
<marker lat="39.283" lon="-76.6" site="Baltimore, Md. (Maryland, United States)"/>
<marker lat="45.0" lon="-69.0" site="Maine (Maine, United States)"/>
<marker lat="38.0" lon="-98.0" site="Missouri (Missouri, United States)"/>
<marker lat="50.95" lon="10.716" site="Gotha (Thuringia, Germany)"/>
<marker lat="50.933" lon="11.583" site="Jena (Thuringia, Germany)"/>
<marker lat="42.83" lon="-71.35" site="Mill (Massachusetts, United States)"/>
<marker lat="42.583" lon="-72.6" site="Greenfield, Mass. (Massachusetts, United States)"/>
<marker lat="42.416" lon="-70.916" site="Nahant (Massachusetts, United States)"/>
<marker lat="36.983" lon="-86.433" site="Bowling Green (Kentucky, United States)"/>
<marker lat="42.333" lon="-70.966" site="Boston Harbor (Massachusetts, United States)"/>
<marker lat="40.66" lon="-74.85" site="Burlington (New Jersey, United States)"/>
<marker lat="51.5" lon="-0.166" site="Rotten row (United Kingdom)"/>
<marker lat="42.616" lon="-78.5" site="Castile, N. Y. (New York, United States)"/>
<marker lat="42.8" lon="-70.866" site="Newburyport (Massachusetts, United States)"/>
<marker lat="40.55" lon="14.216" site="Capri (Italy)"/>
<marker lat="1.0" lon="-40.0" site="Atlantic Ocean"/>
<marker lat="38.1" lon="-82.6" site="Louisa, Ky. (Kentucky, United States)"/>
<marker lat="57.666" lon="-4.33" site="Cromarty (United Kingdom)"/>
<marker lat="31.983" lon="-81.1" site="Vernon River, Ga. (Georgia, United States)"/>
<marker lat="43.75" lon="-81.716" site="Goderich (Canada)"/>
<marker lat="53.0" lon="-2.0" site="England (United Kingdom)"/>
<marker lat="52.2" lon="0.116" site="Cantabrigia (United Kingdom)"/>
<marker lat="38.666" lon="-98.0" site="Kansas (Kansas, United States)"/>
<marker lat="37.766" lon="-122.416" site="San Francisco (California, United States)"/>
<marker lat="44.1" lon="-70.2" site="Lewiston, Me. (Maine, United States)"/>
<marker lat="45.66" lon="7.666" site="Turin (Italy)"/>
<marker lat="35.0" lon="105.0" site="China (China)"/>
<marker lat="41.95" lon="-70.666" site="Accomack (Massachusetts, United States)"/>
<marker lat="39.95" lon="-75.15" site="Philadelphia (Pennsylvania, United States)"/>
<marker lat="32.183" lon="-93.833" site="Kickapoo (Louisiana, United States)"/>
<marker lat="38.25" lon="-85.75" site="Louisville (Kentucky, United States)"/>
<marker lat="39.316" lon="-77.733" site="Harper's Ferry (West Virginia, United States)"/>
<marker lat="39.0" lon="-80.0" site="West Virginia (West Virginia, United States)"/>
<marker lat="41.716" lon="-71.266" site="Warren, R. I. (Rhode Island, United States)"/>
<marker lat="41.833" lon="-72.833" site="Connecticut (Connecticut, United States)"/>
<marker lat="39.0" lon="-105.0" site="Colorado (Colorado, United States)"/>
<marker lat="41.6" lon="-72.983" site="Wolcott (Connecticut, United States)"/>
<marker lat="44.55" lon="-69.616" site="Waterville, Me. (Maine, United States)"/>
<marker lat="34.0" lon="9.0" site="Tunisia (Tunisia)"/>
<marker lat="34.183" lon="-79.75" site="Florence, S. C. (South Carolina, United States)"/>
<marker lat="41.666" lon="-74.866" site="Lake Superior (New York, United States)"/>
<marker lat="44.633" lon="-63.583" site="Halifax (Canada)"/>
<marker lat="27.0" lon="30.0" site="Egypt (Egypt)"/>
<marker lat="42.666" lon="-70.833" site="Essex County (Massachusetts, United States)"/>
<marker lat="37.95" lon="-76.95" site="Essex County (Virginia, United States)"/>
<marker lat="42.1" lon="-77.233" site="Addison, Steuben County, New York (New York, United States)"/>
<marker lat="40.2" lon="-93.116" site="Milan, Sullivan County, Missouri (Missouri, United States)"/>
<marker lat="41.75" lon="-72.683" site="Hartford (Connecticut, United States)"/>
<marker lat="42.7" lon="-74.916" site="Cooperstown (New York, United States)"/>
<marker lat="42.7" lon="-71.15" site="Lawrence (Massachusetts, United States)"/>
<marker lat="41.6" lon="-71.316" site="Narragansett Bay (Rhode Island, United States)"/>
<marker lat="40.583" lon="-74.15" site="Staten Island (New York, United States)"/>
<marker lat="30.2" lon="-82.416" site="Olustee (Florida, United States)"/>
<marker lat="52.833" lon="10.0" site="Saxony (Saxony, Germany)"/>
<marker lat="37.866" lon="-80.133" site="Alleghany Mountains (United States)"/>
<marker lat="38.8" lon="-80.616" site="Dutch (West Virginia, United States)"/>
<marker lat="42.366" lon="-71.133" site="Mount Auburn (Massachusetts, United States)"/>
<marker lat="32.366" lon="-80.683" site="Port Royal (South Carolina, United States)"/>
<marker lat="42.533" lon="-71.9" site="Westminster (Massachusetts, United States)"/>
<marker lat="41.85" lon="-87.65" site="Chicago (Illinois, United States)"/>
<marker lat="43.66" lon="-70.716" site="New Castle, New Hampshire (New Hampshire, United States)"/>
<marker lat="50.833" lon="4.0" site="Belgium (Belgium)"/>
<marker lat="-10.0" lon="-55.0" site="Brazil (Brazil)"/>
<marker lat="44.216" lon="-69.766" site="Gardiner (Maine, United States)"/>
<marker lat="42.283" lon="-71.66" site="Dorchester, Mass. (Massachusetts, United States)"/>
<marker lat="34.4" lon="-80.633" site="Fort Hill (South Carolina, United States)"/>
<marker lat="51.483" lon="-0.15" site="Chelsea (United Kingdom)"/>
<marker lat="42.533" lon="-72.6" site="Deerfield, Mass. (Massachusetts, United States)"/>
<marker lat="42.366" lon="-71.5" site="Breed's Hill (Massachusetts, United States)"/>
<marker lat="52.383" lon="1.666" site="Wrentham (United Kingdom)"/>
<marker lat="41.45" lon="-72.816" site="Wallingford (Connecticut, United States)"/>
</markers>