<markers>
<marker lat="41.833" lon="-89.466" site="Dixon, Ill. (Illinois, United States)"/>
<marker lat="35.5" lon="-85.0" site="Tennessee (Tennessee, United States)"/>
<marker lat="38.0" lon="-98.0" site="United States (United States)"/>
<marker lat="34.633" lon="-90.433" site="Austin (Mississippi, United States)"/>
<marker lat="39.15" lon="-82.483" site="Puritan (Ohio, United States)"/>
<marker lat="30.666" lon="-91.266" site="Port Hudson (Louisiana, United States)"/>
<marker lat="35.483" lon="-86.45" site="Shelbyville, Tenn. (Tennessee, United States)"/>
<marker lat="35.5" lon="-80.0" site="North Carolina (North Carolina, United States)"/>
<marker lat="32.45" lon="-91.1" site="Milliken's Bend (Louisiana, United States)"/>
<marker lat="37.55" lon="-77.366" site="Henrico (Virginia, United States)"/>
<marker lat="35.85" lon="-86.65" site="Triune (Tennessee, United States)"/>
<marker lat="38.933" lon="-77.4" site="Frying Pan (Virginia, United States)"/>
<marker lat="38.3" lon="-77.633" site="Chancellorsville (Virginia, United States)"/>
<marker lat="31.95" lon="-90.983" site="Port Gibson (Mississippi, United States)"/>
<marker lat="35.616" lon="-79.383" site="Bear Creek (North Carolina, United States)"/>
<marker lat="32.66" lon="-99.83" site="Red River (Texas, United States)"/>
<marker lat="41.433" lon="-82.7" site="Sandusky, Ohio (Ohio, United States)"/>
<marker lat="37.333" lon="-77.66" site="Charles City (Virginia, United States)"/>
<marker lat="37.983" lon="-91.6" site="Saint James (Missouri, United States)"/>
<marker lat="37.866" lon="-84.566" site="Nicholasville, Ky. (Kentucky, United States)"/>
<marker lat="34.666" lon="-90.35" site="Tunica (Mississippi, United States)"/>
<marker lat="37.516" lon="-77.383" site="Rocketts (Virginia, United States)"/>
<marker lat="53.0" lon="-2.0" site="England (United Kingdom)"/>
<marker lat="39.766" lon="-86.15" site="Indianapolis (Indiana, United States)"/>
<marker lat="37.75" lon="-77.483" site="Hanover County (Virginia, United States)"/>
<marker lat="38.883" lon="-77.33" site="Washington (United States)"/>
<marker lat="37.633" lon="-84.766" site="Danville, Ky. (Kentucky, United States)"/>
<marker lat="33.683" lon="-89.116" site="Big Black (Mississippi, United States)"/>
<marker lat="37.0" lon="-80.0" site="Virginia (Virginia, United States)"/>
<marker lat="30.85" lon="-91.0" site="Clinton, La. (Louisiana, United States)"/>
<marker lat="38.5" lon="-77.966" site="Culpeper (Virginia, United States)"/>
</markers>