<markers>
<marker lat="36.583" lon="-79.383" site="Danville (Virginia, United States)"/>
<marker lat="40.533" lon="-75.933" site="Windsor Castle (Pennsylvania, United States)"/>
<marker lat="38.0" lon="-98.0" site="United States (United States)"/>
<marker lat="41.166" lon="-82.216" site="Wellington (Ohio, United States)"/>
<marker lat="38.8" lon="-80.616" site="Dutch (West Virginia, United States)"/>
<marker lat="38.183" lon="15.55" site="Messana (Italy)"/>
<marker lat="37.35" lon="-77.433" site="Chester, Va. (Virginia, United States)"/>
<marker lat="37.366" lon="-77.5" site="Chesterfield (Virginia, United States)"/>
<marker lat="37.316" lon="-77.266" site="City Point (Virginia, United States)"/>
<marker lat="38.2" lon="-77.583" site="Spottsylvania (Virginia, United States)"/>
<marker lat="52.183" lon="-2.216" site="Worcester (United Kingdom)"/>
<marker lat="37.55" lon="-77.366" site="Henrico (Virginia, United States)"/>
<marker lat="46.0" lon="2.0" site="France (France)"/>
<marker lat="36.733" lon="-77.1" site="Southampton county (Virginia, United States)"/>
<marker lat="33.95" lon="-84.55" site="Marietta (Georgia, United States)"/>
<marker lat="42.333" lon="-71.55" site="Marlboro, Mass. (Massachusetts, United States)"/>
<marker lat="33.733" lon="-84.383" site="Atlanta (Georgia, United States)"/>
<marker lat="38.383" lon="-85.25" site="Smithfield (Kentucky, United States)"/>
<marker lat="38.2" lon="-78.883" site="Piedmont, Va. (Virginia, United States)"/>
<marker lat="33.966" lon="-84.566" site="Kenesaw Mountain (Georgia, United States)"/>
<marker lat="42.616" lon="-72.866" site="Charlemont (Massachusetts, United States)"/>
<marker lat="36.783" lon="-88.783" site="Fancy Farm (Kentucky, United States)"/>
<marker lat="34.25" lon="-85.15" site="Rome, Ga. (Georgia, United States)"/>
<marker lat="37.333" lon="-77.266" site="Bermuda Hundred (Virginia, United States)"/>
<marker lat="42.85" lon="-71.616" site="Amherst, N. H. (New Hampshire, United States)"/>
<marker lat="38.683" lon="-77.9" site="Waterloo, Va. (Virginia, United States)"/>
<marker lat="50.616" lon="3.716" site="Ligny (Belgium)"/>
<marker lat="32.0" lon="-84.0" site="Georgia (Georgia, United States)"/>
<marker lat="27.766" lon="-82.666" site="Saint Petersburg (Florida, United States)"/>
<marker lat="30.566" lon="-81.683" site="Nassau River (Florida, United States)"/>
<marker lat="51.45" lon="0.4" site="Gravesend (United Kingdom)"/>
<marker lat="34.9" lon="-82.333" site="Wade Hampton (South Carolina, United States)"/>
<marker lat="52.5" lon="9.0" site="Hannover (Lower Saxony, Germany)"/>
<marker lat="37.416" lon="-77.45" site="Drewry's Bluff (Virginia, United States)"/>
<marker lat="38.6" lon="-80.966" site="Big Otter Creek (West Virginia, United States)"/>
<marker lat="15.0" lon="-86.5" site="Honduras (Honduras)"/>
<marker lat="37.16" lon="-76.333" site="Hampton (Virginia, United States)"/>
<marker lat="43.2" lon="-71.533" site="Concord, N. H. (New Hampshire, United States)"/>
<marker lat="37.383" lon="-77.6" site="Chesterfield (Virginia, United States)"/>
<marker lat="40.683" lon="-73.8" site="Jamaica, L. I. (New York, United States)"/>
<marker lat="39.0" lon="22.0" site="Greece (Greece)"/>
<marker lat="47.333" lon="13.333" site="Austria (Austria)"/>
<marker lat="52.25" lon="10.5" site="Braunschweig (Lower Saxony, Germany)"/>
<marker lat="41.866" lon="-91.583" site="Ely (Iowa, United States)"/>
<marker lat="38.733" lon="-77.633" site="Greenwich (Virginia, United States)"/>
<marker lat="37.2" lon="-78.45" site="Prince Edward (Virginia, United States)"/>
<marker lat="43.283" lon="-85.66" site="Stanton (Michigan, United States)"/>
<marker lat="37.3" lon="-79.566" site="Bedford County (Virginia, United States)"/>
</markers>