<markers>
<marker lat="32.0" lon="-84.0" site="Georgia (Georgia, United States)"/>
<marker lat="34.0" lon="-80.0" site="South Carolina (South Carolina, United States)"/>
<marker lat="33.0" lon="-87.0" site="Alabama (Alabama, United States)"/>
<marker lat="35.5" lon="-80.0" site="North Carolina (North Carolina, United States)"/>
<marker lat="35.5" lon="-85.0" site="Tennessee (Tennessee, United States)"/>
<marker lat="38.0" lon="-98.0" site="Missouri (Missouri, United States)"/>
<marker lat="31.0" lon="-92.0" site="Louisiana (Louisiana, United States)"/>
<marker lat="38.0" lon="-98.0" site="United States (United States)"/>
<marker lat="35.0" lon="-93.0" site="Arkansas (Arkansas, United States)"/>
<marker lat="60.0" lon="-96.0" site="Canada (Canada)"/>
<marker lat="30.733" lon="-87.916" site="Blakely (Alabama, United States)"/>
<marker lat="32.366" lon="-86.3" site="Montgomery (Alabama, United States)"/>
<marker lat="37.516" lon="-84.65" site="Stanford, Ky. (Kentucky, United States)"/>
<marker lat="30.266" lon="-97.733" site="Austin (Texas, United States)"/>
<marker lat="30.966" lon="-96.666" site="Calvert (Texas, United States)"/>
<marker lat="37.16" lon="-76.333" site="Hampton (Virginia, United States)"/>
<marker lat="19.416" lon="-99.166" site="Mexico (Mexico, Mexico)"/>
<marker lat="39.133" lon="-77.65" site="Hamilton (Virginia, United States)"/>
<marker lat="48.866" lon="2.333" site="Department de Ville de Paris (France)"/>
<marker lat="38.733" lon="-77.95" site="Orlean (Virginia, United States)"/>
<marker lat="32.416" lon="-80.666" site="Beaufort, S. C. (South Carolina, United States)"/>
<marker lat="39.283" lon="-76.6" site="Baltimore, Md. (Maryland, United States)"/>
<marker lat="30.6" lon="-81.45" site="Amelia Island (Florida, United States)"/>
<marker lat="34.25" lon="-78.516" site="Waccamaw River (United States)"/>
<marker lat="60.0" lon="47.0" site="Russia (Russia)"/>
<marker lat="53.0" lon="-2.0" site="England (United Kingdom)"/>
<marker lat="25.5" lon="-77.483" site="Nassau (Bahamas)"/>
<marker lat="35.0" lon="-98.0" site="Oklahoma (Oklahoma, United States)"/>
<marker lat="37.55" lon="-77.45" site="Richmond (Virginia, United States)"/>
<marker lat="34.25" lon="-88.7" site="Tupelo (Mississippi, United States)"/>
<marker lat="33.233" lon="-81.35" site="Barnwell Court House (South Carolina, United States)"/>
<marker lat="35.583" lon="-79.5" site="Cape Fear (North Carolina, United States)"/>
<marker lat="36.166" lon="-86.75" site="Edgefield (Tennessee, United States)"/>
<marker lat="23.116" lon="-82.35" site="Havana (Cuba)"/>
<marker lat="34.0" lon="-112.0" site="Arizona (Arizona, United States)"/>
<marker lat="46.0" lon="2.0" site="France (France)"/>
<marker lat="40.0" lon="-4.0" site="Spain (Spain)"/>
</markers>