<markers>
<marker lat="34.0" lon="-80.0" site="South Carolina (South Carolina, United States)"/>
<marker lat="40.833" lon="-76.0" site="Pennsylvania (Pennsylvania, United States)"/>
<marker lat="38.0" lon="-98.0" site="United States (United States)"/>
<marker lat="32.0" lon="-84.0" site="Georgia (Georgia, United States)"/>
<marker lat="37.55" lon="-77.45" site="Richmond (Virginia, United States)"/>
<marker lat="37.0" lon="-80.0" site="Virginia (Virginia, United States)"/>
<marker lat="38.3" lon="-77.45" site="Fredericksburg, Va. (Virginia, United States)"/>
<marker lat="37.783" lon="-78.483" site="Scottsville (Virginia, United States)"/>
<marker lat="44.0" lon="-120.0" site="Oregon (Oregon, United States)"/>
<marker lat="35.5" lon="-80.0" site="North Carolina (North Carolina, United States)"/>
<marker lat="32.75" lon="-79.833" site="Sullivan's Island (South Carolina, United States)"/>
<marker lat="40.5" lon="-80.716" site="Wheeling, W. Va. (West Virginia, United States)"/>
<marker lat="32.75" lon="-79.85" site="Fort Moultrie (South Carolina, United States)"/>
<marker lat="32.75" lon="-79.883" site="Charleston Harbor (South Carolina, United States)"/>
<marker lat="39.0" lon="-76.833" site="Maryland (Maryland, United States)"/>
<marker lat="38.0" lon="-98.0" site="Missouri (Missouri, United States)"/>
<marker lat="37.3" lon="-78.383" site="Farmville (Virginia, United States)"/>
<marker lat="37.116" lon="-80.4" site="Christiansburg (Virginia, United States)"/>
<marker lat="41.566" lon="-77.233" site="Plank (Pennsylvania, United States)"/>
<marker lat="37.3" lon="-76.766" site="James City (Virginia, United States)"/>
<marker lat="56.0" lon="-2.516" site="Dunbar (United Kingdom)"/>
<marker lat="38.666" lon="-98.0" site="Kansas (Kansas, United States)"/>
<marker lat="35.0" lon="-93.0" site="Arkansas (Arkansas, United States)"/>
<marker lat="32.283" lon="-90.183" site="Jackson (Mississippi, United States)"/>
<marker lat="37.0" lon="-119.0" site="California (California, United States)"/>
<marker lat="38.733" lon="-77.816" site="Fauquier (Virginia, United States)"/>
<marker lat="43.666" lon="-92.66" site="Preston (Minnesota, United States)"/>
<marker lat="32.0" lon="-80.833" site="Tybee Island (Georgia, United States)"/>
<marker lat="46.0" lon="2.0" site="France (France)"/>
<marker lat="37.483" lon="-79.866" site="Fincastle (Virginia, United States)"/>
<marker lat="39.216" lon="-78.25" site="Frederick (Virginia, United States)"/>
<marker lat="38.5" lon="-77.966" site="Culpeper (Virginia, United States)"/>
<marker lat="40.983" lon="-90.483" site="Utah (Illinois, United States)"/>
<marker lat="38.416" lon="-77.466" site="Stafford (Virginia, United States)"/>
<marker lat="42.6" lon="-70.65" site="Glocester (Massachusetts, United States)"/>
<marker lat="37.733" lon="-78.633" site="Howardsville (Virginia, United States)"/>
<marker lat="51.45" lon="-2.583" site="Bristol (United Kingdom)"/>
<marker lat="38.916" lon="-78.183" site="Front Royal (Virginia, United States)"/>
<marker lat="42.25" lon="-71.833" site="Massachusetts (Massachusetts, United States)"/>
<marker lat="41.5" lon="-100.0" site="Nebraska (Nebraska, United States)"/>
<marker lat="42.83" lon="-76.8" site="Newtown (New York, United States)"/>
<marker lat="33.0" lon="-87.0" site="Alabama (Alabama, United States)"/>
<marker lat="37.483" lon="-77.0" site="New Kent (Virginia, United States)"/>
<marker lat="30.45" lon="-91.15" site="Baton Rouge (Louisiana, United States)"/>
<marker lat="36.966" lon="-76.35" site="Hampton Roads (Virginia, United States)"/>
<marker lat="38.2" lon="-77.583" site="Spottsylvania (Virginia, United States)"/>
<marker lat="38.233" lon="-78.1" site="Orange Court House (Virginia, United States)"/>
<marker lat="37.316" lon="-80.733" site="Pearisburg (Virginia, United States)"/>
<marker lat="18.233" lon="-66.55" site="Porto Rico"/>
<marker lat="37.5" lon="14.0" site="Sicily (Italy)"/>
<marker lat="37.4" lon="-79.133" site="Lynchburg (Virginia, United States)"/>
<marker lat="39.633" lon="-86.85" site="Putnam (Indiana, United States)"/>
<marker lat="37.516" lon="-77.383" site="Rocketts (Virginia, United States)"/>
<marker lat="43.45" lon="-76.5" site="Oswego (New York, United States)"/>
<marker lat="22.5" lon="88.333" site="Calcutta (West Bengal, India)"/>
<marker lat="53.0" lon="-2.0" site="England (United Kingdom)"/>
<marker lat="57.0" lon="-4.0" site="Scotland (United Kingdom)"/>
<marker lat="38.266" lon="-77.15" site="King George county (Virginia, United States)"/>
<marker lat="37.683" lon="-77.83" site="King William County (Virginia, United States)"/>
<marker lat="40.0" lon="-89.0" site="Illinois (Illinois, United States)"/>
<marker lat="40.616" lon="-79.616" site="Westmoreland (Pennsylvania, United States)"/>
<marker lat="34.733" lon="-92.283" site="Little Rock (Arkansas, United States)"/>
<marker lat="35.0" lon="105.0" site="China (China)"/>
<marker lat="39.483" lon="-80.133" site="Palatine (West Virginia, United States)"/>
<marker lat="40.0" lon="-80.833" site="Ohio (Ohio, United States)"/>
<marker lat="37.75" lon="-77.483" site="Hanover County (Virginia, United States)"/>
<marker lat="30.216" lon="-88.16" site="Fort Morgan (Alabama, United States)"/>
<marker lat="37.416" lon="-76.55" site="Gloucester county (Virginia, United States)"/>
<marker lat="37.55" lon="-77.366" site="Henrico (Virginia, United States)"/>
<marker lat="38.16" lon="-78.0" site="Louisa Court House (Virginia, United States)"/>
<marker lat="35.0" lon="-79.75" site="Richmond county (North Carolina, United States)"/>
<marker lat="41.9" lon="-71.83" site="Taunton (Massachusetts, United States)"/>
<marker lat="40.833" lon="14.25" site="Naples (Italy)"/>
<marker lat="40.0" lon="-110.0" site="Utah (Utah, United States)"/>
<marker lat="44.0" lon="-73.0" site="Vermont (Vermont, United States)"/>
<marker lat="35.5" lon="-85.0" site="Tennessee (Tennessee, United States)"/>
<marker lat="42.333" lon="-76.833" site="Havana, N. Y. (New York, United States)"/>
<marker lat="39.0" lon="-78.15" site="Nineveh (Virginia, United States)"/>
<marker lat="44.633" lon="-63.583" site="Halifax (Canada)"/>
<marker lat="37.95" lon="-76.95" site="Essex County (Virginia, United States)"/>
<marker lat="39.5" lon="-90.866" site="Brussells (Missouri, United States)"/>
<marker lat="40.566" lon="-89.633" site="Pekin (Illinois, United States)"/>
<marker lat="35.583" lon="-79.5" site="Cape Fear (North Carolina, United States)"/>
<marker lat="36.45" lon="-83.566" site="Tazewell, Tenn. (Tennessee, United States)"/>
<marker lat="34.916" lon="-88.45" site="Farmington (Mississippi, United States)"/>
<marker lat="38.7" lon="-77.483" site="Prince William (Virginia, United States)"/>
<marker lat="47.0" lon="-120.0" site="Washington (Washington, United States)"/>
<marker lat="37.383" lon="-77.6" site="Chesterfield (Virginia, United States)"/>
<marker lat="43.0" lon="-84.55" site="St. Johns (Michigan, United States)"/>
<marker lat="38.33" lon="-77.35" site="Caroline (Virginia, United States)"/>
<marker lat="38.433" lon="-78.866" site="Harrisonburg, Va. (Virginia, United States)"/>
<marker lat="39.45" lon="-77.95" site="Martinsburg (West Virginia, United States)"/>
<marker lat="37.75" lon="-77.366" site="Hanover Court House (Virginia, United States)"/>
<marker lat="38.16" lon="-78.466" site="Charlottesville (Virginia, United States)"/>
<marker lat="40.75" lon="-73.816" site="Flushing, L. I. (New York, United States)"/>
<marker lat="36.75" lon="-78.916" site="Halifax, Va. (Virginia, United States)"/>
<marker lat="40.2" lon="-77.183" site="Carlisle, Pa. (Pennsylvania, United States)"/>
<marker lat="47.333" lon="13.333" site="Austria (Austria)"/>
<marker lat="44.216" lon="-69.766" site="Gardiner (Maine, United States)"/>
<marker lat="36.583" lon="-79.383" site="Danville (Virginia, United States)"/>
<marker lat="39.833" lon="-88.95" site="Decatur (Illinois, United States)"/>
<marker lat="31.883" lon="-85.45" site="Barbour (Alabama, United States)"/>
<marker lat="29.35" lon="-89.45" site="Fort Jackson (Louisiana, United States)"/>
<marker lat="24.616" lon="-82.866" site="Fort Jefferson (Florida, United States)"/>
<marker lat="30.216" lon="-88.916" site="Ship Island (Mississippi, United States)"/>
<marker lat="42.216" lon="-78.266" site="Cuba, N. Y. (New York, United States)"/>
<marker lat="37.733" lon="-77.916" site="Goochland (Virginia, United States)"/>
<marker lat="37.5" lon="-78.25" site="Cumberland County (Virginia, United States)"/>
<marker lat="37.983" lon="-77.966" site="Louisa (Virginia, United States)"/>
<marker lat="36.95" lon="-78.25" site="Lunenburg (Virginia, United States)"/>
<marker lat="36.75" lon="-78.933" site="Halifax county (Virginia, United States)"/>
<marker lat="38.966" lon="-80.516" site="Lewis County (West Virginia, United States)"/>
<marker lat="37.55" lon="-78.566" site="Buckingham county (Virginia, United States)"/>
</markers>