<markers>
<marker lat="38.0" lon="-98.0" site="United States (United States)"/>
<marker lat="33.733" lon="-84.383" site="Atlanta (Georgia, United States)"/>
<marker lat="36.583" lon="-79.383" site="Danville (Virginia, United States)"/>
<marker lat="34.766" lon="-84.966" site="Dalton, Ga. (Georgia, United States)"/>
<marker lat="32.183" lon="-84.133" site="Andersonville, Ga. (Georgia, United States)"/>
<marker lat="41.3" lon="-82.966" site="Centreville (Ohio, United States)"/>
<marker lat="33.666" lon="-84.433" site="East Point (Georgia, United States)"/>
<marker lat="37.55" lon="-77.45" site="Richmond (Virginia, United States)"/>
<marker lat="35.5" lon="-85.0" site="Tennessee (Tennessee, United States)"/>
<marker lat="33.133" lon="-83.116" site="Sandtown (Georgia, United States)"/>
<marker lat="42.583" lon="-71.716" site="Lunenburg, Ma. (Massachusetts, United States)"/>
<marker lat="39.0" lon="-76.833" site="Maryland (Maryland, United States)"/>
<marker lat="40.0" lon="-75.0" site="New Jersey (New Jersey, United States)"/>
<marker lat="35.583" lon="-78.8" site="Varina (North Carolina, United States)"/>
<marker lat="37.116" lon="-80.4" site="Christiansburg (Virginia, United States)"/>
<marker lat="36.533" lon="-79.2" site="Milton, N. C. (North Carolina, United States)"/>
<marker lat="33.566" lon="-84.566" site="Fairburn (Georgia, United States)"/>
<marker lat="37.783" lon="-78.483" site="Scottsville (Virginia, United States)"/>
<marker lat="34.233" lon="-89.16" site="Pontotoc (Mississippi, United States)"/>
<marker lat="37.4" lon="-79.133" site="Lynchburg (Virginia, United States)"/>
<marker lat="37.1" lon="-77.4" site="Reams (Virginia, United States)"/>
<marker lat="53.0" lon="-2.0" site="England (United Kingdom)"/>
<marker lat="-25.0" lon="135.0" site="Australia (Australia)"/>
<marker lat="32.0" lon="-84.0" site="Georgia (Georgia, United States)"/>
<marker lat="39.933" lon="-77.65" site="Chambersburg, Pa. (Pennsylvania, United States)"/>
<marker lat="37.783" lon="-79.433" site="Lexington, Va. (Virginia, United States)"/>
<marker lat="35.5" lon="-80.0" site="North Carolina (North Carolina, United States)"/>
<marker lat="34.0" lon="-80.0" site="South Carolina (South Carolina, United States)"/>
<marker lat="39.316" lon="-77.733" site="Harper's Ferry (West Virginia, United States)"/>
<marker lat="35.766" lon="-78.633" site="Raleigh (North Carolina, United States)"/>
<marker lat="37.0" lon="-119.0" site="California (California, United States)"/>
<marker lat="34.166" lon="-82.366" site="Abbeville, S. C. (South Carolina, United States)"/>
<marker lat="32.866" lon="-85.183" site="West Point (Georgia, United States)"/>
<marker lat="35.316" lon="-82.45" site="Hendersonville (North Carolina, United States)"/>
<marker lat="47.333" lon="13.333" site="Austria (Austria)"/>
<marker lat="34.6" lon="-83.516" site="Clarkesville (Georgia, United States)"/>
<marker lat="36.766" lon="-80.35" site="Dan River (United States)"/>
<marker lat="36.816" lon="-79.4" site="Pittsylvania (Virginia, United States)"/>
<marker lat="37.566" lon="-77.916" site="Powhatan (Virginia, United States)"/>
</markers>