<markers>
<marker lat="38.0" lon="-98.0" site="United States (United States)"/>
<marker lat="38.816" lon="-77.516" site="Bull Run, Va. (Virginia, United States)"/>
<marker lat="38.0" lon="-98.0" site="Missouri (Missouri, United States)"/>
<marker lat="35.0" lon="-93.0" site="Arkansas (Arkansas, United States)"/>
<marker lat="35.5" lon="-85.0" site="Tennessee (Tennessee, United States)"/>
<marker lat="37.2" lon="-93.283" site="Springfield, Mo. (Missouri, United States)"/>
<marker lat="37.33" lon="-89.183" site="Cairo, Ill. (Illinois, United States)"/>
<marker lat="36.966" lon="-89.116" site="Bird's Point, Mo. (Missouri, United States)"/>
<marker lat="35.5" lon="-80.0" site="North Carolina (North Carolina, United States)"/>
<marker lat="41.65" lon="-83.55" site="Vistula (Ohio, United States)"/>
<marker lat="60.0" lon="-96.0" site="Canada (Canada)"/>
<marker lat="34.0" lon="-80.0" site="South Carolina (South Carolina, United States)"/>
<marker lat="40.833" lon="-76.0" site="Pennsylvania (Pennsylvania, United States)"/>
<marker lat="39.16" lon="-78.1" site="Stone Bridge (Virginia, United States)"/>
<marker lat="32.0" lon="-84.0" site="Georgia (Georgia, United States)"/>
<marker lat="37.55" lon="-77.45" site="Richmond (Virginia, United States)"/>
<marker lat="38.3" lon="-77.45" site="Fredericksburg, Va. (Virginia, United States)"/>
<marker lat="36.716" lon="-76.583" site="Suffolk, Va. (Virginia, United States)"/>
<marker lat="33.466" lon="-82.16" site="Augusta (Georgia, United States)"/>
<marker lat="35.216" lon="-80.833" site="Charlotte (North Carolina, United States)"/>
<marker lat="37.8" lon="-79.433" site="Rockbridge (Virginia, United States)"/>
<marker lat="45.0" lon="-69.0" site="Maine (Maine, United States)"/>
<marker lat="39.0" lon="-76.833" site="Maryland (Maryland, United States)"/>
<marker lat="31.566" lon="-84.15" site="Albany (Georgia, United States)"/>
<marker lat="33.0" lon="-87.0" site="Alabama (Alabama, United States)"/>
<marker lat="30.316" lon="-87.283" site="Fort Pickens (Florida, United States)"/>
<marker lat="38.233" lon="-78.1" site="Orange Court House (Virginia, United States)"/>
<marker lat="19.0" lon="-70.666" site="Dominican Republic (Dominican Republic)"/>
<marker lat="38.966" lon="-77.733" site="Middleburg (Virginia, United States)"/>
<marker lat="38.516" lon="-77.6" site="Aquia Creek (Virginia, United States)"/>
<marker lat="39.0" lon="-75.666" site="Delaware (Delaware, United States)"/>
<marker lat="38.15" lon="-81.183" site="Kanawha (West Virginia, United States)"/>
<marker lat="39.316" lon="-77.733" site="Harper's Ferry (West Virginia, United States)"/>
<marker lat="37.55" lon="-77.366" site="Henrico (Virginia, United States)"/>
<marker lat="35.95" lon="-83.916" site="Knoxville (Tennessee, United States)"/>
<marker lat="38.33" lon="-77.35" site="Caroline (Virginia, United States)"/>
<marker lat="41.416" lon="-84.383" site="Evansport (Ohio, United States)"/>
<marker lat="40.733" lon="-73.933" site="Long Island City (New York, United States)"/>
<marker lat="46.0" lon="2.0" site="France (France)"/>
<marker lat="40.0" lon="-4.0" site="Spain (Spain)"/>
<marker lat="37.3" lon="-79.566" site="Bedford County (Virginia, United States)"/>
<marker lat="28.166" lon="-96.95" site="Egg Point (Texas, United States)"/>
<marker lat="38.766" lon="-75.133" site="Swanendael (Delaware, United States)"/>
<marker lat="33.733" lon="-84.383" site="Atlanta (Georgia, United States)"/>
<marker lat="35.516" lon="-76.783" site="Old Town creek (North Carolina, United States)"/>
<marker lat="42.85" lon="-71.366" site="Londonderry, N. H. (New Hampshire, United States)"/>
<marker lat="42.25" lon="-71.833" site="Massachusetts (Massachusetts, United States)"/>
<marker lat="35.216" lon="-75.516" site="Cape Hatteras (North Carolina, United States)"/>
<marker lat="40.0" lon="-75.0" site="New Jersey (New Jersey, United States)"/>
<marker lat="42.633" lon="-76.1" site="East River (New York, United States)"/>
<marker lat="36.316" lon="-78.65" site="Granville county (North Carolina, United States)"/>
<marker lat="38.5" lon="-77.16" site="Port Tobacco (Maryland, United States)"/>
<marker lat="36.45" lon="-77.55" site="Garysburg (North Carolina, United States)"/>
<marker lat="38.833" lon="-77.3" site="Fairfax, Va. (Virginia, United States)"/>
<marker lat="30.366" lon="-86.916" site="Santa Rosa Island (Florida, United States)"/>
<marker lat="37.516" lon="-77.433" site="Mayo's Island (Virginia, United States)"/>
<marker lat="37.233" lon="-76.5" site="Yorktown (Virginia, United States)"/>
<marker lat="51.66" lon="-1.25" site="Hampshire (United Kingdom)"/>
<marker lat="33.366" lon="-91.0" site="Washington county (Mississippi, United States)"/>
<marker lat="39.183" lon="-77.6" site="Waterford (Virginia, United States)"/>
<marker lat="37.516" lon="-76.783" site="West Point (Virginia, United States)"/>
<marker lat="30.95" lon="-83.866" site="Thomas (Georgia, United States)"/>
<marker lat="30.833" lon="-83.966" site="Thomasville (Georgia, United States)"/>
<marker lat="38.4" lon="-79.566" site="Monterey (Virginia, United States)"/>
<marker lat="31.316" lon="-95.45" site="Crocket (Texas, United States)"/>
<marker lat="38.2" lon="-84.25" site="Paris, Ky. (Kentucky, United States)"/>
<marker lat="34.366" lon="-84.33" site="Lumpkin, Ga. (Georgia, United States)"/>
<marker lat="38.683" lon="-77.9" site="Waterloo, Va. (Virginia, United States)"/>
<marker lat="31.0" lon="-92.0" site="Louisiana (Louisiana, United States)"/>
<marker lat="35.816" lon="-80.233" site="Davidson (North Carolina, United States)"/>
<marker lat="37.766" lon="-122.416" site="San Francisco (California, United States)"/>
<marker lat="32.83" lon="-81.1" site="Savannah (Georgia, United States)"/>
<marker lat="39.133" lon="-78.483" site="Capon Springs (West Virginia, United States)"/>
<marker lat="33.633" lon="-96.6" site="Sherman, Grayson County, Texas (Texas, United States)"/>
<marker lat="40.433" lon="-79.983" site="Pittsburgh (Pennsylvania, United States)"/>
<marker lat="34.566" lon="-86.55" site="Whitesburg (Alabama, United States)"/>
<marker lat="38.4" lon="-77.33" site="Mathias Point (Virginia, United States)"/>
<marker lat="39.0" lon="-80.0" site="West Virginia (West Virginia, United States)"/>
<marker lat="32.283" lon="-90.183" site="Jackson (Mississippi, United States)"/>
<marker lat="34.633" lon="-77.95" site="Washington, N. C. (North Carolina, United States)"/>
<marker lat="47.0" lon="8.0" site="Switzerland (Switzerland)"/>
<marker lat="36.416" lon="-77.583" site="Weldon, N. C. (North Carolina, United States)"/>
<marker lat="37.1" lon="-80.683" site="Dublin (Virginia, United States)"/>
<marker lat="37.2" lon="-76.75" site="Jamestown Island (Virginia, United States)"/>
<marker lat="36.45" lon="-83.566" site="Tazewell, Tenn. (Tennessee, United States)"/>
<marker lat="37.16" lon="-76.333" site="Hampton (Virginia, United States)"/>
<marker lat="39.83" lon="-77.65" site="Loudoun (Virginia, United States)"/>
<marker lat="34.216" lon="-77.933" site="Wilmington, N. C. (North Carolina, United States)"/>
<marker lat="37.0" lon="-80.0" site="Virginia (Virginia, United States)"/>
<marker lat="34.716" lon="-86.583" site="Huntsville (Alabama, United States)"/>
<marker lat="45.366" lon="10.566" site="Solferino (Italy)"/>
<marker lat="35.333" lon="-78.283" site="Bentonville (North Carolina, United States)"/>
<marker lat="39.45" lon="-77.95" site="Martinsburg (West Virginia, United States)"/>
<marker lat="37.75" lon="-77.366" site="Hanover Court House (Virginia, United States)"/>
<marker lat="32.366" lon="-80.7" site="Beaufort (South Carolina, United States)"/>
<marker lat="38.433" lon="-85.166" site="New Castle, Ky. (Kentucky, United States)"/>
<marker lat="36.75" lon="-89.1" site="Columbus, Ky. (Kentucky, United States)"/>
<marker lat="32.766" lon="-79.916" site="Charleston (South Carolina, United States)"/>
<marker lat="50.833" lon="4.0" site="Belgium (Belgium)"/>
<marker lat="50.65" lon="3.83" site="Lisle (France)"/>
<marker lat="38.6" lon="-79.933" site="Cheat Mountain (West Virginia, United States)"/>
<marker lat="43.183" lon="-70.866" site="Dover, N. H. (New Hampshire, United States)"/>
<marker lat="42.833" lon="12.833" site="Italy (Italy)"/>
<marker lat="39.216" lon="-78.25" site="Frederick (Virginia, United States)"/>
<marker lat="38.366" lon="-79.366" site="Highland County (Virginia, United States)"/>
<marker lat="37.66" lon="-80.716" site="Pulaski (Virginia, United States)"/>
<marker lat="37.783" lon="-80.0" site="Alleghany (Virginia, United States)"/>
<marker lat="39.116" lon="-77.966" site="Clarke (Virginia, United States)"/>
<marker lat="37.566" lon="-79.783" site="Botetourt (Virginia, United States)"/>
</markers>