<markers>
<marker lat="38.0" lon="-98.0" site="United States (United States)"/>
<marker lat="39.0" lon="-76.833" site="Maryland (Maryland, United States)"/>
<marker lat="39.316" lon="-77.733" site="Harper's Ferry (West Virginia, United States)"/>
<marker lat="35.0" lon="-93.0" site="Arkansas (Arkansas, United States)"/>
<marker lat="42.333" lon="-76.833" site="Havana, N. Y. (New York, United States)"/>
<marker lat="37.516" lon="-76.783" site="West Point (Virginia, United States)"/>
<marker lat="40.833" lon="-76.0" site="Pennsylvania (Pennsylvania, United States)"/>
<marker lat="37.516" lon="-76.783" site="York (Virginia, United States)"/>
<marker lat="38.0" lon="-98.0" site="Missouri (Missouri, United States)"/>
<marker lat="30.316" lon="-87.283" site="Fort Pickens (Florida, United States)"/>
<marker lat="36.833" lon="-76.283" site="Portsmouth, Va. (Virginia, United States)"/>
<marker lat="37.4" lon="-79.133" site="Lynchburg (Virginia, United States)"/>
<marker lat="35.5" lon="-80.0" site="North Carolina (North Carolina, United States)"/>
<marker lat="39.0" lon="-80.0" site="West Virginia (West Virginia, United States)"/>
<marker lat="38.3" lon="-77.45" site="Fredericksburg, Va. (Virginia, United States)"/>
<marker lat="37.633" lon="-76.566" site="Urbana (Virginia, United States)"/>
<marker lat="40.266" lon="-80.6" site="Charlestown, W. Va. (West Virginia, United States)"/>
<marker lat="37.0" lon="-80.0" site="Virginia (Virginia, United States)"/>
<marker lat="38.666" lon="-98.0" site="Kansas (Kansas, United States)"/>
<marker lat="31.0" lon="-92.0" site="Louisiana (Louisiana, United States)"/>
<marker lat="32.83" lon="-81.1" site="Savannah (Georgia, United States)"/>
<marker lat="34.0" lon="-80.0" site="South Carolina (South Carolina, United States)"/>
<marker lat="38.883" lon="-77.33" site="Washington (United States)"/>
<marker lat="39.316" lon="-77.7" site="Sandy Hook, Md. (Maryland, United States)"/>
<marker lat="37.33" lon="-89.183" site="Cairo, Ill. (Illinois, United States)"/>
<marker lat="40.5" lon="-80.716" site="Wheeling, W. Va. (West Virginia, United States)"/>
<marker lat="38.7" lon="-77.83" site="Mount Vernon (Virginia, United States)"/>
<marker lat="40.583" lon="-74.15" site="Staten Island (New York, United States)"/>
<marker lat="37.916" lon="-76.85" site="Tappahannock (Virginia, United States)"/>
<marker lat="32.766" lon="-79.916" site="Charleston (South Carolina, United States)"/>
<marker lat="46.0" lon="2.0" site="France (France)"/>
<marker lat="37.783" lon="-78.783" site="Nelson (Virginia, United States)"/>
<marker lat="36.666" lon="-80.283" site="Patrick County (Virginia, United States)"/>
<marker lat="39.45" lon="-78.33" site="Berkeley County (West Virginia, United States)"/>
<marker lat="38.183" lon="-77.65" site="Spotsylvania county (Virginia, United States)"/>
<marker lat="37.933" lon="-90.783" site="Potosi, Mo. (Missouri, United States)"/>
<marker lat="38.0" lon="-78.45" site="Monticello (Virginia, United States)"/>
<marker lat="32.483" lon="-92.166" site="Steven (Louisiana, United States)"/>
<marker lat="36.883" lon="-76.66" site="Lynnhaven Bay (Virginia, United States)"/>
<marker lat="36.333" lon="-88.316" site="Henry (Tennessee, United States)"/>
<marker lat="42.433" lon="-71.6" site="Bolton (Massachusetts, United States)"/>
<marker lat="43.0" lon="-75.0" site="New York State (New York, United States)"/>
<marker lat="35.45" lon="-76.5" site="Nebraska (North Carolina, United States)"/>
<marker lat="42.0" lon="-78.116" site="Potter County (Pennsylvania, United States)"/>
<marker lat="37.2" lon="-77.233" site="county, Va. (Virginia, United States)"/>
<marker lat="33.0" lon="-87.0" site="Alabama (Alabama, United States)"/>
<marker lat="37.35" lon="-77.433" site="Chester, Va. (Virginia, United States)"/>
<marker lat="37.483" lon="-77.0" site="New Kent (Virginia, United States)"/>
<marker lat="36.966" lon="-76.35" site="Hampton Roads (Virginia, United States)"/>
<marker lat="37.316" lon="-77.266" site="City Point (Virginia, United States)"/>
<marker lat="44.466" lon="-73.2" site="Burlington (Vermont, United States)"/>
<marker lat="40.3" lon="-90.5" site="Havana (Illinois, United States)"/>
<marker lat="40.733" lon="-74.166" site="Milford (New Jersey, United States)"/>
<marker lat="42.866" lon="-71.216" site="Howard's Grove (New Hampshire, United States)"/>
<marker lat="42.983" lon="-71.45" site="Manchester (New Hampshire, United States)"/>
<marker lat="36.883" lon="-76.35" site="Craney Island (Virginia, United States)"/>
<marker lat="37.0" lon="-105.5" site="Canadian (United States)"/>
<marker lat="38.55" lon="-76.66" site="Cambridge (Maryland, United States)"/>
<marker lat="40.616" lon="-80.116" site="Westmoreland County (Pennsylvania, United States)"/>
<marker lat="38.8" lon="-77.33" site="Alexandria (Virginia, United States)"/>
<marker lat="37.683" lon="-77.83" site="King William County (Virginia, United States)"/>
<marker lat="40.0" lon="-89.0" site="Illinois (Illinois, United States)"/>
<marker lat="32.0" lon="-84.0" site="Georgia (Georgia, United States)"/>
<marker lat="33.666" lon="-84.433" site="South River, Ga. (Georgia, United States)"/>
<marker lat="36.7" lon="-81.966" site="Abingdon, Va. (Virginia, United States)"/>
<marker lat="60.0" lon="-96.0" site="Canada (Canada)"/>
<marker lat="35.0" lon="105.0" site="China (China)"/>
<marker lat="35.0" lon="-98.0" site="Oklahoma (Oklahoma, United States)"/>
<marker lat="41.616" lon="-76.116" site="Wyoming County (Pennsylvania, United States)"/>
<marker lat="37.75" lon="-77.483" site="Hanover County (Virginia, United States)"/>
<marker lat="39.15" lon="-77.2" site="Montgomery County (Maryland, United States)"/>
<marker lat="37.55" lon="-77.366" site="Henrico (Virginia, United States)"/>
<marker lat="52.5" lon="-1.833" site="Birmingham (United Kingdom)"/>
<marker lat="37.0" lon="-119.0" site="California (California, United States)"/>
<marker lat="36.7" lon="-81.766" site="Lodi (Virginia, United States)"/>
<marker lat="23.0" lon="-102.0" site="Mexico (Mexico)"/>
<marker lat="35.5" lon="-85.0" site="Tennessee (Tennessee, United States)"/>
<marker lat="37.2" lon="-93.283" site="Springfield, Mo. (Missouri, United States)"/>
<marker lat="45.5" lon="-73.6" site="Montreal (Canada)"/>
<marker lat="27.0" lon="30.0" site="Egypt (Egypt)"/>
<marker lat="35.95" lon="-83.916" site="Knoxville (Tennessee, United States)"/>
<marker lat="35.683" lon="-75.716" site="Old Point (North Carolina, United States)"/>
<marker lat="40.266" lon="-76.883" site="Harrisburg, Pa. (Pennsylvania, United States)"/>
<marker lat="34.216" lon="-77.933" site="Wilmington, N. C. (North Carolina, United States)"/>
<marker lat="43.9" lon="-69.816" site="Bath, Me. (Maine, United States)"/>
<marker lat="38.133" lon="-90.55" site="De Soto, Jefferson County, Missouri (Missouri, United States)"/>
<marker lat="39.45" lon="-77.95" site="Martinsburg (West Virginia, United States)"/>
<marker lat="54.0" lon="-72.0" site="Quebec (Canada)"/>
<marker lat="50.5" lon="9.25" site="Hesse (Hesse, Germany)"/>
<marker lat="36.75" lon="-78.916" site="Halifax, Va. (Virginia, United States)"/>
<marker lat="28.75" lon="-96.966" site="Hughes (Texas, United States)"/>
<marker lat="38.8" lon="-75.83" site="Cape Henlopen (Delaware, United States)"/>
<marker lat="37.483" lon="-79.866" site="Fincastle (Virginia, United States)"/>
<marker lat="39.183" lon="-84.283" site="Camp Dennison, Ohio (Ohio, United States)"/>
<marker lat="41.483" lon="-81.683" site="Cleveland (Ohio, United States)"/>
<marker lat="41.5" lon="-78.233" site="Shippen (Pennsylvania, United States)"/>
<marker lat="35.433" lon="-84.583" site="Athens, Tenn. (Tennessee, United States)"/>
<marker lat="37.133" lon="-78.66" site="Nottoway (Virginia, United States)"/>
<marker lat="33.3" lon="-85.483" site="Wedowee (Alabama, United States)"/>
</markers>