<markers>
<marker lat="41.75" lon="-72.683" site="Hartford (Connecticut, United States)"/>
<marker lat="51.45" lon="5.983" site="America (Netherlands)"/>
<marker lat="48.866" lon="2.333" site="Department de Ville de Paris (France)"/>
<marker lat="34.25" lon="-85.15" site="Rome, Ga. (Georgia, United States)"/>
<marker lat="43.9" lon="-69.95" site="Brunswick, Me. (Maine, United States)"/>
<marker lat="57.0" lon="-4.0" site="Scotland (United Kingdom)"/>
<marker lat="38.0" lon="-98.0" site="United States (United States)"/>
<marker lat="53.416" lon="-3.0" site="Liverpool (United Kingdom)"/>
<marker lat="45.433" lon="12.333" site="Venice (Italy)"/>
<marker lat="42.833" lon="12.833" site="Italy (Italy)"/>
<marker lat="45.0" lon="-69.0" site="Maine (Maine, United States)"/>
<marker lat="37.133" lon="-89.116" site="America (Illinois, United States)"/>
<marker lat="39.95" lon="-83.8" site="Walnut Hills, Ohio (Ohio, United States)"/>
<marker lat="42.85" lon="-72.55" site="Brattleboro (Vermont, United States)"/>
<marker lat="40.833" lon="14.25" site="Naples (Italy)"/>
<marker lat="46.0" lon="2.0" site="France (France)"/>
<marker lat="55.883" lon="-4.25" site="Glasgow (United Kingdom)"/>
<marker lat="47.0" lon="8.0" site="Switzerland (Switzerland)"/>
<marker lat="27.516" lon="-82.566" site="Palmetto (Florida, United States)"/>
<marker lat="57.166" lon="-2.66" site="Aberdeen (United Kingdom)"/>
<marker lat="40.616" lon="14.366" site="Sorrento (Italy)"/>
<marker lat="53.0" lon="-2.0" site="England (United Kingdom)"/>
<marker lat="46.216" lon="6.15" site="Geneva (Switzerland)"/>
<marker lat="51.5" lon="10.5" site="Germany (Germany)"/>
<marker lat="35.1" lon="-84.65" site="Orrs Island (Tennessee, United States)"/>
<marker lat="42.283" lon="-71.35" site="Natick (Massachusetts, United States)"/>
<marker lat="56.466" lon="-3.0" site="Dundee (United Kingdom)"/>
<marker lat="60.0" lon="-96.0" site="Canada (Canada)"/>
<marker lat="44.8" lon="-68.766" site="Bangor (Maine, United States)"/>
<marker lat="40.816" lon="14.433" site="Vesuvius (Italy)"/>
<marker lat="43.783" lon="11.25" site="Florence (Italy)"/>
<marker lat="38.666" lon="-98.0" site="Kansas (Kansas, United States)"/>
<marker lat="40.5" lon="-80.716" site="Wheeling, W. Va. (West Virginia, United States)"/>
<marker lat="42.25" lon="-71.833" site="Massachusetts (Massachusetts, United States)"/>
<marker lat="43.766" lon="-69.95" site="Orrs Island (Maine, United States)"/>
<marker lat="41.316" lon="-72.683" site="Nut Plains (Connecticut, United States)"/>
<marker lat="41.483" lon="-71.3" site="Newport (Rhode Island, United States)"/>
<marker lat="51.483" lon="-0.633" site="Windsor (United Kingdom)"/>
<marker lat="46.533" lon="6.65" site="Lausanne (Switzerland)"/>
<marker lat="42.266" lon="-71.416" site="Framingham (Massachusetts, United States)"/>
<marker lat="40.433" lon="-79.983" site="Pittsburgh (Pennsylvania, United States)"/>
<marker lat="52.5" lon="-1.833" site="Birmingham (United Kingdom)"/>
<marker lat="42.366" lon="-71.233" site="Waltham (Massachusetts, United States)"/>
<marker lat="52.25" lon="10.5" site="Braunschweig (Lower Saxony, Germany)"/>
<marker lat="34.316" lon="-86.75" site="Eva (Alabama, United States)"/>
<marker lat="40.333" lon="-83.666" site="Zanesville, Ohio (Ohio, United States)"/>
<marker lat="46.633" lon="8.5" site="Grindelwald (Switzerland)"/>
<marker lat="43.55" lon="10.3" site="Leghorn (Italy)"/>
<marker lat="34.183" lon="-79.75" site="Florence, S. C. (South Carolina, United States)"/>
<marker lat="37.16" lon="-78.883" site="Patrick Henry (Virginia, United States)"/>
<marker lat="41.433" lon="-81.583" site="Sorrento (Ohio, United States)"/>
<marker lat="42.233" lon="-71.83" site="Milton, Mass. (Massachusetts, United States)"/>
<marker lat="42.65" lon="-71.133" site="Andover (Massachusetts, United States)"/>
<marker lat="41.5" lon="-100.0" site="Nebraska (Nebraska, United States)"/>
<marker lat="29.95" lon="-90.66" site="New Orleans (Louisiana, United States)"/>
<marker lat="57.45" lon="-4.25" site="Inverness (United Kingdom)"/>
<marker lat="42.866" lon="-76.966" site="Geneva, N. Y. (New York, United States)"/>
<marker lat="41.733" lon="-73.183" site="Litchfield, Conn. (Connecticut, United States)"/>
<marker lat="30.433" lon="-84.266" site="Newton (Florida, United States)"/>
<marker lat="41.833" lon="-72.833" site="Connecticut (Connecticut, United States)"/>
<marker lat="41.85" lon="-72.633" site="Windsor, Conn. (Connecticut, United States)"/>
<marker lat="42.766" lon="-71.66" site="Haverhill (Massachusetts, United States)"/>
<marker lat="36.983" lon="-85.9" site="Glasgow, Ky. (Kentucky, United States)"/>
<marker lat="40.2" lon="-93.116" site="Milan, Sullivan County, Missouri (Missouri, United States)"/>
<marker lat="41.283" lon="-72.666" site="Guilford, Conn. (Connecticut, United States)"/>
<marker lat="42.383" lon="-71.33" site="Chelsea (Massachusetts, United States)"/>
<marker lat="41.85" lon="-87.65" site="Chicago (Illinois, United States)"/>
<marker lat="39.75" lon="-84.183" site="Venice (Ohio, United States)"/>
<marker lat="42.983" lon="-78.183" site="Batavia, N. Y. (New York, United States)"/>
<marker lat="39.916" lon="-82.0" site="Springfield, O. (Ohio, United States)"/>
<marker lat="53.45" lon="-3.33" site="Mersey (United Kingdom)"/>
<marker lat="33.0" lon="-87.0" site="Alabama (Alabama, United States)"/>
<marker lat="39.15" lon="-82.483" site="Puritan (Ohio, United States)"/>
<marker lat="43.166" lon="-78.766" site="Niagara County (New York, United States)"/>
<marker lat="42.35" lon="-71.5" site="Boston (Massachusetts, United States)"/>
<marker lat="39.516" lon="-81.383" site="Bonn (Ohio, United States)"/>
<marker lat="38.583" lon="-82.666" site="Vesuvius (Ohio, United States)"/>
<marker lat="51.283" lon="1.83" site="Canterbury (United Kingdom)"/>
<marker lat="48.383" lon="-107.6" site="Bowdoin (Montana, United States)"/>
<marker lat="43.5" lon="-70.433" site="Saco (Maine, United States)"/>
<marker lat="37.5" lon="14.0" site="Sicily (Italy)"/>
<marker lat="39.533" lon="-78.6" site="Shawanese (Maryland, United States)"/>
<marker lat="42.35" lon="-71.1" site="Cambridgeport (Massachusetts, United States)"/>
<marker lat="53.966" lon="-1.83" site="York (United Kingdom)"/>
<marker lat="54.583" lon="-5.916" site="Belfast (United Kingdom)"/>
<marker lat="31.0" lon="-92.0" site="Louisiana (Louisiana, United States)"/>
<marker lat="32.83" lon="-81.1" site="Savannah (Georgia, United States)"/>
<marker lat="35.0" lon="105.0" site="China (China)"/>
<marker lat="52.5" lon="9.0" site="Hannover (Lower Saxony, Germany)"/>
<marker lat="40.733" lon="-75.3" site="Nazareth, Pennsylvania (Pennsylvania, United States)"/>
<marker lat="41.816" lon="-71.4" site="Providence, R. I. (Rhode Island, United States)"/>
<marker lat="52.283" lon="-1.566" site="Warwick (United Kingdom)"/>
<marker lat="40.533" lon="-75.933" site="Windsor Castle (Pennsylvania, United States)"/>
<marker lat="37.0" lon="-119.0" site="California (California, United States)"/>
<marker lat="40.716" lon="-74.66" site="Hudson (New Jersey, United States)"/>
<marker lat="27.0" lon="30.0" site="Egypt (Egypt)"/>
<marker lat="44.416" lon="8.95" site="Genoa (Italy)"/>
<marker lat="39.95" lon="-76.716" site="York, Pa. (Pennsylvania, United States)"/>
<marker lat="41.35" lon="-72.66" site="Groton (Connecticut, United States)"/>
<marker lat="53.833" lon="-1.583" site="Leedes (United Kingdom)"/>
<marker lat="39.316" lon="-82.966" site="Chillicothe (Ohio, United States)"/>
<marker lat="43.25" lon="-79.5" site="Fort Niagara (New York, United States)"/>
<marker lat="42.483" lon="-71.266" site="Bedford, Mass. (Massachusetts, United States)"/>
<marker lat="53.5" lon="-2.216" site="Manchester (United Kingdom)"/>
<marker lat="43.3" lon="5.366" site="Marseilles (France)"/>
<marker lat="45.766" lon="4.833" site="Lyons (France)"/>
<marker lat="41.516" lon="-71.66" site="Westport Point, Bristol Co., Mass. (Massachusetts, United States)"/>
<marker lat="39.866" lon="-82.83" site="White Cottage (Ohio, United States)"/>
<marker lat="51.5" lon="-0.166" site="Surrey chapel (United Kingdom)"/>
<marker lat="44.283" lon="-69.783" site="Hallowell (Maine, United States)"/>
<marker lat="39.816" lon="-77.216" site="Gettysburg (Pennsylvania, United States)"/>
<marker lat="39.4" lon="-118.65" site="Hill (Nevada, United States)"/>
<marker lat="49.9" lon="2.3" site="Amiens (France)"/>
<marker lat="39.583" lon="-88.6" site="Sullivan, Moultrie County, Illinois (Illinois, United States)"/>
<marker lat="53.616" lon="-2.15" site="Rochdale (United Kingdom)"/>
<marker lat="30.183" lon="-84.216" site="Saint Marks (Florida, United States)"/>
<marker lat="42.916" lon="-76.55" site="Auburn, N. Y. (New York, United States)"/>
<marker lat="39.0" lon="-76.833" site="Maryland (Maryland, United States)"/>
<marker lat="38.0" lon="-98.0" site="Missouri (Missouri, United States)"/>
<marker lat="46.95" lon="7.433" site="Bern (Switzerland)"/>
<marker lat="33.816" lon="-88.533" site="Aberdeen (Mississippi, United States)"/>
<marker lat="40.0" lon="-75.0" site="New Jersey (New Jersey, United States)"/>
<marker lat="44.0" lon="-71.666" site="New Hampshire (New Hampshire, United States)"/>
<marker lat="43.0" lon="-75.0" site="New York State (New York, United States)"/>
<marker lat="44.5" lon="11.333" site="Bologna (Italy)"/>
<marker lat="42.83" lon="-88.266" site="Dundee, Kane County, Illinois (Illinois, United States)"/>
<marker lat="43.516" lon="-73.25" site="Hampton, L. I. (New York, United States)"/>
<marker lat="40.66" lon="-82.516" site="Granville, O. (Ohio, United States)"/>
<marker lat="41.166" lon="-73.2" site="Bridgeport (Connecticut, United States)"/>
<marker lat="38.833" lon="-91.933" site="Fulton, Mo. (Missouri, United States)"/>
<marker lat="42.333" lon="-70.966" site="Boston Harbor (Massachusetts, United States)"/>
<marker lat="51.5" lon="-0.166" site="Grove terrace (United Kingdom)"/>
<marker lat="44.35" lon="-100.366" site="Fort Pierre (South Dakota, United States)"/>
<marker lat="43.0" lon="-84.366" site="Ovid (Michigan, United States)"/>
<marker lat="30.15" lon="-81.7" site="Orange Park (Florida, United States)"/>
<marker lat="41.833" lon="-75.866" site="Montrose (Pennsylvania, United States)"/>
<marker lat="36.983" lon="-89.133" site="Ohio (United States)"/>
<marker lat="42.683" lon="-71.133" site="North Andover (Massachusetts, United States)"/>
<marker lat="41.3" lon="-72.916" site="New Haven (Connecticut, United States)"/>
<marker lat="41.35" lon="-72.1" site="New London (Connecticut, United States)"/>
<marker lat="42.8" lon="-70.866" site="Newburyport (Massachusetts, United States)"/>
<marker lat="40.55" lon="14.216" site="Capri (Italy)"/>
<marker lat="42.183" lon="-72.8" site="Westfield Reservoir (Massachusetts, United States)"/>
<marker lat="50.483" lon="-4.666" site="Cornwall (United Kingdom)"/>
<marker lat="51.5" lon="-0.15" site="Lambeth (United Kingdom)"/>
<marker lat="49.5" lon="0.1" site="Havre (France)"/>
<marker lat="53.7" lon="-2.666" site="Lancaster (United Kingdom)"/>
<marker lat="43.65" lon="-70.25" site="Portland (Maine, United States)"/>
<marker lat="45.433" lon="11.0" site="Verona (Italy)"/>
<marker lat="40.683" lon="-112.0" site="Swallow (Utah, United States)"/>
<marker lat="40.8" lon="14.35" site="Herculaneum (Italy)"/>
<marker lat="40.75" lon="14.483" site="Pompeii (Italy)"/>
<marker lat="30.183" lon="-84.166" site="Newport, Fla. (Florida, United States)"/>
<marker lat="35.216" lon="-88.233" site="Savannah, Tenn. (Tennessee, United States)"/>
<marker lat="41.65" lon="-83.55" site="Vistula (Ohio, United States)"/>
<marker lat="40.416" lon="-78.383" site="Hollidaysburg (Pennsylvania, United States)"/>
<marker lat="38.2" lon="-84.25" site="Paris, Ky. (Kentucky, United States)"/>
<marker lat="52.45" lon="-1.916" site="Edgbaston (United Kingdom)"/>
<marker lat="40.316" lon="-82.95" site="Kilbourn (Ohio, United States)"/>
<marker lat="39.66" lon="-84.166" site="Batavia, Ohio (Ohio, United States)"/>
<marker lat="38.366" lon="-88.5" site="Albion (Illinois, United States)"/>
<marker lat="31.3" lon="-92.433" site="Alexandria (Louisiana, United States)"/>
<marker lat="38.8" lon="-77.33" site="Alexandria (Virginia, United States)"/>
<marker lat="39.766" lon="-86.15" site="Indianapolis (Indiana, United States)"/>
<marker lat="51.516" lon="-0.616" site="Eton (United Kingdom)"/>
<marker lat="37.766" lon="-122.416" site="San Francisco (California, United States)"/>
<marker lat="42.0" lon="-93.0" site="Iowa (Iowa, United States)"/>
<marker lat="40.0" lon="-89.0" site="Illinois (Illinois, United States)"/>
<marker lat="32.0" lon="-84.0" site="Georgia (Georgia, United States)"/>
<marker lat="42.516" lon="-70.883" site="Salem (Massachusetts, United States)"/>
<marker lat="51.7" lon="-8.533" site="Kinsale (Irish Republic)"/>
<marker lat="33.666" lon="-84.433" site="South River, Ga. (Georgia, United States)"/>
<marker lat="41.75" lon="-72.683" site="Park River (Connecticut, United States)"/>
<marker lat="31.5" lon="34.75" site="Israel (Israel)"/>
<marker lat="40.33" lon="-76.3" site="Lancaster (Pennsylvania, United States)"/>
<marker lat="39.733" lon="-90.216" site="Jacksonville, Ill. (Illinois, United States)"/>
<marker lat="6.5" lon="-9.5" site="Liberia (Liberia)"/>
<marker lat="53.333" lon="-6.25" site="Dublin (Irish Republic)"/>
<marker lat="40.0" lon="-80.833" site="Ohio (Ohio, United States)"/>
<marker lat="40.833" lon="-76.0" site="Pennsylvania (Pennsylvania, United States)"/>
<marker lat="51.383" lon="0.533" site="Chatham (United Kingdom)"/>
<marker lat="42.633" lon="-71.316" site="Lowell (Massachusetts, United States)"/>
<marker lat="38.883" lon="-77.33" site="Washington (United States)"/>
<marker lat="54.966" lon="-95.283" site="Oxford House (Canada)"/>
<marker lat="35.766" lon="-78.633" site="Raleigh (North Carolina, United States)"/>
<marker lat="41.65" lon="-99.566" site="Walworth (Nebraska, United States)"/>
<marker lat="42.83" lon="-71.383" site="Franklin, Mass. (Massachusetts, United States)"/>
<marker lat="39.866" lon="-79.85" site="Puritan (Pennsylvania, United States)"/>
<marker lat="36.116" lon="-84.233" site="Laurel Grove (Tennessee, United States)"/>
<marker lat="41.183" lon="-73.133" site="Stratford, Conn. (Connecticut, United States)"/>
<marker lat="60.35" lon="-149.883" site="Russian River (Alaska, United States)"/>
<marker lat="44.25" lon="-74.266" site="Plymouth Rock (New York, United States)"/>
<marker lat="42.583" lon="-71.8" site="Fitchburg (Massachusetts, United States)"/>
<marker lat="35.5" lon="-85.0" site="Tennessee (Tennessee, United States)"/>
<marker lat="54.0" lon="-60.0" site="Labrador (Canada)"/>
<marker lat="42.283" lon="-73.316" site="Stockbridge (Massachusetts, United States)"/>
<marker lat="48.816" lon="2.25" site="Meudon (France)"/>
<marker lat="31.383" lon="-87.783" site="Choctaw Bluff (Alabama, United States)"/>
<marker lat="52.5" lon="5.75" site="Holland (Netherlands)"/>
<marker lat="18.933" lon="72.85" site="Bombay (Maharashtra, India)"/>
</markers>