<markers>
<marker lat="38.0" lon="-98.0" site="United States (United States)"/>
<marker lat="34.0" lon="-80.0" site="South Carolina (South Carolina, United States)"/>
<marker lat="37.55" lon="-77.45" site="Richmond (Virginia, United States)"/>
<marker lat="32.0" lon="-84.0" site="Georgia (Georgia, United States)"/>
<marker lat="37.233" lon="-75.783" site="New Inlet (Virginia, United States)"/>
<marker lat="35.5" lon="-80.0" site="North Carolina (North Carolina, United States)"/>
<marker lat="39.0" lon="-105.0" site="Colorado (Colorado, United States)"/>
<marker lat="33.733" lon="-84.383" site="Atlanta (Georgia, United States)"/>
<marker lat="33.0" lon="-87.0" site="Alabama (Alabama, United States)"/>
<marker lat="31.883" lon="-81.183" site="Fort McAllister (Georgia, United States)"/>
<marker lat="37.66" lon="-88.55" site="Tennessee River (United States)"/>
<marker lat="35.666" lon="-80.466" site="Salisbury, N. C. (North Carolina, United States)"/>
<marker lat="37.75" lon="-77.466" site="Ashland (Virginia, United States)"/>
<marker lat="37.466" lon="-85.333" site="Muldraugh's Hill (Kentucky, United States)"/>
<marker lat="31.0" lon="-92.0" site="Louisiana (Louisiana, United States)"/>
<marker lat="37.766" lon="-122.416" site="San Francisco (California, United States)"/>
<marker lat="37.85" lon="-78.266" site="Fluvanna (Virginia, United States)"/>
<marker lat="52.0" lon="20.0" site="Poland (Poland)"/>
<marker lat="41.633" lon="-85.416" site="La Grange (Indiana, United States)"/>
<marker lat="35.383" lon="-77.983" site="Goldsboro (North Carolina, United States)"/>
<marker lat="35.6" lon="-87.33" site="Columbia, Tenn. (Tennessee, United States)"/>
<marker lat="40.75" lon="-86.66" site="Peru, Ind. (Indiana, United States)"/>
<marker lat="38.0" lon="-98.0" site="Missouri (Missouri, United States)"/>
<marker lat="42.116" lon="-80.83" site="Erie (Pennsylvania, United States)"/>
<marker lat="47.233" lon="-95.2" site="Mississippi (United States)"/>
<marker lat="33.766" lon="-90.966" site="Christmas (Mississippi, United States)"/>
<marker lat="37.25" lon="-85.483" site="Greensburg (Kentucky, United States)"/>
<marker lat="41.466" lon="-87.5" site="Valparaiso (Indiana, United States)"/>
<marker lat="39.7" lon="-82.583" site="Lancaster, Ohio (Ohio, United States)"/>
<marker lat="33.8" lon="-80.683" site="Kingville (South Carolina, United States)"/>
<marker lat="36.0" lon="138.0" site="Japan (Japan)"/>
<marker lat="35.0" lon="105.0" site="China (China)"/>
<marker lat="39.0" lon="35.0" site="Turquie (Turkey)"/>
<marker lat="37.75" lon="-77.483" site="Hanover County (Virginia, United States)"/>
<marker lat="33.25" lon="-80.8" site="Branchville (South Carolina, United States)"/>
<marker lat="37.416" lon="-76.55" site="Gloucester county (Virginia, United States)"/>
<marker lat="32.4" lon="-87.16" site="Selma (Alabama, United States)"/>
<marker lat="-42.0" lon="174.0" site="New Zealand (New Zealand)"/>
<marker lat="34.0" lon="9.0" site="Tunisia (Tunisia)"/>
<marker lat="36.416" lon="-77.583" site="Weldon, N. C. (North Carolina, United States)"/>
<marker lat="42.1" lon="-72.583" site="Springfield (Massachusetts, United States)"/>
<marker lat="40.716" lon="-74.66" site="Hudson (New Jersey, United States)"/>
<marker lat="32.866" lon="-85.183" site="West Point (Georgia, United States)"/>
<marker lat="37.1" lon="-80.683" site="Dublin (Virginia, United States)"/>
<marker lat="40.16" lon="-76.516" site="Wrightsville (Pennsylvania, United States)"/>
<marker lat="35.583" lon="-79.5" site="Cape Fear (North Carolina, United States)"/>
<marker lat="34.216" lon="-77.933" site="Wilmington, N. C. (North Carolina, United States)"/>
<marker lat="37.0" lon="-80.0" site="Virginia (Virginia, United States)"/>
<marker lat="32.75" lon="-79.85" site="Fort Moultrie (South Carolina, United States)"/>
<marker lat="47.0" lon="20.0" site="Hungary (Hungary)"/>
<marker lat="28.0" lon="3.0" site="Numidia (Algeria)"/>
<marker lat="33.466" lon="-82.16" site="Augusta (Georgia, United States)"/>
<marker lat="32.366" lon="-80.683" site="Port Royal (South Carolina, United States)"/>
<marker lat="19.416" lon="-99.166" site="Mexico (Mexico, Mexico)"/>
<marker lat="56.0" lon="10.0" site="Denmark (Denmark)"/>
<marker lat="46.0" lon="2.0" site="France (France)"/>
<marker lat="46.0" lon="-87.866" site="Dickinson County (Michigan, United States)"/>
<marker lat="42.833" lon="12.833" site="Italy (Italy)"/>
<marker lat="38.866" lon="-78.6" site="Shenandoah county (Virginia, United States)"/>
<marker lat="35.716" lon="-87.266" site="Duck River (Tennessee, United States)"/>
</markers>