<markers>
<marker lat="32.0" lon="53.0" site="Persia (Iran)"/>
<marker lat="32.55" lon="44.4" site="Babylon (Iraq)"/>
<marker lat="40.0" lon="45.0" site="Armenia (Armenia)"/>
<marker lat="20.0" lon="77.0" site="India (India)"/>
<marker lat="38.475" lon="28.0167" site="Sardis (Turkey)"/>
<marker lat="38.683" lon="27.516" site="Lydia (Turkey)"/>
<marker lat="45.1" lon="8.733" site="Mede (Italy)"/>
<marker lat="35.0" lon="38.0" site="Syria (Syria)"/>
<marker lat="37.5" lon="28.0" site="Caria (Turkey)"/>
<marker lat="38.5" lon="36.0" site="Cappadocia (Turkey)"/>
<marker lat="32.2" lon="48.333" site="Susa (Iran)"/>
<marker lat="25.0" lon="45.0" site="Arabia"/>
<marker lat="27.0" lon="30.0" site="Egypt (Egypt)"/>
<marker lat="35.0" lon="33.0" site="Cyprus (Cyprus)"/>
<marker lat="33.0" lon="65.0" site="Bactria (Afghanistan)"/>
<marker lat="38.4917" lon="22.5167" site="Delphi (Greece)"/>
<marker lat="36.666" lon="34.333" site="Cilicia (Turkey)"/>
<marker lat="2.0" lon="48.0" site="Indian Ocean"/>
<marker lat="8.0" lon="39.0" site="Ethiopia (Ethiopia)"/>
<marker lat="39.0" lon="22.0" site="Greece (Greece)"/>
<marker lat="34.766" lon="48.583" site="Ecbatana (Iran)"/>
<marker lat="37.83" lon="22.416" site="Lacedaemon (Greece)"/>
<marker lat="39.9167" lon="26.2833" site="Troy (Turkey)"/>
<marker lat="31.83" lon="47.5" site="Euphrates"/>
</markers>