<markers>
<marker lat="38.0" lon="-98.0" site="United States (United States)"/>
<marker lat="39.0" lon="-76.833" site="Maryland (Maryland, United States)"/>
<marker lat="35.5" lon="-80.0" site="North Carolina (North Carolina, United States)"/>
<marker lat="37.9" lon="-80.65" site="Meadow Bluff (West Virginia, United States)"/>
<marker lat="31.0" lon="-92.0" site="Louisiana (Louisiana, United States)"/>
<marker lat="32.0" lon="-84.0" site="Georgia (Georgia, United States)"/>
<marker lat="37.8" lon="-80.433" site="Lewisburg (West Virginia, United States)"/>
<marker lat="37.466" lon="-85.333" site="Muldraugh's Hill (Kentucky, United States)"/>
<marker lat="35.5" lon="-85.0" site="Tennessee (Tennessee, United States)"/>
<marker lat="37.0" lon="-80.0" site="Virginia (Virginia, United States)"/>
<marker lat="33.0" lon="-87.0" site="Alabama (Alabama, United States)"/>
<marker lat="37.233" lon="-75.783" site="New Inlet (Virginia, United States)"/>
<marker lat="35.0" lon="105.0" site="China (China)"/>
<marker lat="37.55" lon="-77.45" site="Richmond (Virginia, United States)"/>
<marker lat="37.933" lon="-80.833" site="Sewell Mountain (West Virginia, United States)"/>
<marker lat="35.1" lon="-77.33" site="New Bern (North Carolina, United States)"/>
<marker lat="34.333" lon="-77.65" site="New Topsail Inlet (North Carolina, United States)"/>
<marker lat="36.7" lon="-81.966" site="Abingdon, Va. (Virginia, United States)"/>
<marker lat="34.0" lon="-80.0" site="South Carolina (South Carolina, United States)"/>
<marker lat="35.5" lon="-76.266" site="Hyde (North Carolina, United States)"/>
<marker lat="30.0" lon="-100.0" site="Texas (Texas, United States)"/>
<marker lat="29.75" lon="-95.35" site="Harrisburg (Texas, United States)"/>
<marker lat="39.45" lon="-77.95" site="Martinsburg (West Virginia, United States)"/>
<marker lat="35.766" lon="-80.883" site="Statesville (North Carolina, United States)"/>
<marker lat="36.95" lon="-76.316" site="Sewell's Point (Virginia, United States)"/>
<marker lat="33.733" lon="-84.383" site="Atlanta (Georgia, United States)"/>
<marker lat="38.183" lon="-80.0" site="Huntersville (West Virginia, United States)"/>
<marker lat="42.25" lon="-71.833" site="Massachusetts (Massachusetts, United States)"/>
<marker lat="33.0" lon="-90.0" site="Mississippi (Mississippi, United States)"/>
<marker lat="33.916" lon="-78.583" site="Iredell (North Carolina, United States)"/>
<marker lat="38.983" lon="-76.15" site="Queenstown, Md. (Maryland, United States)"/>
<marker lat="34.85" lon="-82.383" site="Greenville (South Carolina, United States)"/>
<marker lat="36.883" lon="-77.933" site="Tobacco (Virginia, United States)"/>
<marker lat="42.266" lon="-72.6" site="Thermopylae (Massachusetts, United States)"/>
<marker lat="36.966" lon="-76.35" site="Hampton Roads (Virginia, United States)"/>
<marker lat="38.933" lon="-76.933" site="Bladensburg (Maryland, United States)"/>
<marker lat="38.266" lon="-80.85" site="Summersville (West Virginia, United States)"/>
<marker lat="19.0" lon="-70.666" site="Dominican Republic (Dominican Republic)"/>
<marker lat="37.5" lon="14.0" site="Sicily (Italy)"/>
<marker lat="37.516" lon="-76.783" site="West Point (Virginia, United States)"/>
<marker lat="39.2" lon="-81.5" site="Harrisville, W. Va. (West Virginia, United States)"/>
<marker lat="37.83" lon="-88.6" site="Paducah (Kentucky, United States)"/>
<marker lat="38.516" lon="-77.6" site="Aquia Creek (Virginia, United States)"/>
<marker lat="34.366" lon="-84.33" site="Lumpkin, Ga. (Georgia, United States)"/>
<marker lat="60.0" lon="47.0" site="Russia (Russia)"/>
<marker lat="53.0" lon="-2.0" site="England (United Kingdom)"/>
<marker lat="40.0" lon="-86.0" site="Indiana (Indiana, United States)"/>
<marker lat="32.83" lon="-81.1" site="Savannah (Georgia, United States)"/>
<marker lat="38.15" lon="-81.183" site="Kanawha (West Virginia, United States)"/>
<marker lat="32.783" lon="-80.1" site="John's Island, S. C. (South Carolina, United States)"/>
<marker lat="35.0" lon="38.0" site="Syria (Syria)"/>
<marker lat="37.233" lon="-76.55" site="York county (Virginia, United States)"/>
<marker lat="39.316" lon="-77.733" site="Harper's Ferry (West Virginia, United States)"/>
<marker lat="39.0" lon="-80.0" site="West Virginia (West Virginia, United States)"/>
<marker lat="38.3" lon="-77.45" site="Fredericksburg, Va. (Virginia, United States)"/>
<marker lat="35.783" lon="-80.883" site="Iredell (North Carolina, United States)"/>
<marker lat="34.633" lon="-77.95" site="Washington, N. C. (North Carolina, United States)"/>
<marker lat="38.9" lon="-77.25" site="Vienna (Virginia, United States)"/>
<marker lat="18.933" lon="72.85" site="Bombay (Maharashtra, India)"/>
<marker lat="42.25" lon="-71.8" site="Worcester (Massachusetts, United States)"/>
<marker lat="34.216" lon="-77.933" site="Wilmington, N. C. (North Carolina, United States)"/>
<marker lat="34.0" lon="-81.33" site="Columbia (South Carolina, United States)"/>
<marker lat="27.8" lon="-97.383" site="Corpus Christi (Texas, United States)"/>
<marker lat="40.16" lon="-74.983" site="Union Landing (New Jersey, United States)"/>
<marker lat="40.416" lon="-3.716" site="Madrid (Spain)"/>
<marker lat="32.766" lon="-79.916" site="Charleston (South Carolina, United States)"/>
<marker lat="19.416" lon="-99.166" site="Mexico (Mexico, Mexico)"/>
<marker lat="41.833" lon="-70.0" site="Cape Cod (Massachusetts, United States)"/>
<marker lat="46.0" lon="2.0" site="France (France)"/>
<marker lat="31.16" lon="-87.583" site="Perdido River (United States)"/>
<marker lat="30.75" lon="-87.766" site="Baldwin (Alabama, United States)"/>
<marker lat="34.416" lon="-84.583" site="Talmadge (Georgia, United States)"/>
<marker lat="30.216" lon="-88.916" site="Ship Island (Mississippi, United States)"/>
<marker lat="40.283" lon="-84.15" site="Sydney (Ohio, United States)"/>
<marker lat="39.5" lon="-8.0" site="Portugal (Portugal)"/>
<marker lat="39.166" lon="-81.83" site="Ritchie (West Virginia, United States)"/>
<marker lat="35.516" lon="-84.65" site="Lake Comfort (Tennessee, United States)"/>
<marker lat="36.816" lon="-79.4" site="Pittsylvania (Virginia, United States)"/>
<marker lat="52.0" lon="20.0" site="Poland (Poland)"/>
</markers>