<markers>
<marker lat="38.3" lon="-77.633" site="Chancellorsville (Virginia, United States)"/>
<marker lat="38.0" lon="-98.0" site="United States (United States)"/>
<marker lat="33.733" lon="-84.383" site="Atlanta (Georgia, United States)"/>
<marker lat="32.0" lon="-84.0" site="Georgia (Georgia, United States)"/>
<marker lat="35.5" lon="-80.0" site="North Carolina (North Carolina, United States)"/>
<marker lat="34.0" lon="-80.0" site="South Carolina (South Carolina, United States)"/>
<marker lat="38.3" lon="-77.45" site="Fredericksburg, Va. (Virginia, United States)"/>
<marker lat="32.7" lon="-79.933" site="Secessionville (South Carolina, United States)"/>
<marker lat="52.0" lon="20.0" site="Poland (Poland)"/>
<marker lat="38.283" lon="-77.466" site="Marye's Heights (Virginia, United States)"/>
<marker lat="53.416" lon="-3.0" site="Liverpool (United Kingdom)"/>
<marker lat="33.0" lon="-87.0" site="Alabama (Alabama, United States)"/>
<marker lat="32.0" lon="53.0" site="Persia (Iran)"/>
<marker lat="34.65" lon="-82.85" site="Adams, S. C. (South Carolina, United States)"/>
<marker lat="38.416" lon="-77.4" site="Stafford Court House (Virginia, United States)"/>
<marker lat="37.266" lon="-80.916" site="Chapel (Virginia, United States)"/>
<marker lat="34.266" lon="-81.616" site="Newberry, S. C. (South Carolina, United States)"/>
<marker lat="33.5" lon="-89.583" site="Kosciusko, Mississippi (Mississippi, United States)"/>
<marker lat="60.0" lon="47.0" site="Russia (Russia)"/>
<marker lat="-33.933" lon="18.466" site="Cape Town (South Africa)"/>
<marker lat="38.483" lon="-78.416" site="Rapidan (Virginia, United States)"/>
<marker lat="37.733" lon="-77.533" site="Stony Run (Virginia, United States)"/>
<marker lat="36.7" lon="-81.966" site="Abingdon, Va. (Virginia, United States)"/>
<marker lat="32.783" lon="-80.1" site="John's Island, S. C. (South Carolina, United States)"/>
<marker lat="37.55" lon="-77.45" site="Richmond (Virginia, United States)"/>
<marker lat="-11.0" lon="-42.0" site="Bahia (Bahia, Brazil)"/>
<marker lat="35.5" lon="-85.0" site="Tennessee (Tennessee, United States)"/>
<marker lat="36.716" lon="-76.583" site="Suffolk, Va. (Virginia, United States)"/>
<marker lat="32.45" lon="-84.983" site="Columbus (Georgia, United States)"/>
<marker lat="-10.0" lon="-55.0" site="Brazil (Brazil)"/>
<marker lat="36.816" lon="-79.4" site="Pittsylvania (Virginia, United States)"/>
</markers>