<markers>
<marker lat="35.133" lon="-90.33" site="Memphis (Tennessee, United States)"/>
<marker lat="41.383" lon="-84.116" site="Napoleon (Ohio, United States)"/>
<marker lat="38.883" lon="-77.33" site="Washington (United States)"/>
<marker lat="50.933" lon="11.583" site="Jena (Thuringia, Germany)"/>
<marker lat="47.333" lon="13.333" site="Austria (Austria)"/>
<marker lat="47.383" lon="8.55" site="Zurich (Switzerland)"/>
<marker lat="38.616" lon="-90.183" site="St. Louis (Missouri, United States)"/>
<marker lat="37.33" lon="-89.183" site="Cairo, Ill. (Illinois, United States)"/>
<marker lat="50.616" lon="3.716" site="Ligny (Belgium)"/>
<marker lat="39.4" lon="-77.4" site="Frederick, Md. (Maryland, United States)"/>
<marker lat="60.35" lon="-149.883" site="Russian River (Alaska, United States)"/>
<marker lat="32.366" lon="-80.683" site="Port Royal (South Carolina, United States)"/>
<marker lat="39.833" lon="-88.95" site="Decatur (Illinois, United States)"/>
<marker lat="38.0" lon="-98.0" site="Missouri (Missouri, United States)"/>
<marker lat="42.833" lon="12.833" site="Italy (Italy)"/>
<marker lat="37.0" lon="-85.0" site="Kentucky (Kentucky, United States)"/>
<marker lat="40.0" lon="-80.833" site="Ohio (Ohio, United States)"/>
<marker lat="51.15" lon="11.8" site="Naumburg (Saxony-Anhalt, Germany)"/>
<marker lat="36.566" lon="-89.183" site="Hickman, Ky. (Kentucky, United States)"/>
<marker lat="39.283" lon="-76.6" site="Baltimore, Md. (Maryland, United States)"/>
<marker lat="50.416" lon="4.433" site="Charleroi (Belgium)"/>
<marker lat="47.233" lon="-95.2" site="Mississippi (United States)"/>
<marker lat="51.5" lon="10.5" site="Germany (Germany)"/>
<marker lat="37.266" lon="-76.7" site="Williamsburg (Virginia, United States)"/>
<marker lat="50.716" lon="4.616" site="Wavre (Belgium)"/>
<marker lat="45.66" lon="7.516" site="Rivoli (Italy)"/>
<marker lat="47.85" lon="8.85" site="Aach (Baden-Wurttemberg, Germany)"/>
<marker lat="50.833" lon="4.333" site="Brussels (Belgium)"/>
<marker lat="50.1" lon="14.433" site="Prague (Czech Republic)"/>
<marker lat="52.25" lon="10.5" site="Braunschweig (Lower Saxony, Germany)"/>
<marker lat="38.75" lon="-77.466" site="Manassas, Va. (Virginia, United States)"/>
<marker lat="37.83" lon="-88.6" site="Paducah (Kentucky, United States)"/>
<marker lat="38.0" lon="-98.0" site="United States (United States)"/>
<marker lat="51.133" lon="16.8" site="Leuthen (Poland)"/>
<marker lat="32.0" lon="-84.0" site="Georgia (Georgia, United States)"/>
<marker lat="50.733" lon="4.233" site="Halle (Belgium)"/>
<marker lat="41.783" lon="-92.66" site="Marengo, Iowa (Iowa, United States)"/>
<marker lat="47.55" lon="7.6" site="Basel (Switzerland)"/>
<marker lat="35.5" lon="-80.0" site="North Carolina (North Carolina, United States)"/>
<marker lat="39.0" lon="-80.0" site="West Virginia (West Virginia, United States)"/>
<marker lat="51.1" lon="17.0" site="Breslau (Poland)"/>
<marker lat="47.85" lon="9.16" site="Stockach (Baden-Wurttemberg, Germany)"/>
<marker lat="47.216" lon="-94.366" site="Two Points (Minnesota, United States)"/>
<marker lat="50.466" lon="4.55" site="Fleurus (Belgium)"/>
<marker lat="49.16" lon="12.1" site="Ratisbon (Bavaria, Germany)"/>
<marker lat="40.66" lon="-74.85" site="Burlington (New Jersey, United States)"/>
<marker lat="34.566" lon="-91.45" site="Ulm (Arkansas, United States)"/>
<marker lat="50.466" lon="4.866" site="Namurcum (Belgium)"/>
<marker lat="48.816" lon="11.85" site="Abensberg (Bavaria, Germany)"/>
<marker lat="36.983" lon="-89.133" site="Ohio (United States)"/>
<marker lat="48.75" lon="12.2" site="Eckmuhl (Bavaria, Germany)"/>
<marker lat="45.366" lon="10.566" site="Solferino (Italy)"/>
<marker lat="47.45" lon="8.583" site="Kloten (Switzerland)"/>
<marker lat="49.8" lon="9.933" site="Wurzburg (Bavaria, Germany)"/>
<marker lat="49.166" lon="16.883" site="Austerlitz (Czech Republic)"/>
<marker lat="39.183" lon="-78.15" site="Winchester, Va. (Virginia, United States)"/>
<marker lat="50.716" lon="4.383" site="Waterloo (Belgium)"/>
<marker lat="49.45" lon="11.866" site="Amberg (Bavaria, Germany)"/>
<marker lat="42.85" lon="-76.333" site="Borodino (New York, United States)"/>
<marker lat="51.333" lon="12.416" site="Leipzig (Saxony, Germany)"/>
<marker lat="30.566" lon="-81.683" site="Nassau River (Florida, United States)"/>
<marker lat="38.133" lon="-76.5" site="Swan Point (Maryland, United States)"/>
<marker lat="35.0" lon="105.0" site="China (China)"/>
<marker lat="45.35" lon="-100.383" site="Moreau (South Dakota, United States)"/>
<marker lat="36.833" lon="3.0" site="Algiers (Algeria)"/>
<marker lat="41.116" lon="1.25" site="Tarraco (Spain)"/>
<marker lat="39.966" lon="-4.833" site="Talavera (Spain)"/>
<marker lat="34.0" lon="-80.0" site="South Carolina (South Carolina, United States)"/>
<marker lat="39.316" lon="-77.733" site="Harper's Ferry (West Virginia, United States)"/>
<marker lat="35.0" lon="-93.0" site="Arkansas (Arkansas, United States)"/>
<marker lat="55.0" lon="32.5" site="Smolenskaya Oblast (Russia)"/>
<marker lat="38.3" lon="-77.45" site="Fredericksburg, Va. (Virginia, United States)"/>
<marker lat="38.733" lon="-9.133" site="Lisbon (Portugal)"/>
<marker lat="37.83" lon="-84.6" site="Somerset, Ky. (Kentucky, United States)"/>
<marker lat="35.65" lon="-84.15" site="Jena (Tennessee, United States)"/>
<marker lat="45.0" lon="-69.0" site="Maine (Maine, United States)"/>
<marker lat="33.0" lon="-90.0" site="Mississippi (Mississippi, United States)"/>
<marker lat="50.983" lon="10.316" site="Eisenach (Thuringia, Germany)"/>
<marker lat="47.0" lon="8.0" site="Switzerland (Switzerland)"/>
<marker lat="23.0" lon="-102.0" site="Mexico (Mexico)"/>
<marker lat="35.5" lon="-85.0" site="Tennessee (Tennessee, United States)"/>
<marker lat="33.0" lon="-87.0" site="Alabama (Alabama, United States)"/>
<marker lat="52.5" lon="5.75" site="Holland (Netherlands)"/>
<marker lat="27.0" lon="30.0" site="Egypt (Egypt)"/>
<marker lat="41.366" lon="-83.65" site="Bowling Green, Wood County, Ohio (Ohio, United States)"/>
<marker lat="50.566" lon="4.7" site="Gembloux (Belgium)"/>
<marker lat="41.15" lon="-81.35" site="Franklin Mills, Portage County, Ohio (Ohio, United States)"/>
<marker lat="48.516" lon="12.166" site="Landshut (Bavaria, Germany)"/>
<marker lat="42.233" lon="-88.6" site="Marengo (Illinois, United States)"/>
<marker lat="56.883" lon="37.0" site="Borodino (Russia)"/>
<marker lat="50.8" lon="11.583" site="Kahla (Thuringia, Germany)"/>
<marker lat="44.416" lon="8.95" site="Genoa (Italy)"/>
<marker lat="39.7" lon="-91.35" site="Hannibal (Missouri, United States)"/>
<marker lat="36.166" lon="-86.75" site="Edgefield (Tennessee, United States)"/>
<marker lat="44.916" lon="-74.883" site="Massena (New York, United States)"/>
<marker lat="25.0" lon="-90.0" site="Gulf of Mexico"/>
<marker lat="50.7" lon="11.916" site="Auma (Thuringia, Germany)"/>
<marker lat="49.216" lon="16.666" site="Brunn (Czech Republic)"/>
<marker lat="41.3" lon="-75.8" site="Sebastopol (Pennsylvania, United States)"/>
<marker lat="45.433" lon="11.0" site="Verona (Italy)"/>
<marker lat="50.25" lon="10.966" site="Coburg (Bavaria, Germany)"/>
<marker lat="48.583" lon="7.833" site="Kehl (Baden-Wurttemberg, Germany)"/>
<marker lat="46.0" lon="2.0" site="France (France)"/>
<marker lat="20.0" lon="77.0" site="India (India)"/>
<marker lat="50.833" lon="4.0" site="Belgium (Belgium)"/>
<marker lat="45.466" lon="10.483" site="Lonato (Italy)"/>
<marker lat="42.966" lon="-84.116" site="Corunna (Michigan, United States)"/>
<marker lat="60.0" lon="47.0" site="Russia (Russia)"/>
<marker lat="40.0" lon="-4.0" site="Spain (Spain)"/>
<marker lat="48.333" lon="8.33" site="Biberach (Baden-Wurttemberg, Germany)"/>
</markers>